Latitude;Longitude;Time;Date;Number of Sats;GPS Speed (Kn);GPS True Heading;GPS Magnetic Variation;HDOP;C Magnetic Heading;C True Heading;Pitch Angle;Roll Angle;C Inside Temp (c);DFS Depth (m);DTB Height (m);Total Water Column (m);Batt Percent;Power Watts;Watt-Hours;Batt Volts;Batt Ampers;Batt State;Time to Empty;Current Step;Dist To Next (m);Next Speed (kn);Vehicle Speed (kn);Motor Speed CMD;Next Heading;Next Long;Next Lat;Next Depth (m);Depth Goal (m);Vehicle State;Error State;Distance to Track (m);Fin Pitch R;Fin Pitch L;Pitch Goal;Fin Yaw T;Fin Yaw B;Yaw Goal;Fin Roll;DVL-Depth (m);DVL -Altitude (m);DVL -Water Column (m);DVL-FixType;DVL-FixQuality;DVL-Temperature;Conductivity (mmhos/cm);Temperature (c);Salinity (ppt);Sound Speed (m/s);Date m/d/y   ;Time hh:mm:ss;Temp C;SpCond mS/cm;Sal ppt;Depth feet;pH;pH mV;Turbid+ NTU;Chl ug/L;BGA-PC cells/mL;ODOsat %;ODO mg/L;Battery volts;ROSEM Command Type;
25.9127708333333;-80.1378861666667;12:28:16.70;11/16/2022;9;0.307;319.92;-7.23198341732529;1.06;173.5;163.12;1.28;-5.49;32.2;.00;.60;.60;97;22;520.1;16.4;-1.3;D;1606.5;0;6.456;2;0.1;128;106.2;-80.13782418;25.91275464;0;0;1;N;2.960115;65;65;11;5;5;92.0158;0;9999.99;.61;0.737;2;9;28.4;0;28.3999996185303;37.76;1545.0013;11/16/22;12:00:32;27.38;56.84;37.76;1.100;8.27;-75.2;-2.2;-5.2;-2626;65.6;4.21;13.0;;
25.9127675;-80.1378856666667;12:28:17.72;11/16/2022;8;0.067;319.92;-7.23198341732529;1.06;173.9;163.51;1.28;-5.25;32.3;.00;.60;.60;97;22;520.1;16.4;-1.3;D;1606.5;0;6.314;2;0.1;128;103.09;-80.13782418;25.91275464;0;0;1;N;2.586887;64;64;11;5;5;90.94836;0;9999.99;.61;0.737;2;9;28.4;0;28.3999996185303;37.76;1545.0013;11/16/22;12:00:32;27.38;56.84;37.76;1.100;8.27;-75.2;-2.2;-5.2;-2626;65.6;4.21;13.0;;
25.9127666290816;-80.1378826666291;12:28:18.73;11/16/2022;8;0.64;319.92;-7.23198341732529;1.06;171.9;161.54;2.71;-2.1;32.2;.01;.60;.61;97;22;520.1;16.4;-1.3;D;1578.3;1;21.463;2;0.08;174;137.82;-80.13773856;25.9126236;0;0;1;N;4.368295;70;70;11;5;5;129.9541;0;9999.99;.62;0.747;2;9;28.4;0;28.3999996185303;37.99;1545.24387;11/16/22;12:00:33;27.39;57.15;37.99;1.103;8.27;-75.4;-2.1;-2.6;-2147;65.6;4.20;13.2;;
25.9127716484337;-80.1378769266192;12:28:19.73;11/16/2022;9;1.529;21.69;-7.23198341732529;1.06;174.3;163.91;1.22;-4.14;32.2;.01;.60;.61;97;22;520.1;16.4;-1.3;D;1578.3;1;21.506;2;0.3;174;139.95;-80.13773856;25.9126236;0;0;1;N;3.587617;64;64;11;5;5;133.5136;0;9999.99;.61;0.737;2;9;28.4;0;28.3999996185303;37.72;1544.95955;11/16/22;12:00:35;27.37;56.79;37.72;1.121;8.27;-75.4;-1.7;-2.8;-1030;65.6;4.20;13.3;;
25.9127660567328;-80.1378787216384;12:28:20.73;11/16/2022;8;0.354;21.69;-7.23198341732529;1.16;172.3;161.93;1.22;-2.1;32.2;.00;.57;.58;97;22;520.1;16.4;-1.3;D;1578.3;1;21.153;2;0.59;174;138.49;-80.13773856;25.9126236;0;0;1;N;4.052897;64;64;11;5;5;130.9498;0;9999.99;.58;0.707;2;9;28.4;0;28.3999996185303;37.72;1544.95955;11/16/22;12:00:35;27.37;56.79;37.72;1.121;8.27;-75.4;-1.7;-2.8;-1030;65.6;4.20;13.3;;
25.9127555190462;-80.1378813711868;12:28:21.73;11/16/2022;9;1.293;21.69;-7.23198341732529;1.06;169.6;159.27;1.19;-2.16;32.2;.00;.56;.56;97;22;520.1;16.4;-1.3;D;1578.3;1;20.474;2;0.93;174;135.76;-80.13773856;25.9126236;0;0;1;N;4.875509;64;64;11;5;5;125.9458;0;9999.99;.57;0.697;2;9;28.4;0;28.3999996185303;37.98;1545.23322;11/16/22;12:00:36;27.38;57.14;37.98;1.164;8.26;-74.7;-2.4;-2.1;-4411;65.4;4.19;13.1;;
25.9127524577489;-80.1378795815791;12:28:22.73;11/16/2022;9;0.371;21.69;-7.23198341732529;1.16;165.1;154.87;1.41;0.47;32.2;.00;.54;.54;97;41;520.0;16.3;-2.5;D;865.1;1;20.106;2;1.39;174;135.45;-80.13773856;25.9126236;0;0;1;N;4.886301;65;65;11;8;8;125.1807;0;9999.99;.55;0.677;2;9;28.4;0;28.3999996185303;37.8;1545.04322;11/16/22;12:00:38;27.36;56.90;37.80;1.143;8.27;-75.3;-2.7;-3.9;-2453;65.4;4.19;13.2;;
25.9127412127235;-80.137879855216;12:28:23.73;11/16/2022;9;1.532;21.69;-7.23198341732529;1.16;161.5;151.37;2.48;-0.77;32.2;.00;.53;.54;97;41;520.0;16.3;-2.5;D;865.1;1;19.255;2;2.26;174;132.78;-80.13773856;25.9126236;0;0;1;N;5.535941;72;72;11;5;5;119.9782;0;9999.99;.54;0.667;2;9;28.4;0;28.3999996185303;37.8;1545.04322;11/16/22;12:00:38;27.36;56.90;37.80;1.143;8.27;-75.3;-2.7;-3.9;-2453;65.4;4.19;13.2;;
25.9127351704614;-80.1378805700621;12:28:24.73;11/16/2022;9;0.774;21.69;-7.23198341732529;0.99;165.5;155.26;1.22;-8.2;32.3;.00;.52;.52;97;41;520.0;16.3;-2.5;D;865.1;1;18.859;2;1.73;174;131.14;-80.13773856;25.9126236;0;0;1;N;5.940539;65;65;11;5;5;116.5728;0;9999.99;.53;0.6569999;2;9;28.3;0;28.3999996185303;38.01;1545.2649;11/16/22;12:00:39;27.38;57.18;38.01;1.116;8.27;-75.6;-3.3;-5.4;-928;65.3;4.18;13.2;;
25.9127286849748;-80.1378875903784;12:28:25.73;11/16/2022;9;0.911;21.69;-7.23198341732529;0.99;165.6;155.36;1.32;-3.92;32.2;.00;.50;.50;97;39;520.0;16.3;-2.4;D;891;1;18.940;2;1.54;174;128.09;-80.13773856;25.9126236;0;0;1;N;6.89945;65;65;11;5;5;111.6065;0;9999.99;.51;0.637;2;9;28.3;0;28.2999992370605;37.75;1544.77584;11/16/22;12:00:41;27.36;56.83;37.75;1.131;8.27;-75.2;-3.2;-4.1;-395;65.4;4.19;13.2;;
25.912728022668;-80.1378896829667;12:28:26.73;11/16/2022;9;0.131;21.69;-7.23198341732529;0.99;165;154.77;1.35;-0.95;32.2;.00;.49;.49;97;39;520.0;16.3;-2.4;D;891;1;19.060;2;1.47;174;127.53;-80.13773856;25.9126236;0;0;1;N;7.125156;65;65;11;5;5;110.8824;0;9999.99;.50;0.627;2;9;28.3;0;28.2999992370605;37.75;1544.77584;11/16/22;12:00:41;27.36;56.83;37.75;1.131;8.27;-75.2;-3.2;-4.1;-395;65.4;4.19;13.2;;
25.9127195056212;-80.137886800011;12:28:27.73;11/16/2022;9;1.668;21.69;-7.23198341732529;0.99;160.7;150.6;2.07;0.93;32.2;.00;.46;.47;97;39;520.0;16.3;-2.4;D;891;1;18.263;2;1.28;174;125.73;-80.13773856;25.9126236;0;0;1;N;7.376473;69;69;11;5;5;106.9065;0;9999.99;.48;0.607;0;0;28.3;0;28.2999992370605;37.83;1544.86021;11/16/22;12:00:42;27.32;56.93;37.83;1.149;8.26;-75.1;-2.8;-1.7;-1471;65.5;4.20;13.2;;
25.9127210501867;-80.1378862952979;12:28:28.73;11/16/2022;9;0.603;21.69;-7.23198341732529;0.99;152;142.25;2.68;0.6;32.2;.01;.50;.50;97;39;520.0;16.3;-2.4;D;891;1;18.323;2;1.4;174;126.25;-80.13773856;25.9126236;0;0;1;N;7.246173;73;73;11;5;5;107.476;0;9999.99;.52;0.647;2;9;28.3;0;28.2999992370605;37.61;1544.62813;11/16/22;12:00:44;27.32;56.65;37.61;1.116;8.26;-75.1;-3.0;-3.4;-1386;65.5;4.21;13.1;;
25.9127146434432;-80.1378823068911;12:28:29.73;11/16/2022;9;1.098;21.69;-7.23198341732529;0.99;142.9;133.65;3.26;0.28;32.2;.01;.49;.50;97;39;520.0;16.3;-2.4;D;889.8;1;17.584;2;1.53;175;125.15;-80.13773856;25.9126236;0;0;1;N;7.281418;77;77;11;21;21;107.2462;0;9999.99;.52;0.647;2;9;28.3;0;28.2999992370605;37.61;1544.62813;11/16/22;12:00:44;27.32;56.65;37.61;1.116;8.26;-75.1;-3.0;-3.4;-1386;65.5;4.21;13.1;;
25.9127075067339;-80.1378785519546;12:28:30.73;11/16/2022;9;1.211;21.69;-7.23198341732529;0.99;133.9;125.23;4.01;0.76;32.2;.01;.51;.52;97;39;520.0;16.3;-2.4;D;889.8;1;16.825;2;1.53;176;123.68;-80.13773856;25.9126236;0;0;1;N;7.37442;80;80;11;50;50;106.8873;0;9999.99;.54;0.667;2;9;28.3;0;28.2999992370605;37.85;1544.88202;11/16/22;12:00:45;27.32;56.96;37.85;1.105;8.27;-75.2;-2.5;-4.1;-1258;65.6;4.21;13.2;;
25.9127012821947;-80.1378768554245;12:28:31.77;11/16/2022;9;1.003;21.69;-7.23198341732529;0.99;125.7;117.62;3.92;3.02;32.2;.01;.54;.55;97;39;520.0;16.3;-2.4;D;889.8;1;16.307;2;1.66;176;121.98;-80.13773856;25.9126236;0;0;1;N;7.606539;81;81;11;81;81;106.0015;0;9999.99;.57;0.697;2;9;28.3;0;28.2999992370605;37.7;1544.72379;11/16/22;12:00:47;27.39;56.77;37.70;1.115;8.28;-76.1;-3.0;-3.0;-2267;65.5;4.20;13.2;;
25.9126931989557;-80.1378739427112;12:28:32.77;11/16/2022;9;1.371;21.69;-7.23198341732529;0.99;119.4;111.79;3.53;4.7;32.1;.01;.61;.62;97;40;520.0;16.3;-2.4;D;867.3;1;15.596;2;1.76;177;119.75;-80.13773856;25.9126236;0;0;1;N;7.818904;77;77;11;97;97;105.2145;0;9999.99;.64;0.767;2;9;28.3;0;28.2999992370605;37.7;1544.72379;11/16/22;12:00:47;27.39;56.77;37.70;1.115;8.28;-76.1;-3.0;-3.0;-2267;65.5;4.20;13.2;;
25.9126784407435;-80.1378658716524;12:28:33.77;11/16/2022;9;2.224;21.69;-7.23198341732529;0.99;115.1;107.81;2.84;5.97;32.2;.00;.68;.69;97;40;520.0;16.3;-2.4;D;867.3;1;14.118;2;1.75;177;115.59;-80.13773856;25.9126236;0;0;1;N;7.971499;74;74;11;114;114;104.6598;0;9999.99;.71;0.837;2;9;28.3;0;28.2999992370605;37.81;1544.83949;11/16/22;12:00:48;27.40;56.91;37.81;1.105;8.28;-75.8;-2.4;-4.0;528;65.7;4.21;13.1;;
25.9126671153423;-80.1378597633416;12:28:34.77;11/16/2022;10;2.118;21.69;-7.23198341732529;0.99;112;104.94;2.11;4.75;32.2;.00;.81;.81;97;40;520.0;16.3;-2.4;D;867.3;1;13.052;2;1.74;177;111.76;-80.13773856;25.9126236;0;0;1;N;8.082803;70;70;11;124;124;104.2623;0;9999.99;.83;0.957;2;9;28.3;0;28.2999992370605;37.53;1544.5435;11/16/22;12:00:50;27.43;56.55;37.53;1.120;8.28;-75.9;-3.6;-1.7;-993;66.3;4.25;13.2;;
25.912654065886;-80.1378468116258;12:28:35.77;11/16/2022;10;2.191;21.69;-7.23198341732529;0.99;110.3;103.37;1.69;5.13;32.2;.00;1.04;1.04;97;40;520.0;16.3;-2.4;D;867.3;1;11.344;2;1.72;177;107.37;-80.13773856;25.9126236;0;0;1;N;7.690858;66;66;11;135;135;105.6862;0;9999.99;1.05;1.177;2;9;28.3;0;28.2999992370605;37.53;1544.5435;11/16/22;12:00:50;27.43;56.55;37.53;1.120;8.28;-75.9;-3.6;-1.7;-993;66.3;4.25;13.2;;
25.9126463278276;-80.1378361119314;12:28:36.77;11/16/2022;9;2.159;21.69;-7.23198341732529;0.99;109.8;102.91;1.7;4.8;32.2;.00;1.30;1.30;97;41;519.9;16.3;-2.5;D;857.7;1;10.079;2;1.65;178;104.52;-80.13773856;25.9126236;0;0;1;N;7.203757;67;67;11;146;146;107.5555;0;9999.99;1.32;1.447;2;9;28.2;0;28.2999992370605;37.66;1544.68055;11/16/22;12:00:51;27.41;56.71;37.66;1.142;8.28;-75.9;-2.9;-5.8;433;66.7;4.28;13.3;;
25.9126334623931;-80.1378251341697;12:28:37.77;11/16/2022;9;1.896;21.69;-7.23198341732529;0.99;109.5;102.63;2.1;5.21;32.2;.00;1.63;1.63;97;41;519.9;16.3;-2.5;D;857.7;1;8.728;2;1.75;178;97.22;-80.13773856;25.9126236;0;0;1;N;6.990929;70;70;11;150;150;108.4097;0;9999.99;1.65;1.777;2;9;28.3;0;28.2000007629395;37.69;1544.49682;11/16/22;12:00:53;27.46;56.76;37.69;1.150;8.29;-76.4;-3.2;-7.2;1242;67.6;4.33;13.3;;
25.9126281612788;-80.1378113080913;12:28:38.77;11/16/2022;9;2.2;21.69;-7.23198341732529;0.99;110.4;103.46;2.03;5.1;32.2;.00;1.91;1.91;97;41;519.9;16.3;-2.5;D;857.7;1;7.294;2;1.79;178;93.99;-80.13773856;25.9126236;0;0;1;N;6.086444;71;71;11;164;164;112.2941;0;9999.99;1.93;2.057;2;9;28.2;0;28.2000007629395;37.69;1544.49682;11/16/22;12:00:53;27.46;56.76;37.69;1.150;8.29;-76.4;-3.2;-7.2;1242;67.6;4.33;13.3;;
25.9126199770849;-80.1378021314208;12:28:39.77;11/16/2022;10;1.794;21.69;-7.23198341732529;0.99;111.6;104.57;2.31;4.46;32.2;.00;2.19;2.19;97;42;519.9;16.3;-2.5;D;841.6;1;6.371;2;1.86;178;86.37;-80.13773856;25.9126236;0;0;1;N;5.757585;71;71;11;164;164;113.8168;0;9999.99;2.21;2.337;2;9;28.2;0;28.2000007629395;37.6;1544.40175;11/16/22;12:00:54;27.53;56.65;37.60;1.143;8.29;-76.7;-2.8;-5.6;-3287;68.1;4.36;13.2;;
25.9126135956438;-80.137792148391;12:28:40.77;11/16/2022;9;2.167;21.69;-7.23198341732529;0.99;113;105.87;2.94;3.45;32.1;.00;2.46;2.46;97;42;519.9;16.3;-2.5;D;841.6;1;5.474;2;1.89;178;78.27;-80.13773856;25.9126236;0;0;1;N;5.256817;73;73;11;168;168;116.2519;0;9999.99;2.48;2.607;2;9;28.2;0;28.2000007629395;37.85;1544.66594;11/16/22;12:00:56;27.67;56.98;37.85;1.119;8.29;-76.6;-3.3;-4.7;-4756;69.4;4.42;13.1;;
25.9126080236787;-80.1377796204902;12:28:41.77;11/16/2022;10;2.172;21.69;-7.23198341732529;0.99;116.4;109.01;2.89;3.52;32.1;.00;2.66;2.67;97;42;519.9;16.3;-2.5;D;841.6;2;18.631;2;1.91;179;128.17;-80.13763318;25.91250447;0;0;1;N;4.356688;74;74;11;157;157;116.5501;0;9999.99;2.69;2.817;2;9;28.2;0;28.2000007629395;37.85;1544.66594;11/16/22;12:00:56;27.67;56.98;37.85;1.119;8.29;-76.6;-3.3;-4.7;-4756;69.4;4.42;13.1;;
25.9126035249955;-80.1377694882638;12:28:42.77;11/16/2022;10;1.999;21.69;-7.23198341732529;0.99;119.6;111.97;2.99;2.28;32.1;.00;2.84;2.84;97;42;519.9;16.3;-2.5;D;841.6;2;17.526;2;1.93;179;128.94;-80.13763318;25.91250447;0;0;1;N;3.883552;74;74;11;146;146;116.4501;0;9999.99;2.86;2.987;2;9;28.2;0;28.2000007629395;37.52;1544.31746;11/16/22;12:00:57;27.74;56.55;37.52;1.121;8.29;-76.5;-3.0;0.0;-1930;70.1;4.47;13.3;;
25.9125980393243;-80.1377587168658;12:28:43.77;11/16/2022;10;1.921;21.69;-7.23198341732529;0.9;120.9;113.18;3.03;2.51;32.2;.00;2.94;2.94;97;43;519.9;16.3;-2.6;D;823.3;2;16.306;2;1.94;179;129.65;-80.13763318;25.91250447;0;0;1;N;3.401186;78;78;11;150;150;118.4637;0;9999.99;2.97;3.097;2;9;28.3;0;28.2000007629395;37.8;1544.61338;11/16/22;12:00:59;27.82;56.92;37.80;1.124;8.29;-77.0;-3.3;-7.4;-1274;71.4;4.54;13.4;;
25.912590366134;-80.1377495995145;12:28:44.77;11/16/2022;10;1.8;21.69;-7.23198341732529;0.9;122.8;114.93;2.63;3.63;32.2;.00;3.02;3.02;97;43;519.9;16.3;-2.6;D;823.3;2;15.060;2;1.91;179;129.36;-80.13763318;25.91250447;0;0;1;N;3.220583;73;73;11;146;146;119.565;0;9999.99;3.04;3.167;2;9;28.3;0;28.2000007629395;37.8;1544.61338;11/16/22;12:00:59;27.82;56.92;37.80;1.124;8.29;-77.0;-3.3;-7.4;-1274;71.4;4.54;13.4;;
25.9125827492461;-80.1377428499151;12:28:45.77;11/16/2022;10;1.958;21.69;-7.23198341732529;0.9;123;115.12;2.71;4.22;32.2;.00;3.04;3.04;97;43;519.9;16.3;-2.6;D;823.3;2;14.003;2;1.92;179;128.43;-80.13763318;25.91250447;0;0;1;N;3.218991;73;73;11;145;145;119.5745;0;9999.99;3.06;3.187;2;9;28.3;0;28.2999992370605;37.52;1544.53284;11/16/22;12:01:00;27.87;56.54;37.52;1.137;8.30;-77.1;-3.7;-0.6;-3586;71.9;4.58;13.1;;
25.9125767994695;-80.1377334764786;12:28:46.77;11/16/2022;10;1.913;21.69;-7.23198341732529;0.9;123.8;115.86;2.69;4.82;32.1;.00;3.19;3.19;97;43;519.9;16.3;-2.6;D;824.2;2;12.857;2;1.93;179;128.72;-80.13763318;25.91250447;0;0;1;N;2.890427;71;71;11;149;149;121.628;0;9999.99;3.21;3.337;2;9;28.3;0;28.2999992370605;37.52;1544.53278;11/16/22;12:01:01;27.91;56.54;37.52;1.122;8.31;-78.0;-3.4;-0.8;-839;72.7;4.62;13.3;;
25.9125695151239;-80.1377248034618;12:28:47.77;11/16/2022;10;1.915;21.69;-7.23198341732529;0.9;124;116.04;2.34;4.5;32.1;.00;3.20;3.20;97;43;519.9;16.3;-2.6;D;824.2;2;11.674;2;1.96;179;128.28;-80.13763318;25.91250447;0;0;1;N;2.716545;70;70;11;152;152;122.7366;0;9999.99;3.22;3.347;2;9;28.3;0;28.2999992370605;37.59;1544.60666;11/16/22;12:01:02;27.92;56.64;37.59;1.127;8.29;-77.0;-3.5;-3.5;-2733;73.5;4.67;13.3;;
25.9125627942454;-80.1377144040138;12:28:48.78;11/16/2022;10;1.952;21.69;-7.23198341732529;0.9;125;116.97;2.25;5.48;32.1;.00;3.24;3.24;97;43;519.9;16.3;-2.6;D;824.2;2;10.395;2;1.97;179;128.6;-80.13763318;25.91250447;0;0;1;N;2.373538;71;71;11;159;159;124.9674;0;9999.99;3.26;3.387;2;9;28.3;0;28.2999992370605;37.63;1544.64888;11/16/22;12:01:04;27.93;56.70;37.63;1.122;8.27;-75.5;-3.6;-4.1;-1422;74.9;4.76;13.2;;
25.9125569303888;-80.13770450668;12:28:49.80;11/16/2022;9;1.937;21.69;-7.23198341732529;1.09;125.5;117.43;2.48;5.3;32.1;.00;3.28;3.28;97;43;519.9;16.3;-2.6;D;824.2;2;9.215;2;1.93;179;129.27;-80.13763318;25.91250447;0;0;1;N;2.009929;72;72;11;167;167;127.3897;0;9999.99;3.30;3.427;2;9;28.3;0;28.2999992370605;37.63;1544.64888;11/16/22;12:01:04;27.93;56.70;37.63;1.122;8.27;-75.5;-3.6;-4.1;-1422;74.9;4.76;13.2;;
25.9125507297329;-80.1376963485578;12:28:50.81;11/16/2022;10;1.895;21.69;-7.23198341732529;1.09;127.7;119.47;2.3;5.28;32.1;.00;3.37;3.37;97;42;519.8;16.3;-2.6;D;825.6;2;8.147;2;1.95;179;129.15;-80.13763318;25.91250447;0;0;1;N;1.78406;71;71;11;165;165;128.9213;0;9999.99;3.39;3.517;2;9;28.3;0;28.2999992370605;37.13;1544.12102;11/16/22;12:01:05;27.92;56.03;37.13;1.115;8.30;-77.6;-2.8;-3.5;-3589;75.5;4.81;13.2;;
25.9125441981266;-80.1376891594408;12:28:51.83;11/16/2022;10;1.891;69.41;-7.23198341732529;0.91;129.6;121.23;2.64;3.59;32.1;.00;3.38;3.38;97;42;519.8;16.3;-2.6;D;825.6;2;7.132;2;1.94;179;128.27;-80.13763318;25.91250447;0;0;1;N;1.677473;72;72;11;162;162;129.6503;0;9999.99;3.40;3.527;2;9;28.3;0;28.2999992370605;37.66;1544.68057;11/16/22;12:01:07;27.86;56.73;37.66;1.117;8.31;-77.7;-3.1;-0.3;-2202;76.9;4.89;13.2;;
25.9125370180155;-80.1376808005838;12:28:52.83;11/16/2022;10;1.901;69.41;-7.23198341732529;0.91;132.3;123.74;2.58;3.61;32.1;.00;3.40;3.40;97;42;519.8;16.3;-2.6;D;825.6;2;5.982;2;1.94;179;127.23;-80.13763318;25.91250447;0;0;1;N;1.515281;72;72;11;155;155;130.7683;0;9999.99;3.42;3.547;2;9;28.3;0;28.2999992370605;37.66;1544.68057;11/16/22;12:01:07;27.86;56.73;37.66;1.117;8.31;-77.7;-3.1;-0.3;-2202;76.9;4.89;13.2;;
25.9125298018219;-80.1376744033555;12:28:53.84;11/16/2022;10;1.922;104.39;-7.23198341732529;0.91;135.3;126.53;2.7;2.19;32.1;.00;3.38;3.39;97;42;519.8;16.3;-2.6;D;825.6;3;24.845;2;1.92;179;149.29;-80.13754756;25.91233769;0;0;1;N;2.616589;73;73;11;196;196;143.8709;0;9999.99;3.41;3.537;2;9;28.3;0;28.2999992370605;37.56;1544.57511;11/16/22;12:01:09;27.86;56.60;37.56;1.123;8.29;-76.8;-3.8;-0.3;-1649;78.7;5.01;13.3;;
25.9125225355895;-80.1376671179258;12:28:54.86;11/16/2022;8;1.924;116.8;-7.23198341732529;1.09;141.3;132.14;2.7;2.56;32.1;.00;3.47;3.47;97;43;519.8;16.3;-2.6;D;816.6;3;23.779;2;1.9;179;149.81;-80.13754756;25.91233769;0;0;1;N;2.283735;73;73;11;178;178;144.3416;0;9999.99;3.49;3.617;2;9;28.3;0;28.2999992370605;37.56;1544.57511;11/16/22;12:01:09;27.86;56.60;37.56;1.123;8.29;-76.8;-3.8;-0.3;-1649;78.7;5.01;13.3;;
25.9125163068793;-80.1376602687097;12:28:55.88;11/16/2022;10;1.854;124.38;-7.23198341732529;1.09;146.2;136.76;3.77;0.45;32.1;.00;3.44;3.44;97;43;519.8;16.3;-2.6;D;816.6;3;22.837;2;1.87;179;150.42;-80.13754756;25.91233769;0;0;1;N;1.94781;80;80;11;160;160;145.057;0;9999.99;3.47;3.597;2;9;28.3;0;28.2999992370605;37.61;1544.62784;11/16/22;12:01:10;27.84;56.66;37.61;1.119;8.31;-77.9;-3.4;-1.9;-3524;79.6;5.07;13.2;;
25.9125076666667;-80.137656;12:28:56.89;11/16/2022;10;1.912;137.5;-7.23198341732529;1.09;149.7;140.07;3.86;1.07;32;.01;3.48;3.49;97;43;519.8;16.3;-2.6;D;816.6;3;21.875;2;1.86;179;150.61;-80.13754756;25.91233769;0;0;1;N;1.791911;80;80;11;146;146;144.8431;0;9999.99;3.52;3.647;2;9;28.3;0;28.2999992370605;37.71;1544.73381;11/16/22;12:01:12;27.82;56.80;37.71;1.100;8.34;-79.6;-3.0;-4.1;-535;81.0;5.15;13.1;;
25.9125009732557;-80.1376501190145;12:28:57.89;11/16/2022;10;1.912;137.5;-7.23198341732529;1.09;152.4;142.64;3.38;2.17;32.1;.01;3.51;3.51;97;44;519.8;16.3;-2.6;D;801.7;3;20.854;2;1.89;179;150.54;-80.13754756;25.91233769;0;0;1;N;1.725572;79;79;11;134;134;143.8138;0;9999.99;3.54;3.667;2;9;28.3;0;28.2999992370605;37.71;1544.73381;11/16/22;12:01:12;27.82;56.80;37.71;1.100;8.34;-79.6;-3.0;-4.1;-535;81.0;5.15;13.1;;
25.9124923738561;-80.137646206792;12:28:58.89;11/16/2022;9;1.996;144.31;-7.23198341732529;0.91;152.1;142.35;3.09;3.24;32.1;.00;3.52;3.53;97;44;519.8;16.3;-2.6;D;801.7;3;19.829;2;1.91;179;150.16;-80.13754756;25.91233769;0;0;1;N;1.777952;73;73;11;128;128;142.6841;0;9999.99;3.55;3.677;2;9;28.3;0;28.2999992370605;37.44;1544.44869;11/16/22;12:01:13;27.82;56.44;37.44;1.108;8.31;-77.7;-3.2;-3.4;-3114;81.6;5.20;13.3;;
25.9124818574453;-80.1376435429234;12:28:59.89;11/16/2022;9;1.958;146.72;-7.23198341732529;0.91;152;142.25;2.41;4.35;32.1;.00;3.55;3.55;97;44;519.8;16.3;-2.6;D;801.7;3;18.685;2;1.93;179;149.09;-80.13754756;25.91233769;0;0;1;N;2.024142;71;71;11;122;122;141.0163;0;9999.99;3.57;3.697;2;9;28.3;0;28.2999992370605;37.77;1544.79673;11/16/22;12:01:15;27.79;56.88;37.77;1.108;8.31;-77.9;-2.9;-11.4;-3353;83.2;5.29;13.2;;
25.9124706735023;-80.13764005786;12:29:00.89;11/16/2022;9;2.009;148.09;-7.23198341732529;0.91;151;141.3;1.65;5.36;32.1;.00;3.53;3.53;97;44;519.8;16.3;-2.6;D;801.7;3;17.443;2;1.94;179;147.97;-80.13754756;25.91233769;0;0;1;N;2.228559;67;67;11;120;120;139.6482;0;9999.99;3.55;3.677;2;9;28.3;0;28.2999992370605;37.77;1544.79673;11/16/22;12:01:15;27.79;56.88;37.77;1.108;8.31;-77.9;-2.9;-11.4;-3353;83.2;5.29;13.2;;
25.9124618099439;-80.1376334462335;12:29:01.89;11/16/2022;9;1.97;149.54;-7.23198341732529;0.91;149.1;139.5;1.87;5.69;32;.00;3.54;3.54;97;43;519.8;16.3;-2.6;D;817.7;3;16.257;2;1.92;179;148.1;-80.13754756;25.91233769;0;0;1;N;2.044461;68;68;11;133;133;140.8788;0;9999.99;3.56;3.687;2;9;28.3;0;28.2999992370605;37.7;1544.72278;11/16/22;12:01:16;27.80;56.79;37.70;1.132;8.31;-78.0;-3.8;-6.1;-2408;83.7;5.33;13.1;;
25.9124540043529;-80.1376284515296;12:29:02.89;11/16/2022;9;1.918;149.01;-7.23198341732529;0.91;148.1;138.55;1.72;6.61;32.1;.00;3.60;3.60;97;43;519.8;16.3;-2.6;D;817.7;3;15.256;2;1.94;179;147.97;-80.13754756;25.91233769;0;0;1;N;1.961794;67;67;11;140;140;141.4361;0;9999.99;3.61;3.737;2;9;28.3;0;28.2999992370605;37.58;1544.59609;11/16/22;12:01:18;27.79;56.63;37.58;1.139;8.31;-77.7;-2.4;0.0;-855;84.8;5.41;13.2;;
25.9124458949727;-80.137623352679;12:29:03.89;11/16/2022;9;1.949;147.39;-7.23198341732529;0.91;147.6;138.08;1.73;5.79;32.1;.00;3.57;3.57;97;43;519.8;16.3;-2.6;D;817.7;3;14.221;2;1.98;179;147.79;-80.13754756;25.91233769;0;0;1;N;1.87873;67;67;11;143;143;141.9984;0;9999.99;3.59;3.717;2;9;28.3;0;28.2999992370605;37.58;1544.59609;11/16/22;12:01:18;27.79;56.63;37.58;1.139;8.31;-77.7;-2.4;0.0;-855;84.8;5.41;13.2;;
25.9124382714707;-80.137618161018;12:29:04.89;11/16/2022;8;1.959;145.69;-7.23198341732529;1.09;147.4;137.89;1.87;5.64;32.1;.00;3.57;3.57;97;43;519.7;16.3;-2.6;D;818.3;3;13.227;2;1.93;179;147.73;-80.13754756;25.91233769;0;0;1;N;1.754649;68;68;11;147;147;142.8435;0;9999.99;3.59;3.717;2;9;28.3;0;28.2999992370605;37.62;1544.63832;11/16/22;12:01:19;27.78;56.68;37.62;1.129;8.30;-77.3;-2.6;-4.3;-2055;85.3;5.43;13.4;;
25.9124317190596;-80.1376124162254;12:29:05.89;11/16/2022;9;1.907;143.89;-7.23198341732529;1.09;147.4;137.89;1.82;5.56;32.2;.00;3.61;3.61;97;43;519.7;16.3;-2.6;D;818.3;3;12.305;2;1.92;179;148.18;-80.13754756;25.91233769;0;0;1;N;1.545188;68;68;11;153;153;144.2826;0;9999.99;3.63;3.757;2;9;28.3;0;28.2999992370605;37.43;1544.43773;11/16/22;12:01:21;27.80;56.43;37.43;1.122;8.31;-78.1;-3.7;-3.0;-2564;86.2;5.50;13.2;;
25.9124235;-80.1376086666667;12:29:06.89;11/16/2022;9;1.984;144.36;-7.23198341732529;1.09;147.8;138.27;2.11;5.35;32.1;.00;3.58;3.58;97;43;519.7;16.3;-2.6;D;818.3;3;11.367;2;1.93;179;148.14;-80.13754756;25.91233769;0;0;1;N;1.440108;70;70;11;154;154;145.0099;0;9999.99;3.60;3.727;2;9;28.3;0;28.2999992370605;37.57;1544.58554;11/16/22;12:01:22;27.78;56.61;37.57;1.132;8.33;-79.0;-2.4;-5.7;-1946;86.6;5.52;13.2;;
25.9124171591147;-80.1376021188963;12:29:07.89;11/16/2022;9;1.984;144.36;-7.23198341732529;0.91;148.9;139.31;1.92;5.09;32.1;.00;3.58;3.58;97;43;519.7;16.3;-2.6;D;818.3;3;10.386;2;1.93;179;148.3;-80.13754756;25.91233769;0;0;1;N;1.281523;69;69;11;154;154;146.1139;0;9999.99;3.60;3.727;2;9;28.3;0;28.2999992370605;37.64;1544.65943;11/16/22;12:01:23;27.78;56.71;37.64;1.113;8.30;-77.5;-3.3;-3.7;-1335;87.1;5.55;13.2;;
25.9124090611475;-80.1375968113151;12:29:08.89;11/16/2022;9;1.929;144.56;-7.23198341732529;1.09;149.7;140.07;2.47;4.87;32.1;.00;3.67;3.67;97;42;519.7;16.3;-2.6;D;824.7;3;9.341;2;1.94;179;148.17;-80.13754756;25.91233769;0;0;1;N;1.177632;72;72;11;156;156;146.8409;0;9999.99;3.69;3.817;2;9;28.3;0;28.2999992370605;37.64;1544.65943;11/16/22;12:01:23;27.78;56.71;37.64;1.113;8.30;-77.5;-3.3;-3.7;-1335;87.1;5.55;13.2;;
25.9124016059345;-80.1375914543255;12:29:09.89;11/16/2022;9;1.941;144.85;-7.23198341732529;1.09;150.7;141.02;2.44;4.09;32.1;.00;3.66;3.66;97;42;519.7;16.3;-2.6;D;824.7;3;8.354;2;1.95;179;148.3;-80.13754756;25.91233769;0;0;1;N;1.039993;72;72;11;155;155;147.8075;0;9999.99;3.68;3.807;2;9;28.3;0;28.2999992370605;37.56;1544.57504;11/16/22;12:01:24;27.80;56.60;37.56;1.120;8.30;-77.5;-3.3;2.3;-2504;87.4;5.57;13.1;;
25.9123935264119;-80.137585719873;12:29:10.89;11/16/2022;9;1.969;145.45;-7.23198341732529;1.09;151.6;141.87;2.3;4.33;32;.00;3.64;3.64;97;42;519.7;16.3;-2.6;D;824.7;3;7.288;2;1.97;179;148.42;-80.13754756;25.91233769;0;0;1;N;0.8939484;71;71;11;155;155;148.8389;0;9999.99;3.66;3.787;2;9;28.3;0;28.2999992370605;37.5;1544.51178;11/16/22;12:01:26;27.78;56.51;37.50;1.118;8.31;-78.0;-2.2;-5.6;-1442;88.2;5.63;13.2;;
25.9123847853488;-80.1375803860072;12:29:11.89;11/16/2022;9;1.975;146.84;-7.23198341732529;0.91;153.4;143.59;2.35;4.05;32;.00;3.69;3.69;97;43;519.7;16.3;-2.6;D;821.8;3;6.181;2;1.94;179;147.91;-80.13754756;25.91233769;0;0;1;N;0.8091118;71;71;11;150;150;149.4395;0;9999.99;3.71;3.837;2;9;28.3;0;28.2999992370605;37.5;1544.51178;11/16/22;12:01:26;27.78;56.51;37.50;1.118;8.31;-78.0;-2.2;-5.6;-1442;88.2;5.63;13.2;;
25.9123767537477;-80.137575777635;12:29:12.89;11/16/2022;9;1.929;148.18;-7.23198341732529;0.91;154.3;144.45;2.74;4.28;32.1;.00;3.63;3.63;97;43;519.7;16.3;-2.6;D;821.8;4;24.808;2;1.9;179;147.41;-80.13744218;25.91218878;0;0;1;N;5.816071E-02;73;73;11;139;139;147.283;0;9999.99;3.65;3.777;2;9;28.3;0;28.2999992370605;37.64;1544.65956;11/16/22;12:01:27;27.78;56.70;37.64;1.110;8.32;-78.7;-3.6;-3.1;-923;88.7;5.65;13.1;;
25.9123691630419;-80.1375711901907;12:29:13.89;11/16/2022;9;1.923;148.95;-7.23198341732529;0.91;155.1;145.21;2.76;4.28;32;.00;3.58;3.58;97;43;519.7;16.3;-2.6;D;822.1;4;23.850;2;1.95;179;147.25;-80.13744218;25.91218878;0;0;1;N;0.1223869;74;74;11;134;134;146.9786;0;9999.99;3.60;3.727;2;9;28.3;0;28.2999992370605;37.49;1544.50122;11/16/22;12:01:29;27.79;56.50;37.49;1.101;8.30;-77.5;-2.7;-3.7;-687;89.8;5.72;13.2;;
25.9123612719942;-80.1375664218387;12:29:14.89;11/16/2022;9;1.886;149.42;-7.23198341732529;0.91;155.6;145.69;2.61;4.73;32.1;.00;3.66;3.66;97;43;519.7;16.3;-2.6;D;822.1;4;22.854;2;1.95;179;147.06;-80.13744218;25.91218878;0;0;1;N;0.188628;73;73;11;131;131;146.6059;0;9999.99;3.68;3.807;2;9;28.3;0;28.2999992370605;37.44;1544.44841;11/16/22;12:01:30;27.77;56.43;37.44;1.112;8.28;-75.9;-2.5;-7.9;-2367;90.0;5.74;13.2;;
25.9123533926459;-80.1375616482365;12:29:15.89;11/16/2022;9;1.914;150.78;-7.23198341732529;0.91;155.2;145.31;2.19;4.18;32;.00;3.60;3.60;97;43;519.7;16.3;-2.6;D;822.1;4;21.859;2;1.95;179;146.86;-80.13744218;25.91218878;0;0;1;N;0.2573188;70;70;11;130;130;146.143;0;9999.99;3.62;3.747;2;9;28.3;0;28.2999992370605;37.44;1544.44841;11/16/22;12:01:30;27.77;56.43;37.44;1.112;8.28;-75.9;-2.5;-7.9;-2367;90.0;5.74;13.2;;
25.9123448333333;-80.1375578333333;12:29:16.91;11/16/2022;9;1.928;152.57;-7.23198341732529;0.91;154.8;144.93;2.19;5.75;32.1;.00;3.66;3.66;97;43;519.7;16.3;-2.6;D;822.1;4;20.743;2;1.92;179;146.65;-80.13744218;25.91218878;0;0;1;N;0.322187;70;70;11;130;130;145.5671;0;9999.99;3.68;3.807;2;9;28.3;0;28.2999992370605;37.85;1544.88121;11/16/22;12:01:31;27.78;56.99;37.85;1.107;8.31;-77.9;-2.9;-4.9;-1581;90.1;5.73;13.2;;
25.912337;-80.1375528333333;12:29:17.91;11/16/2022;9;1.976;151.43;-7.23198341732529;0.91;154.6;144.74;2.16;4.91;32;.00;3.69;3.69;97;42;519.6;16.3;-2.6;D;827.4;4;19.862;2;1.94;179;146.45;-80.13744218;25.91218878;0;0;1;N;0.382267;70;70;11;128;128;144.9217;0;9999.99;3.71;3.837;2;9;28.3;0;28.2999992370605;37.41;1544.41666;11/16/22;12:01:32;27.79;56.39;37.41;1.130;8.32;-78.5;-3.0;-3.1;-1928;90.3;5.76;13.0;;
25.9123291666667;-80.1375478333333;12:29:18.91;11/16/2022;10;1.929;152.3;-7.23198341732529;0.91;154;144.16;2.45;4.71;32;.00;3.69;3.69;97;42;519.6;16.3;-2.6;D;827.4;4;18.951;2;1.92;179;146.27;-80.13744218;25.91218878;0;0;1;N;0.4224782;72;72;11;128;128;144.4983;0;9999.99;3.71;3.837;2;9;28.3;0;28.2999992370605;37.44;1544.44837;11/16/22;12:01:33;27.77;56.44;37.44;1.105;8.31;-77.6;-2.4;-5.3;-2959;90.9;5.80;13.2;;
25.9123206159425;-80.1375419357438;12:29:19.94;11/16/2022;10;1.917;152.01;-7.23198341732529;0.91;154.3;144.45;2.03;5.4;32;.00;3.68;3.68;97;42;519.6;16.3;-2.6;D;827.4;4;17.733;2;1.9;179;145.76;-80.13744218;25.91218878;0;0;1;N;0.4451271;69;69;11;123;123;143.5691;0;9999.99;3.70;3.827;2;9;28.3;0;28.2999992370605;37.58;1544.5961;11/16/22;12:01:35;27.79;56.62;37.58;1.113;8.28;-76.0;-2.8;-5.2;-1676;91.5;5.83;13.2;;
25.9123126191965;-80.1375374070159;12:29:20.94;11/16/2022;9;1.968;150.68;-7.23198341732529;0.91;153.4;143.59;2.1;5.02;32.1;.00;3.64;3.64;97;43;519.6;16.3;-2.6;D;818.3;4;16.743;2;1.92;179;145.33;-80.13744218;25.91218878;0;0;1;N;0.4728578;70;70;11;124;124;142.8716;0;9999.99;3.66;3.787;2;9;28.3;0;28.2999992370605;37.58;1544.5961;11/16/22;12:01:35;27.79;56.62;37.58;1.113;8.28;-76.0;-2.8;-5.2;-1676;91.5;5.83;13.2;;
25.9123048971442;-80.1375324986085;12:29:21.94;11/16/2022;10;1.949;150.06;-7.23198341732529;0.91;153.2;143.4;1.56;5.22;32.1;.00;3.64;3.64;97;43;519.6;16.3;-2.6;D;818.3;4;15.758;2;1.92;179;145.02;-80.13744218;25.91218878;0;0;1;N;0.5572863;66;66;11;124;124;142.5414;0;9999.99;3.66;3.787;2;9;28.3;0;28.2999992370605;37.27;1544.26881;11/16/22;12:01:36;27.78;56.21;37.27;1.114;8.31;-77.9;-2.2;-0.6;-861;91.5;5.84;13.1;;
25.9122975807513;-80.1375269806508;12:29:22.94;11/16/2022;9;1.918;150.09;-7.23198341732529;0.91;151.8;142.06;2.57;5.3;32;.00;3.65;3.65;97;43;519.6;16.3;-2.6;D;818.3;4;14.775;2;1.93;179;144.97;-80.13744218;25.91218878;0;0;1;N;0.5934505;72;72;11;130;130;142.7249;0;9999.99;3.67;3.797;2;9;28.3;0;28.2999992370605;37.69;1544.71222;11/16/22;12:01:38;27.77;56.77;37.69;1.113;8.30;-77.5;-1.9;-3.6;-1184;91.6;5.84;13.2;;
25.9122906666667;-80.1375225;12:29:23.94;11/16/2022;9;1.943;149.76;-7.23198341732529;0.91;151.6;141.87;1.94;5.83;32;.00;3.69;3.69;97;43;519.6;16.3;-2.6;D;818.3;4;13.827;2;1.95;179;145.24;-80.13744218;25.91218878;0;0;1;N;0.5641614;72;72;11;134;134;143.4881;0;9999.99;3.71;3.837;2;9;28.3;0;28.2999992370605;37.69;1544.71222;11/16/22;12:01:38;27.77;56.77;37.69;1.113;8.30;-77.5;-1.9;-3.6;-1184;91.6;5.84;13.2;;
25.9122831666667;-80.1375171666667;12:29:24.94;11/16/2022;9;1.906;148.4;-7.23198341732529;0.91;149.9;140.26;2.83;5.11;32;.00;3.63;3.63;97;43;519.6;16.3;-2.6;D;817.6;4;12.904;2;1.94;179;144.99;-80.13744218;25.91218878;0;0;1;N;0.5853043;72;72;11;138;138;143.3375;0;9999.99;3.65;3.777;2;9;28.3;0;28.2999992370605;37.26;1544.25834;11/16/22;12:01:39;27.79;56.20;37.26;1.111;8.30;-77.5;-2.2;-4.1;-2606;92.0;5.88;13.3;;
25.9122756666667;-80.1375116666667;12:29:25.94;11/16/2022;9;1.945;146.98;-7.23198341732529;0.91;150.6;140.92;1.98;5.29;32;.00;3.73;3.73;97;43;519.6;16.3;-2.6;D;817.6;4;11.838;2;1.97;179;144.82;-80.13744218;25.91218878;0;0;1;N;0.5696191;69;69;11;137;137;143.4494;0;9999.99;3.75;3.877;2;9;28.3;0;28.2999992370605;37.55;1544.5645;11/16/22;12:01:40;27.77;56.59;37.55;1.114;8.27;-75.8;-2.6;-2.6;-3997;92.5;5.90;13.0;;
25.912268;-80.137506;12:29:26.94;11/16/2022;9;1.94;146.24;-7.23198341732529;1.09;149.3;139.69;2.52;5.2;32;.00;3.73;3.73;97;43;519.6;16.3;-2.6;D;817.6;4;10.893;2;1.95;179;144.62;-80.13744218;25.91218878;0;0;1;N;0.5668274;71;71;11;141;141;143.4691;0;9999.99;3.75;3.877;2;9;28.3;0;28.2999992370605;37.57;1544.58561;11/16/22;12:01:41;27.77;56.61;37.57;1.125;8.31;-78.0;-2.4;-4.7;-2852;92.5;5.90;13.2;;
25.9122605;-80.1375001666667;12:29:27.94;11/16/2022;8;1.959;145.7;-7.23198341732529;1.09;149;139.4;2.33;5.59;32.1;.00;3.76;3.76;97;43;519.5;16.3;-2.6;D;822.2;4;9.875;2;1.96;179;144.53;-80.13744218;25.91218878;0;0;1;N;0.5349697;71;71;11;144;144;143.6962;0;9999.99;3.78;3.907;2;9;28.3;0;28.2999992370605;37.35;1544.35332;11/16/22;12:01:43;27.79;56.31;37.35;1.121;8.31;-77.7;-3.2;-4.2;-2387;92.6;5.91;13.3;;
25.9122531666667;-80.1374943333333;12:29:28.94;11/16/2022;9;1.923;145.5;-7.23198341732529;1.09;149.3;139.69;2.18;5.04;32.1;.00;3.72;3.72;97;43;519.5;16.3;-2.6;D;822.2;4;8.855;2;1.96;179;144.53;-80.13744218;25.91218878;0;0;1;N;0.4778999;70;70;11;145;145;144.1035;0;9999.99;3.74;3.867;2;9;28.3;0;28.2999992370605;37.35;1544.35332;11/16/22;12:01:43;27.79;56.31;37.35;1.121;8.31;-77.7;-3.2;-4.2;-2387;92.6;5.91;13.3;;
25.912246;-80.1374883333333;12:29:29.95;11/16/2022;9;1.974;145.38;-7.23198341732529;1.09;149.5;139.88;2.43;4.74;32;.00;3.75;3.75;97;43;519.5;16.3;-2.6;D;822.2;4;7.867;2;1.97;179;144.5;-80.13744218;25.91218878;0;0;1;N;0.4301934;71;71;11;146;146;144.4441;0;9999.99;3.77;3.897;2;9;28.3;0;28.2999992370605;37.39;1544.39553;11/16/22;12:01:44;27.78;56.38;37.39;1.125;8.30;-77.4;-2.9;-2.2;-1212;92.7;5.92;13.2;;
25.9122374528178;-80.1374818448599;12:29:30.95;11/16/2022;9;1.986;146.04;-7.23198341732529;0.91;150.2;140.54;2.45;4.34;32;.00;3.76;3.76;97;43;519.5;16.3;-2.6;D;822.2;4;6.710;2;1.99;179;143.76;-80.13744218;25.91218878;0;0;1;N;0.3448491;72;72;11;142;142;144.2504;0;9999.99;3.78;3.907;2;9;28.3;0;28.2999992370605;37.23;1544.22663;11/16/22;12:01:46;27.80;56.16;37.23;1.118;8.31;-78.1;-2.6;-3.1;-2817;93.0;5.94;13.2;;
25.9122297394573;-80.1374764514962;12:29:31.95;11/16/2022;9;1.949;146.61;-7.23198341732529;0.91;149.8;140.16;2.04;4.82;32;.00;3.77;3.77;97;43;519.5;16.3;-2.6;D;823.4;4;5.700;2;1.97;179;143.03;-80.13744218;25.91218878;0;0;1;N;0.3203434;69;69;11;143;143;144.2238;0;9999.99;3.79;3.917;2;9;28.3;0;28.2999992370605;37.23;1544.22663;11/16/22;12:01:46;27.80;56.16;37.23;1.118;8.31;-78.1;-2.6;-3.1;-2817;93.0;5.94;13.2;;
25.9122217475202;-80.1374711214943;12:29:32.97;11/16/2022;9;2.006;147.62;-7.23198341732529;1.09;150.2;140.54;2.31;5.17;31.9;.00;3.73;3.73;97;43;519.5;16.3;-2.6;D;823.4;5;25.957;1;1.96;175;143.58;-80.13731704;25.91203391;0;0;1;N;3.464762E-02;71;71;11;139;139;143.1701;0;9999.99;3.75;3.877;2;9;28.3;0;28.2999992370605;37.63;1544.64894;11/16/22;12:01:48;27.78;56.69;37.63;1.127;8.31;-77.7;-2.3;-2.7;-1106;93.1;5.93;13.1;;
25.9122142683243;-80.1374653603977;12:29:34.00;11/16/2022;9;1.905;146.61;-7.23198341732529;1.09;150.9;141.21;2.29;3.57;32;.00;3.77;3.77;97;43;519.5;16.3;-2.6;D;823.4;5;24.945;1;1.99;172;143.51;-80.13731704;25.91203391;0;0;1;N;0.1253283;71;71;11;134;134;143.0004;0;9999.99;3.79;3.917;2;9;28.3;0;28.2999992370605;37.63;1544.64894;11/16/22;12:01:48;27.78;56.69;37.63;1.127;8.31;-77.7;-2.3;-2.7;-1106;93.1;5.93;13.1;;
25.9122071249367;-80.1374603948388;12:29:35.02;11/16/2022;9;1.802;147.05;-7.23198341732529;1.09;151.4;141.68;2.29;2.2;32;.00;3.78;3.78;97;36;519.5;16.3;-2.2;D;960.5;5;24.011;1;1.93;168;143.34;-80.13731704;25.91203391;0;0;1;N;0.1630054;71;71;11;131;131;142.5862;0;9999.99;3.80;3.927;2;9;28.3;0;28.2999992370605;37.24;1544.23715;11/16/22;12:01:49;27.80;56.18;37.24;1.105;8.30;-77.5;-2.8;-6.4;-2862;93.1;5.94;13.2;;
25.9122004319938;-80.1374554963516;12:29:36.02;11/16/2022;9;1.72;147.59;-7.23198341732529;0.91;150.8;141.11;2.25;1.17;31.9;.00;3.81;3.81;97;36;519.5;16.3;-2.2;D;960.5;5;23.122;1;1.86;164;143.21;-80.13731704;25.91203391;0;0;1;N;0.2333044;71;71;11;131;131;142.2095;0;9999.99;3.83;3.957;2;9;28.3;0;28.2999992370605;37.52;1544.53276;11/16/22;12:01:50;27.78;56.54;37.52;1.101;8.30;-77.2;-3.2;-8.2;-1807;93.3;5.95;13.2;;
25.9121937995535;-80.1374511993656;12:29:37.02;11/16/2022;9;1.642;148.51;-7.23198341732529;0.91;151.1;141.4;2.61;0.4;31.9;.00;3.82;3.82;97;36;519.5;16.3;-2.2;D;960.5;5;22.274;1;1.79;163;142.96;-80.13731704;25.91203391;0;0;1;N;0.2673922;73;73;11;127;127;141.4977;0;9999.99;3.84;3.967;2;9;28.3;0;28.2999992370605;37.4;1544.40607;11/16/22;12:01:51;27.77;56.38;37.40;1.111;8.31;-78.1;-2.6;-2.6;-1626;93.4;5.96;13.2;;
25.9121875727464;-80.1374468099561;12:29:38.02;11/16/2022;9;1.55;148.91;-7.23198341732529;0.91;150.7;141.02;2.38;-0.16;31.9;.00;3.76;3.76;97;36;519.5;16.3;-2.2;D;960.5;5;21.457;1;1.69;161;142.78;-80.13731704;25.91203391;0;0;1;N;0.3585455;72;72;11;128;128;140.8639;0;9999.99;3.78;3.907;2;9;28.3;0;28.2999992370605;37.26;1544.25835;11/16/22;12:01:53;27.79;56.19;37.26;1.090;8.30;-77.5;-2.5;-4.2;-852;93.7;5.98;13.2;;
25.9121825;-80.1374431666667;12:29:39.02;11/16/2022;9;1.443;147.29;-7.23198341732529;0.91;150.2;140.54;2.17;-0.37;31.9;.00;3.81;3.81;97;28;519.4;16.4;-1.7;D;1233.4;5;20.600;1;1.62;159;142.87;-80.13731704;25.91203391;0;0;1;N;0.4113171;70;70;11;129;129;141.0484;0;9999.99;3.83;3.957;2;9;28.3;0;28.2999992370605;37.26;1544.25835;11/16/22;12:01:53;27.79;56.19;37.26;1.090;8.30;-77.5;-2.5;-4.2;-852;93.7;5.98;13.2;;
25.9121765643689;-80.1374386013477;12:29:40.02;11/16/2022;9;1.369;147.01;-7.23198341732529;0.91;149.9;140.26;2.37;-0.82;31.9;.00;3.81;3.81;97;28;519.4;16.4;-1.7;D;1233.4;5;19.986;1;1.55;158;142.53;-80.13731704;25.91203391;0;0;1;N;0.439772;71;71;11;128;128;140.3112;0;9999.99;3.83;3.957;2;9;28.3;0;28.2999992370605;37.35;1544.3533;11/16/22;12:01:54;27.77;56.31;37.35;1.097;8.30;-77.5;-3.2;-1.6;-3503;94.0;6.00;13.2;;
25.9121712658296;-80.1374348251588;12:29:41.02;11/16/2022;10;1.311;147.72;-7.23198341732529;0.91;150.2;140.54;2.37;-1.49;32;.00;3.80;3.80;97;28;519.4;16.4;-1.7;D;1233.4;5;19.289;1;1.44;158;142.36;-80.13731704;25.91203391;0;0;1;N;0.4643946;71;71;11;125;125;140.035;0;9999.99;3.82;3.947;2;9;28.3;0;28.2999992370605;37.26;1544.25826;11/16/22;12:01:56;27.79;56.20;37.26;1.095;8.31;-78.1;-3.1;-2.6;-2482;94.0;6.00;13.1;;
25.9121663770935;-80.1374310959578;12:29:42.02;11/16/2022;10;1.285;149.09;-7.23198341732529;0.91;149.3;139.69;2.17;-1.36;32;.00;3.72;3.72;97;27;519.4;16.4;-1.6;D;1296.9;5;18.630;1;1.39;158;142.24;-80.13731704;25.91203391;0;0;1;N;0.5124114;70;70;11;128;128;139.8949;0;9999.99;3.74;3.867;2;9;28.3;0;28.2999992370605;37.26;1544.25826;11/16/22;12:01:56;27.79;56.20;37.26;1.095;8.31;-78.1;-3.1;-2.6;-2482;94.0;6.00;13.1;;
25.9121615669704;-80.1374281197362;12:29:43.02;11/16/2022;9;1.178;148.77;-7.23198341732529;0.91;149.4;139.78;2.19;-1.82;32;.00;3.70;3.70;97;27;519.4;16.4;-1.6;D;1310.2;5;18.026;1;1.34;157;141.95;-80.13731704;25.91203391;0;0;1;N;0.5291622;70;70;11;124;124;139.375;0;9999.99;3.72;3.847;2;9;28.3;0;28.2999992370605;37.41;1544.41663;11/16/22;12:01:57;27.77;56.40;37.41;1.112;8.33;-79.1;-3.2;-9.0;-12;94.1;6.00;13.2;;
25.9121570302143;-80.1374250291409;12:29:44.02;11/16/2022;9;1.201;148.39;-7.23198341732529;0.91;148.9;139.31;2.05;-1.62;32;.00;3.78;3.78;97;27;519.4;16.4;-1.6;D;1310.2;5;17.438;1;1.25;157;141.73;-80.13731704;25.91203391;0;0;1;N;0.5939466;69;69;11;125;125;139.0262;0;9999.99;3.80;3.927;2;9;28.3;0;28.2999992370605;37.21;1544.20547;11/16/22;12:01:59;27.79;56.13;37.21;1.088;8.30;-77.4;-3.5;-0.8;-2716;94.2;6.01;13.3;;
25.9121524532654;-80.1374219660169;12:29:45.02;11/16/2022;9;1.16;148.24;-7.23198341732529;0.91;148.6;139.02;2.04;-1.89;32;.00;3.84;3.84;97;27;519.4;16.4;-1.6;D;1310.2;5;16.849;1;1.26;157;141.48;-80.13731704;25.91203391;0;0;1;N;0.6244046;69;69;11;126;126;138.6601;0;9999.99;3.86;3.987;2;9;28.3;0;28.2999992370605;37.21;1544.20547;11/16/22;12:01:59;27.79;56.13;37.21;1.088;8.30;-77.4;-3.5;-0.8;-2716;94.2;6.01;13.3;;
25.9121476308959;-80.1374189813226;12:29:46.02;11/16/2022;9;1.2;149.63;-7.23198341732529;0.91;148.9;139.31;2.1;-2.17;32;.00;3.85;3.85;97;26;519.4;16.4;-1.6;D;1323.1;5;16.244;1;1.23;156;141.12;-80.13731704;25.91203391;0;0;1;N;0.6871916;70;70;11;122;122;138.1404;0;9999.99;3.87;3.997;2;9;28.3;0;28.2999992370605;37.4;1544.40605;11/16/22;12:02:00;27.78;56.38;37.40;1.098;8.31;-78.0;-3.3;-2.3;-4413;94.1;6.00;13.1;;
25.9121433909392;-80.1374158824284;12:29:47.02;11/16/2022;9;1.177;149.37;-7.23198341732529;0.91;147.7;138.17;2.09;-1.78;32;.00;3.86;3.86;97;26;519.4;16.4;-1.6;D;1323.1;5;15.682;1;1.19;156;140.92;-80.13731704;25.91203391;0;0;1;N;0.7601612;70;70;11;126;126;137.9465;0;9999.99;3.88;4.007;2;9;28.3;0;28.2999992370605;37.42;1544.42717;11/16/22;12:02:01;27.77;56.41;37.42;1.079;8.31;-78.1;-2.7;-3.2;-1369;94.1;6.00;13.4;;
25.9121392307247;-80.1374125557549;12:29:48.02;11/16/2022;9;1.144;148.77;-7.23198341732529;0.91;148;138.46;2.13;-2.06;32;.00;3.86;3.86;97;26;519.4;16.4;-1.6;D;1323.1;5;15.113;1;1.17;156;140.79;-80.13731704;25.91203391;0;0;1;N;0.781731;70;70;11;126;126;137.9265;0;9999.99;3.88;4.007;2;9;28.3;0;28.2999992370605;37.43;1544.43772;11/16/22;12:02:02;27.79;56.42;37.43;1.094;8.34;-79.6;-2.8;-4.1;-3326;94.3;6.01;13.2;;
25.9121351642665;-80.1374093340481;12:29:49.02;11/16/2022;10;1.085;148.42;-7.23198341732529;0.91;147.6;138.08;2.18;-2.02;32;.00;3.87;3.87;97;26;519.4;16.4;-1.6;D;1323.1;5;14.559;1;1.16;156;140.65;-80.13731704;25.91203391;0;0;1;N;0.7837366;69;69;11;126;126;137.8886;0;9999.99;3.89;4.017;2;9;28.3;0;28.2999992370605;37.42;1544.42717;11/16/22;12:02:04;27.77;56.41;37.42;1.084;8.31;-78.2;-3.4;-5.6;844;94.3;6.02;13.1;;
25.9121310085984;-80.1374061575363;12:29:50.02;11/16/2022;10;1.133;147.86;-7.23198341732529;0.91;146.9;137.42;1.83;-1.85;32;.00;3.89;3.89;97;26;519.3;16.4;-1.6;D;1347.7;5;14.001;1;1.16;156;140.46;-80.13731704;25.91203391;0;0;1;N;0.789769;68;68;11;128;128;137.7735;0;9999.99;3.91;4.037;2;9;28.3;0;28.2999992370605;37.42;1544.42717;11/16/22;12:02:04;27.77;56.41;37.42;1.084;8.31;-78.2;-3.4;-5.6;844;94.3;6.02;13.1;;
25.9121269141064;-80.1374027377952;12:29:51.02;11/16/2022;10;1.101;147.98;-7.23198341732529;0.91;146.5;137.04;1.73;-2.32;32;.00;3.89;3.89;97;26;519.3;16.4;-1.6;D;1347.7;5;13.432;1;1.13;156;140.35;-80.13731704;25.91203391;0;0;1;N;0.7976388;69;69;11;130;130;137.8495;0;9999.99;3.91;4.037;2;9;28.3;0;28.2999992370605;37.42;1544.42718;11/16/22;12:02:05;27.79;56.41;37.42;1.074;8.35;-80.1;-3.1;1.5;-2846;94.3;6.02;13.3;;
25.9121225171027;-80.1373996791258;12:29:52.02;11/16/2022;10;1.138;146.6;-7.23198341732529;0.91;146.3;136.85;1.8;-1.92;32;.00;3.90;3.90;97;26;519.3;16.4;-1.6;D;1347.7;5;12.860;1;1.13;156;140.01;-80.13731704;25.91203391;0;0;1;N;0.7918738;69;69;11;130;130;137.5651;0;9999.99;3.92;4.047;2;9;28.3;0;28.2999992370605;37.28;1544.27937;11/16/22;12:02:07;27.78;56.22;37.28;1.101;8.29;-77.0;-3.3;-0.1;-3015;94.3;6.02;13.3;;
25.9121188505933;-80.1373961874492;12:29:53.02;11/16/2022;10;1.07;145.38;-7.23198341732529;0.91;146.6;137.13;1.8;-2.15;32;.00;3.91;3.91;97;26;519.3;16.4;-1.6;D;1344.3;5;12.324;1;1.12;156;140.03;-80.13731704;25.91203391;0;0;1;N;0.8403696;68;68;11;130;130;137.8709;0;9999.99;3.93;4.057;2;9;28.3;0;28.2999992370605;37.28;1544.27937;11/16/22;12:02:07;27.78;56.22;37.28;1.101;8.29;-77.0;-3.3;-0.1;-3015;94.3;6.02;13.3;;
25.9121147515974;-80.1373928999785;12:29:54.02;11/16/2022;9;1.128;144.78;-7.23198341732529;0.91;145.9;136.47;1.82;-2.15;32.1;.00;3.90;3.90;97;26;519.3;16.4;-1.6;D;1344.3;5;11.763;1;1.12;156;139.83;-80.13731704;25.91203391;0;0;1;N;0.7944288;68;68;11;133;133;137.852;0;9999.99;3.92;4.047;2;9;28.3;0;28.2999992370605;37.56;1544.57497;11/16/22;12:02:08;27.79;56.59;37.56;1.076;8.31;-78.0;-3.4;-5.0;-3549;94.5;6.03;13.2;;
25.9121106803284;-80.1373889433235;12:29:55.02;11/16/2022;9;1.09;144.29;-7.23198341732529;0.91;145.9;136.47;1.76;-2.16;32;.00;3.91;3.91;97;26;519.3;16.4;-1.6;D;1344.3;5;11.162;1;1.13;155;139.89;-80.13731704;25.91203391;0;0;1;N;0.807555;68;68;11;134;134;138.2261;0;9999.99;3.93;4.057;2;9;28.3;0;28.2999992370605;37.23;1544.22658;11/16/22;12:02:09;27.79;56.16;37.23;1.090;8.32;-78.5;-4.1;-6.6;-2895;94.8;6.05;13.2;;
25.9121070475033;-80.1373858158923;12:29:56.05;11/16/2022;9;1.1;143.59;-7.23198341732529;0.91;145.2;135.81;1.91;-2.38;32.1;.00;3.92;3.92;97;26;519.3;16.4;-1.6;D;1344.3;5;10.651;1;1.12;155;139.77;-80.13731704;25.91203391;0;0;1;N;0.7205204;68;68;11;137;137;138.313;0;9999.99;3.94;4.067;2;9;28.3;0;28.2999992370605;37.51;1544.52219;11/16/22;12:02:11;27.79;56.54;37.51;1.103;8.30;-77.6;-3.5;-3.8;-4142;95.1;6.06;13.2;;
25.9121032142857;-80.1373825070949;12:29:57.06;11/16/2022;9;1.036;143.44;-7.23198341732529;0.91;145.9;136.47;1.93;-2.42;32;.00;3.90;3.90;97;26;519.3;16.4;-1.5;D;1358.6;5;10.113;1;1.09;155;139.65;-80.13731704;25.91203391;0;0;1;N;0.7028077;69;69;11;135;135;138.4482;0;9999.99;3.92;4.047;2;9;28.3;0;28.2999992370605;37.51;1544.52219;11/16/22;12:02:11;27.79;56.54;37.51;1.103;8.30;-77.6;-3.5;-3.8;-4142;95.1;6.06;13.2;;
25.9120989477495;-80.13737922197;12:29:58.06;11/16/2022;9;1.151;144.15;-7.23198341732529;0.91;144.9;135.53;1.9;-2.57;32;.00;3.83;3.83;97;26;519.3;16.4;-1.5;D;1358.6;5;9.538;1;1.09;155;139.31;-80.13731704;25.91203391;0;0;1;N;0.6851691;68;68;11;138;138;138.3513;0;9999.99;3.85;3.977;2;9;28.3;0;28.2999992370605;37.25;1544.24773;11/16/22;12:02:12;27.80;56.18;37.25;1.099;8.28;-75.9;-3.0;-4.6;-2165;95.1;6.07;13.1;;
25.9120949026083;-80.1373758493179;12:29:59.06;11/16/2022;9;1.066;144.35;-7.23198341732529;0.91;145.3;135.91;1.9;-2.19;32;.00;3.91;3.91;97;26;519.3;16.4;-1.5;D;1358.6;5;8.977;1;1.06;155;139.07;-80.13731704;25.91203391;0;0;1;N;0.6929585;68;68;11;137;137;138.4093;0;9999.99;3.93;4.057;2;9;28.3;0;28.2999992370605;37.72;1544.7439;11/16/22;12:02:14;27.79;56.81;37.72;1.098;8.32;-78.6;-3.7;-4.5;-3118;94.8;6.04;13.2;;
25.9120912288448;-80.137372012836;12:30:00.06;11/16/2022;9;1.042;146.02;-7.23198341732529;0.91;144.7;135.34;1.99;-2.62;32;.00;3.94;3.94;97;26;519.3;16.4;-1.5;D;1359.5;5;8.418;1;1.07;155;139.22;-80.13731704;25.91203391;0;0;1;N;0.6913738;69;69;11;141;141;138.9098;0;9999.99;3.96;4.087;2;9;28.3;0;28.2999992370605;37.72;1544.7439;11/16/22;12:02:14;27.79;56.81;37.72;1.098;8.32;-78.6;-3.7;-4.5;-3118;94.8;6.04;13.2;;
25.9120874457071;-80.1373685703629;12:30:01.06;11/16/2022;9;1.092;144.57;-7.23198341732529;0.91;145;135.62;1.67;-2.43;32;.00;3.96;3.96;97;26;519.3;16.4;-1.5;D;1359.5;5;7.874;1;1.07;155;139.11;-80.13731704;25.91203391;0;0;1;N;0.6252103;67;67;11;140;140;139.141;0;9999.99;3.98;4.107;2;9;28.3;0;28.2999992370605;37.11;1544.09991;11/16/22;12:02:15;27.81;56.00;37.11;1.100;8.31;-77.8;-3.6;-2.5;-2389;94.9;6.06;13.2;;
25.9120837913712;-80.1373649013316;12:30:02.06;11/16/2022;9;1.08;142.98;-7.23198341732529;0.91;144.8;135.43;1.76;-2.43;31.9;.00;3.96;3.96;97;26;519.3;16.4;-1.5;D;1359.5;5;7.327;1;1.07;155;139.2;-80.13731704;25.91203391;0;0;1;N;0.5883776;68;68;11;143;143;139.5464;0;9999.99;3.98;4.107;2;9;28.3;0;28.2999992370605;37.4;1544.40607;11/16/22;12:02:17;27.79;56.38;37.40;1.106;8.27;-75.8;-3.5;-5.1;-1139;95.1;6.07;13.2;;
25.9120794699032;-80.1373609941975;12:30:03.08;11/16/2022;9;1.073;143.67;-7.23198341732529;0.91;144.9;135.53;1.83;-2.46;32;.00;3.89;3.89;97;26;519.3;16.4;-1.5;D;1359.5;5;6.707;1;1.08;155;139.05;-80.13731704;25.91203391;0;0;1;N;0.5900693;68;68;11;144;144;139.7718;0;9999.99;3.91;4.037;2;9;28.3;0;28.2999992370605;37.4;1544.40607;11/16/22;12:02:17;27.79;56.38;37.40;1.106;8.27;-75.8;-3.5;-5.1;-1139;95.1;6.07;13.2;;
25.9120756295362;-80.1373574473131;12:30:04.08;11/16/2022;10;1.06;143.3;-7.23198341732529;0.91;144.8;135.43;2.13;-2.31;31.9;.00;3.86;3.86;97;25;519.2;16.4;-1.5;D;1375.8;5;6.153;1;1.11;155;138.94;-80.13731704;25.91203391;0;0;1;N;0.5559472;70;70;11;145;145;140.0153;0;9999.99;3.88;4.007;2;9;28.3;0;28.2999992370605;37.23;1544.22661;11/16/22;12:02:19;27.79;56.16;37.23;1.097;8.33;-79.0;-4.8;-5.9;-3506;95.2;6.08;13.2;;
25.9120720370687;-80.137354164398;12:30:05.09;11/16/2022;10;1.091;143.55;-7.23198341732529;0.91;146.5;137.04;1.53;-0.03;31.9;.00;3.86;3.86;97;25;519.2;16.4;-1.5;D;1375.8;6;28.257;1;1.08;155;193.98;-80.13742242;25.91182544;0;0;1;N;5.191407;66;66;11;250;250;179.3495;0;9999.99;3.88;4.007;2;9;28.3;0;28.2999992370605;37.45;1544.45888;11/16/22;12:02:20;27.80;56.45;37.45;1.085;8.31;-77.8;-3.8;-2.5;-3182;95.1;6.06;13.1;;
25.912068537653;-80.1373506459956;12:30:06.13;11/16/2022;9;0.988;138.33;-7.23198341732529;0.91;150.5;140.83;1.96;-3.06;32;.00;3.94;3.94;97;25;519.2;16.4;-1.5;D;1375.8;6;27.968;1;1.06;155;194.87;-80.13742242;25.91182544;0;0;1;N;4.714388;69;69;11;250;250;180.9223;0;9999.99;3.96;4.087;2;9;28.3;0;28.2999992370605;37.19;1544.18438;11/16/22;12:02:21;27.81;56.10;37.19;1.108;8.30;-77.4;-4.3;-3.2;-2519;95.3;6.09;13.3;;
25.9120649922181;-80.137347766099;12:30:07.13;11/16/2022;9;0.928;139.02;-7.23198341732529;0.91;154.9;145.02;2.49;-2.63;32;.00;3.99;3.99;97;26;519.2;16.4;-1.5;D;1362.7;6;27.664;1;1.04;155;195.66;-80.13742242;25.91182544;0;0;1;N;4.284507;72;72;11;250;250;182.3059;0;9999.99;4.01;4.137;2;9;28.3;0;28.2999992370605;37.31;1544.31116;11/16/22;12:02:22;27.80;56.26;37.31;1.085;8.30;-77.4;-3.5;-3.5;-3781;95.3;6.08;13.2;;
25.91206142443;-80.1373452523424;12:30:08.14;11/16/2022;9;0.915;143.53;-7.23198341732529;0.91;159.9;149.83;2.68;-2.87;32;.00;4.02;4.02;97;26;519.2;16.4;-1.5;D;1362.7;6;27.352;1;1.03;155;196.39;-80.13742242;25.91182544;0;0;1;N;3.881994;73;73;11;250;250;183.6019;0;9999.99;4.04;4.167;2;9;28.3;0;28.2999992370605;37.65;1544.67028;11/16/22;12:02:23;27.81;56.72;37.65;1.086;8.31;-78.1;-4.2;-3.8;-4531;95.2;6.06;13.3;;
25.9120582845674;-80.1373423561;12:30:09.14;11/16/2022;8;0.914;149.24;-7.23198341732529;0.95;164;153.8;2.7;-2.51;32;.00;4.00;4.00;97;26;519.2;16.4;-1.5;D;1362.7;6;27.101;1;0.97;155;197.19;-80.13742242;25.91182544;0;0;1;N;3.468534;73;73;11;250;250;185.2111;0;9999.99;4.02;4.147;2;9;28.3;0;28.2999992370605;37.07;1544.058;11/16/22;12:02:24;27.81;55.95;37.07;1.092;8.34;-79.7;-3.7;-4.1;-4179;95.4;6.09;13.0;;
25.9120548104302;-80.1373397249876;12:30:10.16;11/16/2022;8;0.885;152.12;-7.23198341732529;0.95;169.7;159.37;2.84;-2.88;32;.00;3.99;3.99;97;26;519.2;16.4;-1.5;D;1362.7;6;26.812;1;0.95;155;197.97;-80.13742242;25.91182544;0;0;1;N;3.070714;74;74;11;237;237;186.7687;0;9999.99;4.01;4.137;2;9;28.3;0;28.2999992370605;37.22;1544.21635;11/16/22;12:02:25;27.80;56.14;37.22;1.080;8.31;-77.7;-4.0;-3.7;135;95.4;6.09;13.2;;
25.9120507947353;-80.137337805235;12:30:11.16;11/16/2022;8;0.888;155.67;-7.23198341732529;0.95;174.4;164.01;2.61;-2.58;32;.00;4.00;4.00;97;26;519.2;16.4;-1.5;D;1353.3;6;26.449;1;0.93;155;198.66;-80.13742242;25.91182544;0;0;1;N;2.706657;73;73;11;223;223;188.0671;0;9999.99;4.02;4.147;2;9;28.3;0;28.2999992370605;37.55;1544.56465;11/16/22;12:02:26;27.82;56.59;37.55;1.064;8.29;-77.1;-3.6;-4.7;-371;95.3;6.07;13.2;;
25.9120477845662;-80.1373366209095;12:30:12.16;11/16/2022;9;0.89;161.66;-7.23198341732529;0.95;178.1;167.69;2.63;-3.44;31.9;.00;3.99;3.99;97;26;519.2;16.4;-1.5;D;1353.3;6;26.171;1;0.89;155;199.14;-80.13742242;25.91182544;0;0;1;N;2.451212;73;73;11;212;212;188.9811;0;9999.99;4.01;4.137;2;9;28.3;0;28.2999992370605;37.1;1544.0895;11/16/22;12:02:27;27.82;55.98;37.10;1.071;8.31;-78.0;-3.8;-3.6;-3401;95.4;6.10;13.3;;
25.9120439927139;-80.1373355082286;12:30:13.16;11/16/2022;9;0.891;167.62;-7.23198341732529;0.96;183.1;172.7;2.46;-3.03;31.9;.00;3.96;3.96;97;26;519.2;16.4;-1.5;D;1353.3;6;25.810;1;0.88;155;199.68;-80.13742242;25.91182544;0;0;1;N;2.175666;72;72;11;199;199;189.9453;0;9999.99;3.98;4.107;2;9;28.3;0;28.2999992370605;37.23;1544.22668;11/16/22;12:02:28;27.80;56.15;37.23;1.077;8.32;-78.5;-4.1;-3.7;-2730;95.4;6.09;13.2;;
25.912039984206;-80.1373349296772;12:30:14.16;11/16/2022;9;0.874;171.43;-7.23198341732529;0.96;186.3;175.93;2.32;-3.34;31.9;.00;3.92;3.92;97;26;519.1;16.4;-1.6;D;1342.3;6;25.410;1;0.88;155;200.14;-80.13742242;25.91182544;0;0;1;N;1.934605;71;71;11;188;188;190.8621;0;9999.99;3.94;4.067;2;9;28.3;0;28.2999992370605;37.2;1544.19498;11/16/22;12:02:29;27.82;56.12;37.20;1.087;8.34;-80.0;-3.2;-5.0;-2993;95.6;6.10;13.2;;
25.9120362602383;-80.1373348664525;12:30:15.16;11/16/2022;9;0.844;175.82;-7.23198341732529;0.96;190.5;180.2;2.42;-3.23;31.9;.00;3.98;3.98;97;26;519.1;16.4;-1.6;D;1342.3;6;25.024;1;0.9;156;200.48;-80.13742242;25.91182544;0;0;1;N;1.750559;72;72;11;177;177;192.0988;0;9999.99;4.00;4.127;2;9;28.3;0;28.2999992370605;37.2;1544.19491;11/16/22;12:02:30;27.81;56.11;37.20;1.081;8.31;-77.8;-4.5;-0.4;-1641;95.8;6.11;13.2;;
25.9120316133948;-80.1373352844011;12:30:16.16;11/16/2022;9;0.974;180.49;-7.23198341732529;0.96;193;182.75;2.17;-2.93;32;.00;3.97;3.97;97;26;519.1;16.4;-1.6;D;1342.3;6;24.526;1;0.91;156;200.81;-80.13742242;25.91182544;0;0;1;N;1.573035;70;70;11;169;169;193.3239;0;9999.99;3.99;4.117;2;9;28.3;0;28.2999992370605;36.91;1543.88878;11/16/22;12:02:31;27.81;55.73;36.91;1.067;8.29;-76.7;-3.1;-3.5;-1252;96.0;6.14;13.2;;
25.9120275840766;-80.1373357881775;12:30:17.16;11/16/2022;9;0.97;186.41;-7.23198341732529;0.96;195.6;185.42;1.89;-3;31.9;.00;3.96;3.96;97;26;519.1;16.4;-1.6;D;1342.3;6;24.090;1;0.94;156;201.08;-80.13742242;25.91182544;0;0;1;N;1.434953;68;68;11;164;164;194.2801;0;9999.99;3.98;4.107;2;9;28.3;0;28.2999992370605;37.14;1544.13157;11/16/22;12:02:32;27.81;56.04;37.14;1.102;8.31;-78.1;-3.6;-2.9;1257;96.1;6.13;13.1;;
25.9120232658319;-80.1373370154354;12:30:18.16;11/16/2022;9;1.003;188.93;-7.23198341732529;0.96;197.1;186.96;1.74;-2.35;32;.00;3.86;3.86;97;26;519.1;16.4;-1.6;D;1329;6;23.598;1;0.93;156;201.22;-80.13742242;25.91182544;0;0;1;N;1.345297;67;67;11;159;159;194.9041;0;9999.99;3.88;4.007;2;9;28.3;0;28.2999992370605;37.15;1544.14213;11/16/22;12:02:33;27.81;56.06;37.15;1.095;8.32;-78.6;-3.6;0.7;-1957;96.1;6.13;13.2;;
25.9120185501395;-80.1373386004899;12:30:19.16;11/16/2022;9;1.015;192.86;-7.23198341732529;0.91;198.4;188.3;1.84;-2.16;32;.00;3.93;3.93;97;26;519.1;16.4;-1.6;D;1329;6;23.051;1;0.97;156;201.33;-80.13742242;25.91182544;0;0;1;N;1.269831;68;68;11;156;156;195.4306;0;9999.99;3.95;4.077;2;9;28.3;0;28.2999992370605;37.33;1544.33215;11/16/22;12:02:34;27.80;56.29;37.33;1.077;8.31;-77.8;-2.6;-4.0;-4740;95.9;6.12;13.2;;
25.9120140710911;-80.1373403888016;12:30:20.17;11/16/2022;9;0.982;195.09;-7.23198341732529;0.91;200.7;190.67;1.94;-2.52;32;.00;3.88;3.88;97;26;519.1;16.4;-1.6;D;1329;6;22.522;1;0.98;156;201.36;-80.13742242;25.91182544;0;0;1;N;1.225992;68;68;11;147;147;195.737;0;9999.99;3.90;4.027;2;9;28.3;0;28.2999992370605;36.96;1543.94156;11/16/22;12:02:35;27.82;55.80;36.96;1.087;8.31;-77.7;-2.9;-4.5;-3640;95.7;6.11;13.2;;
25.91200979036;-80.1373419261982;12:30:21.17;11/16/2022;9;1.042;196.09;-7.23198341732529;0.91;201.3;191.3;1.83;-2.11;31.9;.00;3.88;3.88;97;26;519.1;16.4;-1.6;D;1329;6;22.023;1;1.01;156;201.44;-80.13742242;25.91182544;0;0;1;N;1.16874;68;68;11;146;146;196.1382;0;9999.99;3.90;4.027;2;9;28.3;0;28.2999992370605;37.18;1544.1738;11/16/22;12:02:36;27.79;56.09;37.18;1.068;8.28;-76.0;-3.3;0.4;-888;95.4;6.09;13.1;;
25.9120055367332;-80.1373438948621;12:30:22.19;11/16/2022;10;1.012;197.54;-7.23198341732529;0.91;202.3;192.33;1.82;-1.99;31.9;.00;3.89;3.89;97;26;519.1;16.4;-1.6;D;1339.7;6;21.511;1;1;156;201.41;-80.13742242;25.91182544;0;0;1;N;1.151231;68;68;11;143;143;196.2608;0;9999.99;3.91;4.037;2;9;28.3;0;28.2999992370605;37.73;1544.75445;11/16/22;12:02:37;27.80;56.82;37.73;1.095;8.31;-78.1;-3.8;-4.0;-1403;95.2;6.06;13.3;;
25.9120014591111;-80.1373460100105;12:30:23.20;11/16/2022;9;1.074;200.36;-7.23198341732529;0.91;203.5;193.57;1.71;-2.26;31.9;.00;3.84;3.84;97;26;519.1;16.4;-1.6;D;1339.7;6;21.012;1;1.06;156;201.33;-80.13742242;25.91182544;0;0;1;N;1.152187;67;67;11;140;140;196.2545;0;9999.99;3.86;3.987;2;9;28.3;0;28.2999992370605;36.92;1543.89933;11/16/22;12:02:38;27.81;55.74;36.92;1.095;8.32;-78.7;-3.5;-1.9;-1947;95.2;6.09;13.2;;
25.9119968950784;-80.1373487561287;12:30:24.22;11/16/2022;9;1.081;204;-7.23198341732529;0.91;203.7;193.78;1.7;-1.81;31.9;.00;3.85;3.85;97;26;519.1;16.4;-1.6;D;1339.7;6;20.439;1;1.06;156;201.13;-80.13742242;25.91182544;0;0;1;N;1.193069;67;67;11;136;136;195.968;0;9999.99;3.86;3.987;2;9;28.3;0;28.2999992370605;37.2;1544.19491;11/16/22;12:02:39;27.78;56.12;37.20;1.085;8.31;-77.9;-3.5;-5.5;-1258;95.5;6.10;13.3;;
25.9119928007944;-80.1373512028304;12:30:25.22;11/16/2022;9;1.069;205.26;-7.23198341732529;0.91;203.9;193.99;1.77;-1.52;31.9;.00;3.78;3.78;97;26;519.1;16.4;-1.6;D;1338.8;6;19.926;1;1.06;156;200.94;-80.13742242;25.91182544;0;0;1;N;1.228747;68;68;11;134;134;195.7183;0;9999.99;3.79;3.917;2;9;28.3;0;28.2999992370605;37.32;1544.32159;11/16/22;12:02:40;27.80;56.28;37.32;1.081;8.30;-77.6;-3.5;-8.1;545;95.5;6.09;13.1;;
25.9119886202875;-80.1373534951671;12:30:26.23;11/16/2022;9;1.11;204.86;-7.23198341732529;0.91;204.3;194.41;1.69;-1.99;31.9;.00;3.69;3.69;97;26;519.1;16.4;-1.6;D;1338.8;6;19.410;1;1.06;156;200.8;-80.13742242;25.91182544;0;0;1;N;1.243373;66;66;11;133;133;195.6157;0;9999.99;3.71;3.837;2;9;28.3;0;28.2999992370605;37.18;1544.17381;11/16/22;12:02:41;27.79;56.09;37.18;1.084;8.27;-75.8;-4.0;-0.4;-1221;95.5;6.10;13.3;;
25.9119839844984;-80.1373560698656;12:30:27.27;11/16/2022;9;1.1;204.74;-7.23198341732529;0.91;204.2;194.3;1.79;-2.01;31.9;.00;3.71;3.71;97;26;519.1;16.4;-1.6;D;1338.8;6;18.837;1;1.06;156;200.63;-80.13742242;25.91182544;0;0;1;N;1.265035;68;68;11;132;132;195.4642;0;9999.99;3.73;3.857;2;9;28.3;0;28.2999992370605;37.27;1544.26881;11/16/22;12:02:42;27.77;56.20;37.27;1.091;8.31;-78.0;-3.0;-4.8;-856;95.5;6.10;13.2;;
25.9119796107083;-80.1373580872821;12:30:28.27;11/16/2022;9;1.026;203.61;-7.23198341732529;0.91;204.6;194.72;1.85;-1.56;31.9;.00;3.75;3.75;97;26;519.1;16.4;-1.6;D;1338.8;6;18.311;1;1.08;156;200.57;-80.13742242;25.91182544;0;0;1;N;1.246104;68;68;11;131;131;195.5965;0;9999.99;3.77;3.897;2;9;28.3;0;28.2999992370605;37.09;1544.07879;11/16/22;12:02:43;27.79;55.97;37.09;1.092;8.33;-79.1;-3.2;-1.9;-3071;95.5;6.10;13.2;;
25.9119753176318;-80.13736026799;12:30:29.27;11/16/2022;9;1.128;204.06;-7.23198341732529;0.91;203.9;193.99;1.85;-1.47;31.8;.00;3.73;3.73;97;26;519.0;16.4;-1.6;D;1338.8;6;17.787;1;1.11;156;200.46;-80.13742242;25.91182544;0;0;1;N;1.246464;68;68;11;133;133;195.5941;0;9999.99;3.75;3.877;2;9;28.3;0;28.2999992370605;37.2;1544.19492;11/16/22;12:02:44;27.78;56.11;37.20;1.089;8.31;-77.7;-4.1;-3.2;-1634;95.6;6.11;13.1;;
25.9119708732294;-80.1373623842452;12:30:30.27;11/16/2022;9;1.123;203.69;-7.23198341732529;0.91;203.7;193.78;1.99;-0.92;31.9;.00;3.72;3.72;97;26;519.0;16.4;-1.6;D;1338.8;6;17.250;1;1.11;156;200.37;-80.13742242;25.91182544;0;0;1;N;1.235727;69;69;11;135;135;195.6692;0;9999.99;3.74;3.867;2;9;28.3;0;28.2999992370605;37.28;1544.27939;11/16/22;12:02:45;27.77;56.22;37.28;1.079;8.30;-77.4;-3.0;-9.5;-2687;95.7;6.11;13.3;;
25.9119658373383;-80.1373647916823;12:30:31.27;11/16/2022;9;1.148;203.97;-7.23198341732529;0.91;203.9;193.99;1.77;-1.63;31.9;.00;3.72;3.72;97;26;519.0;16.4;-1.6;D;1338.8;6;16.642;1;1.1;155;200.26;-80.13742242;25.91182544;0;0;1;N;1.22396;66;66;11;134;134;195.7515;0;9999.99;3.74;3.867;2;9;28.3;0;28.2999992370605;36.9;1543.87825;11/16/22;12:02:46;27.79;55.72;36.90;1.073;8.30;-77.2;-2.7;-6.2;-3776;95.4;6.10;13.3;;
25.911961488871;-80.1373670684287;12:30:32.27;11/16/2022;9;1.105;204.98;-7.23198341732529;0.91;203.7;193.78;1.73;-1.85;31.9;.00;3.71;3.71;97;26;519.0;16.4;-1.6;D;1342.9;6;16.109;1;1.1;155;200.1;-80.13742242;25.91182544;0;0;1;N;1.232569;67;67;11;135;135;195.6913;0;9999.99;3.73;3.857;2;9;28.3;0;28.2999992370605;37.07;1544.0577;11/16/22;12:02:47;27.76;55.94;37.07;1.089;8.31;-78.2;-4.1;-2.5;-3104;95.3;6.09;13.3;;
25.911956842348;-80.1373693929386;12:30:33.27;11/16/2022;9;1.092;204.65;-7.23198341732529;0.91;203.7;193.78;1.73;-2.19;31.9;.00;3.68;3.68;97;26;519.0;16.4;-1.6;D;1342.9;6;15.544;1;1.11;155;199.95;-80.13742242;25.91182544;0;0;1;N;1.227918;67;67;11;135;135;195.724;0;9999.99;3.70;3.827;2;9;28.3;0;28.2999992370605;37.2;1544.19492;11/16/22;12:02:48;27.77;56.11;37.20;1.101;8.33;-79.3;-2.7;-4.8;-3150;95.5;6.10;13.1;;
25.9119529664605;-80.1373715140847;12:30:34.27;11/16/2022;10;1.103;205.26;-7.23198341732529;0.91;203.4;193.47;1.87;-1.77;31.9;.00;3.62;3.62;97;25;519.0;16.4;-1.5;D;1370.1;6;15.066;1;1.1;155;199.75;-80.13742242;25.91182544;0;0;1;N;1.245723;68;68;11;136;136;195.5993;0;9999.99;3.64;3.767;2;9;28.3;0;28.2999992370605;37.03;1544.01545;11/16/22;12:02:49;27.77;55.89;37.03;1.087;8.31;-77.7;-3.4;-4.9;-913;95.5;6.11;13.3;;
25.9119484738978;-80.1373738884121;12:30:35.27;11/16/2022;9;1.08;206.02;-7.23198341732529;0.91;202.5;192.54;1.73;-1.57;31.9;.00;3.60;3.60;97;25;519.0;16.4;-1.5;D;1370.1;6;14.516;1;1.11;155;199.53;-80.13742242;25.91182544;0;0;1;N;1.256889;67;67;11;139;139;195.5213;0;9999.99;3.62;3.747;2;9;28.3;0;28.2999992370605;37.39;1544.3955;11/16/22;12:02:50;27.75;56.37;37.39;1.089;8.30;-77.4;-3.2;-5.0;-2602;95.3;6.08;13.2;;
25.9119441658155;-80.1373766452679;12:30:36.27;11/16/2022;9;1.102;208.87;-7.23198341732529;0.91;202;192.02;1.86;-1.03;32;.00;3.61;3.61;97;25;519.0;16.4;-1.5;D;1370.1;6;13.973;1;1.08;155;199.13;-80.13742242;25.91182544;0;0;1;N;1.308625;68;68;11;140;140;195.16;0;9999.99;3.63;3.757;2;9;28.3;0;28.2999992370605;36.93;1543.9099;11/16/22;12:02:51;27.77;55.75;36.93;1.078;8.31;-78.1;-2.6;-5.4;-2714;95.2;6.09;13.2;;
25.9119405617734;-80.1373783992363;12:30:37.27;11/16/2022;9;1.026;206.98;-7.23198341732529;0.91;201.6;191.61;1.81;-1.23;32;.00;3.59;3.59;97;25;519.0;16.4;-1.5;D;1370.1;6;13.537;1;1.08;155;198.98;-80.13742242;25.91182544;0;0;1;N;1.303008;68;68;11;141;141;195.1992;0;9999.99;3.60;3.727;2;9;28.3;0;28.2999992370605;37.13;1544.12105;11/16/22;12:02:52;27.74;56.02;37.13;1.072;8.31;-78.1;-2.8;-5.6;-1637;95.4;6.10;13.2;;
25.9119363312417;-80.1373805946236;12:30:38.27;11/16/2022;9;1.044;206.66;-7.23198341732529;0.91;201.3;191.3;1.72;-1.81;32;.00;3.55;3.55;97;26;519.0;16.4;-1.5;D;1357.9;6;13.021;1;1.08;155;198.74;-80.13742242;25.91182544;0;0;1;N;1.31278;67;67;11;142;142;195.1311;0;9999.99;3.57;3.697;2;9;28.3;0;28.2999992370605;37.28;1544.27941;11/16/22;12:02:53;27.75;56.23;37.28;1.102;8.33;-79.1;-3.7;-5.0;-240;95.1;6.08;13.2;;
25.9119318488904;-80.1373825613956;12:30:39.27;11/16/2022;9;1.048;203.09;-7.23198341732529;0.91;201;190.99;1.61;-1.53;31.9;.00;3.52;3.52;97;26;519.0;16.4;-1.5;D;1357.9;6;12.486;1;1.06;155;198.62;-80.13742242;25.91182544;0;0;1;N;1.284472;67;67;11;144;144;195.3286;0;9999.99;3.54;3.667;2;9;28.3;0;28.2999992370605;37.02;1544.00491;11/16/22;12:02:54;27.75;55.88;37.02;1.085;8.31;-77.7;-2.1;-7.0;222;95.1;6.08;13.2;;
