Latitude;Longitude;Time;Date;Number of Sats;GPS Speed (Kn);GPS True Heading;GPS Magnetic Variation;HDOP;C Magnetic Heading;C True Heading;Pitch Angle;Roll Angle;C Inside Temp (c);DFS Depth (m);DTB Height (m);Total Water Column (m);Batt Percent;Power Watts;Watt-Hours;Batt Volts;Batt Ampers;Batt State;Time to Empty;Current Step;Dist To Next (m);Next Speed (kn);Vehicle Speed (kn);Motor Speed CMD;Next Heading;Next Long;Next Lat;Next Depth (m);Depth Goal (m);Vehicle State;Error State;Distance to Track (m);Fin Pitch R;Fin Pitch L;Pitch Goal;Fin Yaw T;Fin Yaw B;Yaw Goal;Fin Roll;DVL-Depth (m);DVL -Altitude (m);DVL -Water Column (m);DVL-FixType;DVL-FixQuality;DVL-Temperature;Conductivity (mmhos/cm);Temperature (c);Salinity (ppt);Sound Speed (m/s);Date m/d/y   ;Time hh:mm:ss;Temp C;SpCond mS/cm;Sal ppt;Depth feet;pH;pH mV;Turbid+ NTU;Chl ug/L;BGA-PC cells/mL;ODOsat %;ODO mg/L;Battery volts;ROSEM Command Type;
25.9128625;-80.1378406666667;12:41:10.13;1/30/2021;3;0.599;327.21;-7.05683271228189;1.9;142;132.97;0.98;-1.58;21.5;.05;3.41;3.47;88;20;479.0;16;-1.2;D;1536.7;0;12.355;2;0;128;175.33;-80.13783061;25.91275176;0;0;1;N;10.59908;63;63;11;250;250;236.4319;0;9999.99;3.42;3.547;2;9;21.3;0;21.2999992370605;35.32;1525.35354;01/30/21;12:20:03;21.74;53.43;35.32;1.143;8.51;-88.1;-2.6;-7.6;-1697;99.4;7.11;12.7;;
25.9128625;-80.1378406666667;12:41:11.13;1/30/2021;3;0.599;327.21;-7.05683271228189;1.9;140.7;131.75;0.78;-3.3;21.5;.06;3.41;3.47;88;22;479.0;16;-1.3;D;1427.8;1;45.649;2;0;174;143.84;-80.13757133;25.91253107;0;0;1;N;8.252657;62;62;11;221;221;155.306;0;9999.99;3.42;3.547;2;9;21.3;0;21.2999992370605;35.34;1525.37437;01/30/21;12:20:04;21.74;53.44;35.34;1.124;8.50;-87.7;-3.6;-3.9;-3936;99.1;7.09;12.8;;
25.9128625;-80.1378406666667;12:41:12.13;1/30/2021;3;0.599;327.21;-7.05683271228189;1.9;138.4;129.59;1.79;5.34;21.6;.06;3.42;3.49;88;22;479.0;16;-1.3;D;1427.8;1;45.649;2;0;174;143.84;-80.13757133;25.91253107;0;0;1;N;8.252657;69;69;11;230;230;155.306;0;9999.99;3.44;3.567;2;9;21.3;0;21.2999992370605;35.33;1525.36443;01/30/21;12:20:06;21.75;53.43;35.33;1.143;8.46;-85.3;-3.0;-4.4;-3522;98.7;7.06;12.7;;
25.9127963642893;-80.1378080331713;12:41:13.13;1/30/2021;3;1.163;327.21;-7.05683271228189;1.9;140.7;131.75;1.98;0.74;21.5;.05;3.43;3.48;88;22;479.0;16;-1.3;D;1427.8;1;37.825;2;0.29;174;141.25;-80.13757133;25.91253107;0;0;1;N;8.252657;65;65;11;179;179;155.306;0;9999.99;3.44;3.567;2;9;21.3;0;21.2999992370605;35.39;1525.43092;01/30/21;12:20:07;21.75;53.51;35.39;1.174;8.50;-87.6;-2.7;-5.0;-913;98.4;7.04;12.7;;
25.9127890992564;-80.1378030261488;12:41:14.13;1/30/2021;4;0.973;327.21;-7.05683271228189;6.93;146.5;137.2;1;3.81;21.5;.02;3.41;3.43;88;22;479.0;16;-1.3;D;1427.8;1;36.881;2;0.59;174;141.07;-80.13757133;25.91253107;0;0;1;N;4.913169;64;64;11;225;225;161.1553;0;9999.99;3.42;3.547;2;9;21.3;0;21.2999992370605;35.39;1525.43092;01/30/21;12:20:07;21.75;53.51;35.39;1.174;8.50;-87.6;-2.7;-5.0;-913;98.4;7.04;12.7;;
25.9127868288952;-80.1378008209712;12:41:15.13;1/30/2021;4;0.973;327.21;-7.05683271228189;6.95;151.5;141.95;1.51;2.51;21.5;.02;3.43;3.45;88;38;479.0;15.9;-2.4;D;827.2;1;36.546;2;0.89;174;141.09;-80.13757133;25.91253107;0;0;1;N;4.890069;66;66;11;208;208;162.2726;0;9999.99;3.44;3.567;2;9;21.4;0;21.2999992370605;35.51;1525.56049;01/30/21;12:20:08;21.76;53.67;35.51;1.127;8.54;-89.8;-3.1;-2.1;-5855;98.2;7.02;12.6;;
25.9127831789565;-80.1377981221185;12:41:16.13;1/30/2021;4;0.973;327.21;-7.05683271228189;6.96;157.5;147.68;1.51;1.29;21.5;.03;3.52;3.54;88;38;479.0;15.9;-2.4;D;827.2;1;36.061;2;1.11;174;141.02;-80.13757133;25.91253107;0;0;1;N;4.789172;66;66;11;192;192;163.8145;0;9999.99;3.53;3.657;2;9;21.4;0;21.3999996185303;36.16;1526.54829;01/30/21;12:20:09;21.76;54.54;36.16;1.166;8.46;-85.0;-1.9;-6.4;-4322;98.1;6.98;12.5;;
25.9127788167091;-80.1377954322287;12:41:17.13;1/30/2021;4;0.973;327.21;-7.05683271228189;6.98;162.1;152.13;1.9;1.54;21.5;.02;3.43;3.45;88;38;479.0;15.9;-2.4;D;827.2;1;35.515;2;1.29;174;140.87;-80.13757133;25.91253107;0;0;1;N;4.627212;70;70;11;173;173;163.4934;0;9999.99;3.45;3.577;2;9;21.4;0;21.3999996185303;36.16;1526.54751;01/30/21;12:20:11;21.77;54.55;36.16;1.149;8.54;-90.0;-3.2;-2.6;-1909;97.7;6.95;12.6;;
25.9127727343864;-80.1377922614133;12:41:18.14;1/30/2021;4;0.973;327.21;-7.05683271228189;7;166.3;156.21;1.46;2.06;21.5;.01;3.46;3.47;88;38;479.0;15.9;-2.3;D;835.1;1;34.790;2;1.46;174;140.57;-80.13757133;25.91253107;0;0;1;N;4.360314;66;66;11;150;150;162.0131;0;9999.99;3.47;3.597;2;9;21.4;0;21.3999996185303;36.16;1526.54751;01/30/21;12:20:11;21.77;54.55;36.16;1.149;8.54;-90.0;-3.2;-2.6;-1909;97.7;6.95;12.6;;
25.9127663595697;-80.1377891221206;12:41:19.16;1/30/2021;4;0.973;327.21;-7.05683271228189;7.02;168.1;157.97;1.42;2.45;21.5;.01;3.51;3.52;88;38;479.0;15.9;-2.3;D;835.1;1;34.044;2;1.55;174;140.22;-80.13757133;25.91253107;0;0;1;N;4.071355;66;66;11;137;137;160.3929;0;9999.99;3.52;3.647;2;9;21.4;0;21.3999996185303;36.16;1526.54695;01/30/21;12:20:12;21.77;54.55;36.16;1.161;8.46;-85.1;-2.6;0.8;-1594;97.6;6.95;12.7;;
25.9127595203917;-80.1377861481694;12:41:20.16;1/30/2021;4;0.973;327.21;-7.05683271228189;7.04;170;159.84;0.8;2.52;21.5;.01;3.49;3.50;88;38;479.0;15.9;-2.3;D;835.1;1;33.270;2;1.67;174;139.78;-80.13757133;25.91253107;0;0;1;N;3.730315;62;62;11;121;121;158.4212;0;9999.99;3.50;3.627;2;9;21.4;0;21.3999996185303;36.18;1526.56964;01/30/21;12:20:13;21.77;54.57;36.18;1.148;8.51;-88.0;-3.8;-0.3;-1975;97.4;6.93;12.5;;
25.912752881463;-80.137783444072;12:41:21.16;1/30/2021;4;0.973;327.21;-7.05683271228189;7.06;169.2;159.05;0.93;4.19;21.5;.01;3.48;3.49;88;38;479.0;15.9;-2.3;D;835.1;1;32.533;2;1.75;174;139.3;-80.13757133;25.91253107;0;0;1;N;3.376267;63;63;11;113;113;156.3024;0;9999.99;3.49;3.617;2;9;21.4;0;21.3999996185303;36.19;1526.58028;01/30/21;12:20:15;21.77;54.58;36.19;1.168;8.46;-85.2;-2.2;-6.4;-4938;96.9;6.90;12.8;;
25.9127452193053;-80.1377799539164;12:41:22.16;1/30/2021;4;0.973;327.21;-7.05683271228189;7.08;168.8;158.66;0.85;4.48;21.5;.01;3.45;3.46;88;37;478.9;15.9;-2.3;D;840;1;31.661;2;1.78;174;138.77;-80.13757133;25.91253107;0;0;1;N;2.996751;62;62;11;108;108;153.9557;0;9999.99;3.46;3.587;2;9;21.4;0;21.3999996185303;36.19;1526.58028;01/30/21;12:20:15;21.77;54.58;36.19;1.168;8.46;-85.2;-2.2;-6.4;-4938;96.9;6.90;12.8;;
25.9127377349591;-80.1377760093891;12:41:23.16;1/30/2021;4;0.973;327.21;-7.05683271228189;7.1;166.7;156.6;1.56;4.61;21.5;.02;3.44;3.46;88;37;478.9;15.9;-2.3;D;840;1;30.776;2;1.82;174;138.3;-80.13757133;25.91253107;0;0;1;N;2.661301;66;66;11;108;108;151.8207;0;9999.99;3.45;3.577;2;9;21.5;0;21.3999996185303;36.17;1526.5584;01/30/21;12:20:16;21.76;54.56;36.17;1.183;8.51;-87.9;-2.6;-2.2;-4825;96.8;6.89;12.7;;
25.9127302756655;-80.1377718420696;12:41:24.16;1/30/2021;4;0.973;327.21;-7.05683271228189;7.12;166.1;156.02;1.4;5.45;21.5;.01;3.46;3.47;88;37;478.9;15.9;-2.3;D;840;1;29.880;2;1.88;174;137.84;-80.13757133;25.91253107;0;0;1;N;2.338709;64;64;11;101;101;149.7148;0;9999.99;3.47;3.597;2;9;21.5;0;21.5;36.14;1526.78936;01/30/21;12:20:18;21.76;54.53;36.14;1.161;8.47;-85.5;-2.5;-5.2;-2768;96.4;6.86;12.7;;
25.9127219149842;-80.1377667794576;12:41:25.16;1/30/2021;4;0.973;327.21;-7.05683271228189;7.14;165.4;155.33;2.06;4.39;21.5;.01;3.41;3.42;88;37;478.9;15.9;-2.3;D;858;1;28.852;2;1.88;174;137.35;-80.13757133;25.91253107;0;0;1;N;2.012002;69;69;11;96;96;147.5368;0;9999.99;3.43;3.557;2;9;21.5;0;21.5;36.14;1526.78936;01/30/21;12:20:18;21.76;54.53;36.14;1.161;8.47;-85.5;-2.5;-5.2;-2768;96.4;6.86;12.7;;
25.9127144671523;-80.137762243874;12:41:26.16;1/30/2021;4;0.973;327.21;-7.05683271228189;7.16;162;152.03;1.9;2.03;21.6;.02;3.43;3.45;88;37;478.9;15.9;-2.3;D;858;1;27.937;2;1.93;174;136.88;-80.13757133;25.91253107;0;0;1;N;1.723245;68;68;11;101;101;145.5762;0;9999.99;3.45;3.577;2;9;21.5;0;21.5;36.15;1526.80038;01/30/21;12:20:19;21.76;54.54;36.15;1.163;8.51;-87.7;-2.9;-1.6;-4621;96.2;6.85;12.7;;
25.9127065842688;-80.1377575397185;12:41:27.16;1/30/2021;5;0.973;327.21;-7.05683271228189;1.37;164;153.97;1.54;3;21.5;.01;3.45;3.46;88;37;478.9;15.9;-2.3;D;858;1;26.977;2;1.94;174;136.34;-80.13757133;25.91253107;0;0;1;N;1.416064;66;66;11;85;85;143.4574;0;9999.99;3.46;3.587;2;9;21.5;0;21.5;36.15;1526.8003;01/30/21;12:20:21;21.75;54.54;36.15;1.162;8.47;-85.6;-2.5;-0.1;-3427;95.8;6.82;12.5;;
25.9126865722383;-80.1377654758085;12:41:28.16;1/30/2021;5;1.994;158.76;-7.05683271228189;1.37;161;151.06;1.45;2.42;21.6;.01;3.37;3.39;88;37;478.9;15.9;-2.3;D;858;1;26.001;2;1.95;174;131.68;-80.13757133;25.91253107;0;0;1;N;0.756619;66;66;11;35;35;128.0167;0;9999.99;3.39;3.517;2;9;21.5;0;21.5;36.15;1526.8003;01/30/21;12:20:21;21.75;54.54;36.15;1.162;8.47;-85.6;-2.5;-0.1;-3427;95.8;6.82;12.5;;
25.9126770156073;-80.1377640139326;12:41:29.16;1/30/2021;5;1.907;157.9;-7.05683271228189;1.37;155.4;145.67;1.35;0;21.6;.01;3.31;3.31;88;37;478.9;15.9;-2.3;D;843;1;25.194;2;2;174;130.1;-80.13757133;25.91253107;0;0;1;N;1.436721;65;65;11;37;37;123.2385;0;9999.99;3.32;3.447;2;9;21.5;0;21.5;36.17;1526.82246;01/30/21;12:20:22;21.75;54.56;36.17;1.189;8.51;-87.7;-2.8;1.0;-2262;95.7;6.81;12.8;;
25.9126691991645;-80.1377608809708;12:41:30.16;1/30/2021;5;1.967;156;-7.05683271228189;1.38;149.5;140.04;1.91;4.83;21.6;.01;3.43;3.44;88;37;478.9;15.9;-2.3;D;843;1;24.399;2;1.97;174;129.01;-80.13757133;25.91253107;0;0;1;N;1.861452;68;68;11;48;48;120.3208;0;9999.99;3.45;3.577;2;9;21.5;0;21.5;36.19;1526.84421;01/30/21;12:20:24;21.76;54.58;36.19;1.167;8.47;-85.8;-3.0;-5.0;-2500;95.4;6.79;12.8;;
25.9126618347021;-80.1377560257513;12:41:31.16;1/30/2021;5;1.893;151.59;-7.05683271228189;1.38;141;132.03;2.45;5.22;21.6;.01;3.46;3.47;88;37;478.9;15.9;-2.3;D;843;1;23.509;2;1.94;174;128.21;-80.13757133;25.91253107;0;0;1;N;2.138926;70;70;11;69;69;118.4507;0;9999.99;3.48;3.607;2;9;21.5;0;21.5;36.19;1526.84421;01/30/21;12:20:24;21.76;54.58;36.19;1.167;8.47;-85.8;-3.0;-5.0;-2500;95.4;6.79;12.8;;
25.9126560800184;-80.1377503950558;12:41:32.16;1/30/2021;5;1.858;145.57;-7.05683271228189;1.38;135.9;127.26;2.66;5.45;21.6;.01;3.50;3.51;88;37;478.9;15.9;-2.3;D;853.8;1;22.671;2;1.92;174;127.82;-80.13757133;25.91253107;0;0;1;N;2.227053;73;73;11;89;89;117.8631;0;9999.99;3.52;3.647;2;9;21.5;0;21.5;36.17;1526.82226;01/30/21;12:20:25;21.76;54.56;36.17;1.151;8.51;-87.8;-3.4;-3.8;-2373;95.2;6.78;12.6;;
25.9126493755513;-80.1377437260478;12:41:33.17;1/30/2021;5;1.878;139.93;-7.05683271228189;1.38;131.1;122.79;2.12;5.45;21.6;.01;3.50;3.51;88;37;478.9;15.9;-2.3;D;853.8;1;21.688;2;1.91;174;127.34;-80.13757133;25.91253107;0;0;1;N;2.320331;70;70;11;105;105;117.245;0;9999.99;3.52;3.647;2;9;21.6;0;21.5;36.16;1526.81135;01/30/21;12:20:27;21.75;54.54;36.16;1.143;8.47;-85.8;-2.5;-1.0;-1194;94.8;6.75;12.7;;
25.9126423646939;-80.1377378143191;12:41:34.17;1/30/2021;6;1.876;133.93;-7.05683271228189;1.38;129.3;121.12;1.68;4.71;21.6;.01;3.55;3.55;88;37;478.9;15.9;-2.3;D;853.8;1;20.746;2;1.91;174;126.62;-80.13757133;25.91253107;0;0;1;N;2.483243;67;67;11;107;107;116.1747;0;9999.99;3.56;3.687;2;9;21.6;0;21.6000003814697;36.17;1527.08539;01/30/21;12:20:28;21.75;54.56;36.17;1.168;8.51;-87.8;-3.2;-1.5;-2647;94.7;6.74;12.7;;
25.9126355325131;-80.1377301173597;12:41:35.19;1/30/2021;6;1.958;129.8;-7.05683271228189;1.38;128.8;120.65;1.12;3.33;21.6;.01;3.61;3.62;88;37;478.9;15.9;-2.3;D;853.8;1;19.676;2;1.93;174;126.18;-80.13757133;25.91253107;0;0;1;N;2.503127;65;65;11;109;109;116.0449;0;9999.99;3.62;3.747;2;9;21.6;0;21.6000003814697;36.17;1527.08539;01/30/21;12:20:28;21.75;54.56;36.17;1.168;8.51;-87.8;-3.2;-1.5;-2647;94.7;6.74;12.7;;
25.9126290048026;-80.1377241553604;12:41:36.19;1/30/2021;6;2;127.16;-7.05683271228189;1.38;128.6;120.47;0.73;2.97;21.6;.01;3.64;3.65;88;37;478.8;15.9;-2.3;D;842.9;1;18.768;2;1.96;174;125.47;-80.13757133;25.91253107;0;0;1;N;2.621426;61;61;11;106;106;115.2769;0;9999.99;3.65;3.777;2;9;21.6;0;21.6000003814697;36.19;1527.10782;01/30/21;12:20:30;21.76;54.59;36.19;1.182;8.47;-85.9;-1.7;-2.9;-2103;94.4;6.72;12.7;;
25.9126224276545;-80.1377150036742;12:41:37.22;1/30/2021;6;1.951;124.89;-7.05683271228189;1.38;127.8;119.73;0.82;3.21;21.6;.00;3.66;3.66;88;37;478.8;15.9;-2.3;D;842.9;1;17.598;2;1.94;174;125.26;-80.13757133;25.91253107;0;0;1;N;2.526984;63;63;11;112;112;115.8896;0;9999.99;3.67;3.797;2;9;21.6;0;21.6000003814697;36.19;1527.10782;01/30/21;12:20:30;21.76;54.59;36.19;1.182;8.47;-85.9;-1.7;-2.9;-2103;94.4;6.72;12.7;;
25.9126162898187;-80.1377073954314;12:41:38.23;1/30/2021;6;1.974;123.63;-7.05683271228189;1.38;126.5;118.52;1.01;2.96;21.6;.00;3.65;3.66;88;37;478.8;15.9;-2.3;D;842.9;1;16.583;2;1.98;174;124.85;-80.13757133;25.91253107;0;0;1;N;2.510795;63;63;11;117;117;115.9951;0;9999.99;3.66;3.787;2;9;21.6;0;21.6000003814697;36.19;1527.10731;01/30/21;12:20:31;21.76;54.59;36.19;1.178;8.50;-87.5;-3.3;-1.8;-4422;94.2;6.71;12.7;;
25.9126107764544;-80.1377004215053;12:41:39.25;1/30/2021;6;1.966;122.82;-7.05683271228189;1.38;127.4;119.36;0.65;3.28;21.6;.01;3.68;3.69;88;37;478.8;15.9;-2.3;D;849.7;1;15.661;2;1.97;174;124.47;-80.13757133;25.91253107;0;0;1;N;2.465195;61;61;11;115;115;116.2929;0;9999.99;3.69;3.817;2;9;21.6;0;21.6000003814697;36.18;1527.09634;01/30/21;12:20:32;21.76;54.57;36.18;1.190;8.53;-89.5;-3.1;0.7;-212;94.2;6.70;12.7;;
25.9126049063761;-80.1376921453409;12:41:40.27;1/30/2021;6;1.982;122.06;-7.05683271228189;1.38;127.6;119.54;0.37;2.92;21.6;.01;3.76;3.76;88;37;478.8;15.9;-2.3;D;849.7;1;14.609;2;2;174;124.19;-80.13757133;25.91253107;0;0;1;N;2.373173;59;59;11;116;116;116.8968;0;9999.99;3.76;3.887;2;9;21.6;0;21.6000003814697;36.19;1527.10803;01/30/21;12:20:33;21.76;54.59;36.19;1.178;8.48;-86.0;-3.1;-4.6;-3552;94.0;6.69;12.5;;
25.9125992843806;-80.1376838143958;12:41:41.28;1/30/2021;6;1.991;121.91;-7.05683271228189;1.38;126.8;118.8;0.58;4.45;21.7;.00;3.77;3.78;88;37;478.8;15.9;-2.3;D;849.7;1;13.569;2;2.01;174;123.99;-80.13757133;25.91253107;0;0;1;N;2.256585;60;60;11;122;122;117.6673;0;9999.99;3.78;3.907;2;9;21.6;0;21.6000003814697;36.19;1527.10732;01/30/21;12:20:35;21.77;54.58;36.19;1.192;8.53;-89.3;-2.5;-3.9;-3780;93.8;6.67;12.6;;
25.9125938493042;-80.1376757964358;12:41:42.28;1/30/2021;6;2.02;121.54;-7.05683271228189;1.38;127.2;119.17;0.73;2.95;21.6;.01;3.80;3.80;88;37;478.8;15.9;-2.3;D;849.7;1;12.566;2;1.99;174;123.75;-80.13757133;25.91253107;0;0;1;N;2.140442;61;61;11;124;124;118.4406;0;9999.99;3.80;3.927;2;9;21.6;0;21.6000003814697;36.19;1527.10732;01/30/21;12:20:35;21.77;54.58;36.19;1.192;8.53;-89.3;-2.5;-3.9;-3780;93.8;6.67;12.6;;
25.9125880812838;-80.1376669632723;12:41:43.28;1/30/2021;6;2.005;121.89;-7.05683271228189;1.38;127.6;119.54;0.74;2.97;21.6;.01;3.83;3.83;77;37;478.8;15.9;-2.3;D;845.3;1;11.475;2;1.98;174;123.54;-80.13757133;25.91253107;0;0;1;N;1.997417;61;61;11;126;126;119.4007;0;9999.99;3.83;3.957;2;9;21.6;0;21.6000003814697;36.18;1527.09647;01/30/21;12:20:36;21.77;54.57;36.18;1.202;8.48;-86.1;-2.5;-3.9;-3843;93.6;6.66;12.8;;
25.9125828662898;-80.1376591820495;12:41:44.28;1/30/2021;6;2.002;122.23;-7.05683271228189;1.38;128.8;120.65;0.81;2.8;21.6;.01;3.85;3.86;77;37;478.8;15.9;-2.3;D;845.3;1;10.506;2;2.02;174;123.24;-80.13757133;25.91253107;0;0;1;N;1.886576;62;62;11;126;126;120.1503;0;9999.99;3.86;3.987;2;9;21.6;0;21.6000003814697;36.2;1527.11849;01/30/21;12:20:38;21.77;54.60;36.20;1.178;8.54;-89.7;-2.5;-3.8;-6517;93.5;6.65;12.7;;
25.9125776814327;-80.1376511223683;12:41:45.28;1/30/2021;6;1.962;122.45;-7.05683271228189;1.38;129.4;121.21;0.35;3.01;21.6;.01;3.85;3.86;77;37;478.8;15.9;-2.3;D;845.3;1;9.516;2;2.04;174;123;-80.13757133;25.91253107;0;0;1;N;1.752304;59;59;11;126;126;121.0653;0;9999.99;3.86;3.987;2;9;21.6;0;21.6000003814697;36.2;1527.11849;01/30/21;12:20:38;21.77;54.60;36.20;1.178;8.54;-89.7;-2.5;-3.8;-6517;93.5;6.65;12.7;;
25.9125723371574;-80.1376424623053;12:41:46.28;1/30/2021;6;2.009;122.99;-7.05683271228189;1.38;129.3;121.12;1.04;3.73;21.6;.00;3.87;3.87;77;37;478.8;15.9;-2.3;D;845.3;1;8.465;2;1.99;174;122.82;-80.13757133;25.91253107;0;0;1;N;1.583675;63;63;11;131;131;122.2222;0;9999.99;3.87;3.997;2;9;21.6;0;21.6000003814697;36.19;1527.10741;01/30/21;12:20:39;21.77;54.58;36.19;1.171;8.46;-85.3;-2.6;-2.2;-3823;93.4;6.65;12.7;;
25.912566793329;-80.1376343763539;12:41:47.30;1/30/2021;6;1.965;123.5;-7.05683271228189;1.38;130.8;122.51;0.78;3.12;21.5;.01;3.87;3.88;88;37;478.8;15.9;-2.3;D;851.1;1;7.452;2;2.01;174;122.21;-80.13757133;25.91253107;0;0;1;N;1.477664;62;62;11;130;130;122.9549;0;9999.99;3.88;4.007;2;9;21.6;0;21.6000003814697;36.19;1527.10755;01/30/21;12:20:41;21.78;54.59;36.19;1.187;8.54;-89.9;-3.7;-2.5;-3704;93.2;6.63;12.6;;
25.9125613516251;-80.1376259624125;12:41:48.30;1/30/2021;6;1.986;123.97;-7.05683271228189;1.38;130.8;122.51;0.37;3.64;21.5;.01;3.87;3.87;88;37;478.8;15.9;-2.3;D;851.1;1;6.419;2;2.01;174;121.64;-80.13757133;25.91253107;0;0;1;N;1.33794;59;59;11;133;133;123.9248;0;9999.99;3.87;3.997;2;9;21.6;0;21.6000003814697;36.19;1527.10761;01/30/21;12:20:42;21.78;54.59;36.19;1.187;8.46;-85.3;-3.6;-2.3;-2805;93.1;6.62;12.6;;
25.9125568589805;-80.1376188022521;12:41:49.30;1/30/2021;6;1.986;123.64;-7.05683271228189;1.38;130.9;122.6;0.81;3.33;21.5;.00;3.89;3.89;88;37;478.8;15.9;-2.3;D;851.1;2;21.918;2;1.99;174;148;-80.13750269;25.91238969;0;0;1;N;1.211255;61;61;11;191;191;138.6975;0;9999.99;3.89;4.017;2;9;21.6;0;21.6000003814697;36.19;1527.10761;01/30/21;12:20:42;21.78;54.59;36.19;1.187;8.46;-85.3;-3.6;-2.3;-2805;93.1;6.62;12.6;;
25.9125517664382;-80.1376117764828;12:41:50.30;1/30/2021;6;1.961;125.22;-7.05683271228189;1.38;135;126.42;0.37;9.2;21.6;.00;3.89;3.90;88;37;478.8;15.9;-2.3;D;849.5;2;21.067;2;1.98;174;148.81;-80.13750269;25.91238969;0;0;1;N;2.844414;59;59;11;194;194;143.0753;0;9999.99;3.90;4.027;2;9;21.6;0;21.6000003814697;36.19;1527.10735;01/30/21;12:20:43;21.78;54.59;36.19;1.195;8.51;-87.9;-3.3;-4.6;-5409;93.0;6.62;12.7;;
25.9125464195531;-80.137603510504;12:41:51.31;1/30/2021;6;1.883;123.9;-7.05683271228189;1.38;139.9;131;1.49;-0.03;21.6;.00;3.92;3.93;88;37;478.8;15.9;-2.3;D;849.5;2;20.135;2;1.92;174;149.95;-80.13750269;25.91238969;0;0;1;N;2.32197;64;64;11;186;186;144.6064;0;9999.99;3.93;4.057;2;9;21.6;0;21.6000003814697;36.22;1527.1405;01/30/21;12:20:45;21.78;54.63;36.22;1.173;8.46;-85.0;-2.6;-6.5;-2556;93.0;6.61;12.4;;
25.9125406954672;-80.1375971883868;12:41:52.33;1/30/2021;6;1.836;128.53;-7.05683271228189;1.38;146.3;137.01;2.04;2.79;21.6;.01;3.91;3.92;88;37;478.8;15.9;-2.3;D;849.5;2;19.268;2;1.91;174;150.63;-80.13750269;25.91238969;0;0;1;N;1.983656;69;69;11;161;161;145.4523;0;9999.99;3.93;4.057;2;9;21.6;0;21.6000003814697;36.22;1527.1405;01/30/21;12:20:45;21.78;54.63;36.22;1.173;8.46;-85.0;-2.6;-6.5;-2556;93.0;6.61;12.4;;
25.9125347979496;-80.1375914474804;12:41:53.33;1/30/2021;6;1.84;132.2;-7.05683271228189;1.38;149.8;140.33;2.48;1.98;21.6;.01;3.91;3.92;88;37;478.8;15.9;-2.3;D;849.5;2;18.416;2;1.89;174;151.18;-80.13750269;25.91238969;0;0;1;N;1.706968;72;72;11;150;150;146.0776;0;9999.99;3.93;4.057;2;9;21.7;0;21.6000003814697;36.19;1527.10792;01/30/21;12:20:47;21.78;54.59;36.19;1.153;8.53;-89.0;-2.8;-4.1;-2350;92.9;6.61;12.7;;
25.9125268571618;-80.1375845765036;12:41:54.33;1/30/2021;6;1.825;134.68;-7.05683271228189;1.38;152.7;143.09;2.27;3.06;21.6;.02;3.93;3.94;88;37;478.7;15.9;-2.3;D;853.9;2;17.312;2;1.87;175;151.77;-80.13750269;25.91238969;0;0;1;N;1.426859;71;71;11;141;141;146.5647;0;9999.99;3.95;4.077;2;9;21.7;0;21.6000003814697;36.19;1527.10792;01/30/21;12:20:47;21.78;54.59;36.19;1.153;8.53;-89.0;-2.8;-4.1;-2350;92.9;6.61;12.7;;
25.9125200931281;-80.1375798776006;12:41:55.33;1/30/2021;6;1.814;139.98;-7.05683271228189;1.38;155.2;145.48;1.82;3.37;21.5;.01;3.95;3.96;88;37;478.7;15.9;-2.3;D;853.9;2;16.427;2;1.9;175;151.97;-80.13750269;25.91238969;0;0;1;N;1.297568;68;68;11;134;134;147.2017;0;9999.99;3.97;4.097;2;9;21.7;0;21.7000007629395;36.19;1527.37097;01/30/21;12:20:48;21.77;54.59;36.19;1.153;8.46;-85.1;-3.6;-0.8;-3909;92.9;6.61;12.7;;
25.9125126953483;-80.1375750149887;12:41:56.34;1/30/2021;6;1.887;144.57;-7.05683271228189;1.38;156.8;147.01;1.43;3.11;21.6;.00;3.95;3.96;88;37;478.7;15.9;-2.3;D;853.9;2;15.473;2;1.92;175;152.13;-80.13750269;25.91238969;0;0;1;N;1.181813;66;66;11;131;131;148.0067;0;9999.99;3.97;4.097;2;9;21.7;0;21.7000007629395;36.19;1527.3702;01/30/21;12:20:50;21.77;54.59;36.19;1.180;8.49;-86.8;-3.2;-6.6;-3487;92.8;6.60;12.7;;
25.912505917922;-80.1375708932059;12:41:57.36;1/30/2021;7;1.889;146.42;-7.05683271228189;1.28;158.5;148.65;1.05;2.75;21.6;.01;3.97;3.97;88;38;478.7;15.9;-2.3;D;837.3;2;14.614;2;1.92;175;152.17;-80.13750269;25.91238969;0;0;1;N;1.095692;64;64;11;129;129;148.6113;0;9999.99;3.98;4.107;2;9;21.7;0;21.7000007629395;36.19;1527.3702;01/30/21;12:20:50;21.77;54.59;36.19;1.180;8.49;-86.8;-3.2;-6.6;-3487;92.8;6.60;12.7;;
25.9124973430038;-80.1375665410417;12:41:58.38;1/30/2021;7;1.939;148.32;-7.05683271228189;1.28;159.8;149.9;1.16;2.75;21.7;.00;3.98;3.98;88;38;478.7;15.9;-2.3;D;837.3;2;13.568;2;1.93;175;151.92;-80.13750269;25.91238969;0;0;1;N;1.076147;64;64;11;122;122;148.7484;0;9999.99;3.99;4.117;2;9;21.7;0;21.7000007629395;36.2;1527.38127;01/30/21;12:20:51;21.76;54.60;36.20;1.176;8.44;-84.1;-3.2;-5.8;-2739;92.8;6.60;12.6;;
25.9124890888897;-80.1375625918918;12:41:59.41;1/30/2021;7;1.92;150.17;-7.05683271228189;1.28;160.5;150.58;0.62;3.05;21.6;.01;3.99;4.00;88;38;478.7;15.9;-2.3;D;837.3;2;12.572;2;1.95;175;151.54;-80.13750269;25.91238969;0;0;1;N;1.078498;61;61;11;120;120;148.7319;0;9999.99;4.00;4.127;2;9;21.7;0;21.7000007629395;36.2;1527.38121;01/30/21;12:20:52;21.77;54.61;36.20;1.171;8.49;-86.7;-2.5;-0.9;-2627;92.8;6.60;12.7;;
25.912481052505;-80.137559092074;12:42:00.41;1/30/2021;7;1.974;153.12;-7.05683271228189;1.28;161.1;151.16;0.73;3.98;21.6;.00;3.99;4.00;88;38;478.7;15.9;-2.3;D;837.3;2;11.620;2;1.98;175;150.96;-80.13750269;25.91238969;0;0;1;N;1.116171;61;61;11;116;116;148.4667;0;9999.99;4.00;4.127;2;9;21.7;0;21.7000007629395;36.2;1527.38145;01/30/21;12:20:54;21.77;54.60;36.20;1.200;8.47;-85.7;-2.3;-5.3;-4100;92.6;6.59;12.7;;
25.9124719195076;-80.1375551045516;12:42:01.41;1/30/2021;7;1.971;154.48;-7.05683271228189;1.28;161.6;151.64;0.54;2.81;21.6;.00;4.01;4.01;88;38;478.7;15.9;-2.3;D;831.6;2;10.540;2;1.97;175;150.17;-80.13750269;25.91238969;0;0;1;N;1.155079;60;60;11;113;113;148.1937;0;9999.99;4.01;4.137;2;9;21.7;0;21.7000007629395;36.2;1527.38145;01/30/21;12:20:54;21.77;54.60;36.20;1.200;8.47;-85.7;-2.3;-5.3;-4100;92.6;6.59;12.7;;
25.9124649227478;-80.137552249253;12:42:02.41;1/30/2021;8;1.939;154.98;-7.05683271228189;1.28;162.1;152.13;0.55;3.31;21.6;.00;4.00;4.01;88;38;478.7;15.9;-2.3;D;831.6;2;9.723;2;1.93;175;149.35;-80.13750269;25.91238969;0;0;1;N;1.206183;60;60;11;113;113;147.8354;0;9999.99;4.01;4.137;2;9;21.7;0;21.7000007629395;36.19;1527.37019;01/30/21;12:20:55;21.77;54.59;36.19;1.175;8.48;-86.2;-1.8;-6.0;-4011;92.6;6.59;12.7;;
25.9124557269107;-80.1375483197967;12:42:03.41;1/30/2021;8;1.951;155.47;-7.05683271228189;1.28;161.5;151.54;0.35;3.52;21.6;.01;4.01;4.01;88;38;478.7;15.9;-2.3;D;831.6;2;8.645;2;1.95;175;148.14;-80.13750269;25.91238969;0;0;1;N;1.25686;59;59;11;112;112;147.4811;0;9999.99;4.01;4.137;2;9;21.7;0;21.7000007629395;36.21;1527.39226;01/30/21;12:20:56;21.76;54.62;36.21;1.211;8.50;-87.6;-4.2;-2.0;-537;92.5;6.58;12.7;;
25.9124469934187;-80.1375447984149;12:42:04.41;1/30/2021;8;2.069;156.09;-7.05683271228189;1.28;162.4;152.42;0.41;2.57;21.6;.00;4.03;4.03;88;38;478.6;15.9;-2.4;D;819.3;2;7.638;2;1.96;175;146.54;-80.13750269;25.91238969;0;0;1;N;1.320089;60;60;11;106;106;147.0393;0;9999.99;4.03;4.157;2;9;21.7;0;21.7000007629395;36.21;1527.3925;01/30/21;12:20:58;21.76;54.62;36.21;1.215;8.48;-86.3;-2.4;-1.7;-1800;92.5;6.58;12.9;;
25.912437519791;-80.1375409592888;12:42:05.41;1/30/2021;8;2.04;156.97;-7.05683271228189;1.28;162.3;152.32;0.56;3.67;21.6;.00;4.04;4.04;88;38;478.6;15.9;-2.4;D;819.3;2;6.553;2;1.98;175;144.26;-80.13750269;25.91238969;0;0;1;N;1.390388;60;60;11;104;104;146.5496;0;9999.99;4.04;4.167;2;9;21.7;0;21.7000007629395;36.21;1527.3925;01/30/21;12:20:58;21.76;54.62;36.21;1.215;8.48;-86.3;-2.4;-1.7;-1800;92.5;6.58;12.9;;
25.9124281343164;-80.1375369894624;12:42:06.41;1/30/2021;8;2.002;156.78;-7.05683271228189;1.28;162.4;152.42;0.21;2.34;21.6;.00;4.04;4.05;88;38;478.6;15.9;-2.4;D;819.3;2;5.481;2;1.97;175;141.25;-80.13750269;25.91238969;0;0;1;N;1.442936;58;58;11;102;102;146.184;0;9999.99;4.05;4.177;2;9;21.7;0;21.7000007629395;36.21;1527.39205;01/30/21;12:20:59;21.76;54.61;36.21;1.196;8.50;-87.4;-3.9;-1.4;-2589;92.5;6.58;12.7;;
25.9124192627937;-80.1375333691273;12:42:07.41;1/30/2021;8;2.058;156.27;-7.05683271228189;1.28;162.1;152.13;0.43;3;21.6;.01;4.04;4.04;88;38;478.6;15.9;-2.4;D;819.3;3;18.832;2;1.98;175;136.41;-80.13740356;25.91229659;0;0;1;N;8.817279E-02;61;61;11;64;64;136.6486;0;9999.99;4.04;4.167;2;9;21.7;0;21.7000007629395;36.2;1527.38139;01/30/21;12:21:01;21.76;54.61;36.20;1.225;8.47;-85.9;-3.8;-4.8;-1938;92.5;6.58;12.6;;
25.9124107061475;-80.1375296348511;12:42:08.41;1/30/2021;8;2.036;156.29;-7.05683271228189;1.28;159.6;149.71;0.53;1.57;21.6;.00;4.04;4.05;88;38;478.6;15.9;-2.4;D;818.5;3;17.889;2;1.97;175;135.18;-80.13740356;25.91229659;0;0;1;N;0.3067431;60;60;11;67;67;134.6929;0;9999.99;4.05;4.177;2;9;21.7;0;21.7000007629395;36.2;1527.38139;01/30/21;12:21:01;21.76;54.61;36.20;1.225;8.47;-85.9;-3.8;-4.8;-1938;92.5;6.58;12.6;;
25.9124003816869;-80.1375248572153;12:42:09.41;1/30/2021;8;2.059;157.34;-7.05683271228189;1.28;156;146.24;0.71;4.18;21.7;.01;4.03;4.04;88;38;478.6;15.9;-2.4;D;818.5;3;16.745;2;2.07;175;133.57;-80.13740356;25.91229659;0;0;1;N;0.7560227;61;61;11;70;70;132.0419;0;9999.99;4.04;4.167;2;9;21.7;0;21.7000007629395;36.21;1527.39225;01/30/21;12:21:03;21.76;54.62;36.21;1.219;8.54;-89.7;-2.4;-0.5;-4973;92.4;6.58;12.8;;
25.9123918198237;-80.1375209617475;12:42:10.41;1/30/2021;8;2.06;156.02;-7.05683271228189;1.28;154.1;144.43;0.8;3.51;21.7;.00;4.06;4.07;88;38;478.6;15.9;-2.4;D;818.5;3;15.812;2;2.05;175;132.04;-80.13740356;25.91229659;0;0;1;N;1.137922;62;62;11;67;67;129.3471;0;9999.99;4.07;4.197;2;9;21.7;0;21.7000007629395;36.21;1527.39225;01/30/21;12:21:03;21.76;54.62;36.21;1.219;8.54;-89.7;-2.4;-0.5;-4973;92.4;6.58;12.8;;
25.9123833675854;-80.137515787938;12:42:11.41;1/30/2021;8;2.048;152.83;-7.05683271228189;1.28;150;140.52;0.69;3.41;21.7;.01;4.06;4.07;88;39;478.6;15.9;-2.4;D;797.2;3;14.802;2;2.04;175;130.68;-80.13740356;25.91229659;0;0;1;N;1.425291;61;61;11;72;72;126.6727;0;9999.99;4.07;4.197;2;9;21.7;0;21.7000007629395;36.21;1527.39229;01/30/21;12:21:04;21.76;54.62;36.21;1.193;8.46;-85.1;-4.0;-0.7;-2521;92.4;6.57;12.7;;
25.9123753747961;-80.1375100678538;12:42:12.41;1/30/2021;8;2.028;149.78;-7.05683271228189;1.28;146.8;137.49;1;4.55;21.6;.01;4.09;4.09;88;39;478.6;15.9;-2.4;D;797.2;3;13.792;2;2.02;175;129.43;-80.13740356;25.91229659;0;0;1;N;1.635109;63;63;11;76;76;124.6837;0;9999.99;4.09;4.217;2;9;21.7;0;21.7000007629395;36.21;1527.39261;01/30/21;12:21:06;21.76;54.62;36.21;1.214;8.54;-89.7;-3.8;-6.5;-1378;92.3;6.56;12.7;;
25.912367903877;-80.1375041786152;12:42:13.41;1/30/2021;8;2.056;146.71;-7.05683271228189;1.28;144.2;135.03;1.02;4.17;21.6;.01;4.08;4.09;88;39;478.6;15.9;-2.4;D;797.2;3;12.812;2;2.01;175;128.24;-80.13740356;25.91229659;0;0;1;N;1.791162;63;63;11;81;81;123.6161;0;9999.99;4.09;4.217;2;9;21.7;0;21.7000007629395;36.21;1527.39261;01/30/21;12:21:06;21.76;54.62;36.21;1.214;8.54;-89.7;-3.8;-6.5;-1378;92.3;6.56;12.7;;
25.9123603817518;-80.1374977105313;12:42:14.41;1/30/2021;8;2.062;144;-7.05683271228189;1.28;140.9;131.93;0.79;4.87;21.7;.01;4.07;4.08;88;39;478.6;15.9;-2.4;D;797.2;3;11.790;2;2.02;175;126.99;-80.13740356;25.91229659;0;0;1;N;1.906591;62;62;11;91;91;122.8309;0;9999.99;4.08;4.207;2;9;21.7;0;21.7000007629395;36.23;1527.41493;01/30/21;12:21:08;21.76;54.64;36.23;1.194;8.47;-85.6;-2.3;-5.3;-3148;92.2;6.56;12.7;;
25.9123529599294;-80.1374906664171;12:42:15.41;1/30/2021;7;2.026;140.66;-7.05683271228189;1.29;138.9;130.06;0.64;4.66;21.7;.00;4.09;4.10;88;39;478.6;15.9;-2.4;D;798.7;3;10.732;2;2.03;175;125.73;-80.13740356;25.91229659;0;0;1;N;1.972045;61;61;11;96;96;122.3901;0;9999.99;4.10;4.227;2;9;21.7;0;21.7000007629395;36.23;1527.41493;01/30/21;12:21:08;21.76;54.64;36.23;1.194;8.47;-85.6;-2.3;-5.3;-3148;92.2;6.56;12.7;;
25.9123460017835;-80.1374834614157;12:42:16.41;1/30/2021;8;2.123;137.96;-7.05683271228189;1.29;136.9;128.19;0.93;3.52;21.6;.00;4.11;4.11;88;39;478.6;15.9;-2.4;D;798.7;3;9.698;2;2.08;175;124.51;-80.13740356;25.91229659;0;0;1;N;1.988869;63;63;11;102;102;122.2758;0;9999.99;4.11;4.237;2;9;21.7;0;21.7000007629395;36.22;1527.40319;01/30/21;12:21:09;21.76;54.62;36.22;1.195;8.48;-86.5;-3.6;-5.0;-3334;92.2;6.56;12.7;;
25.9123391515603;-80.1374757210213;12:42:17.41;1/30/2021;8;2.045;134.5;-7.05683271228189;1.29;136.1;127.44;0.65;4.75;21.7;.00;4.11;4.11;88;39;478.6;15.9;-2.4;D;798.7;3;8.631;2;2.08;175;123.25;-80.13740356;25.91229659;0;0;1;N;1.959915;62;62;11;107;107;122.4716;0;9999.99;4.11;4.237;2;9;21.7;0;21.7000007629395;36.19;1527.37008;01/30/21;12:21:11;21.75;54.59;36.19;1.184;8.46;-85.3;-3.5;-3.4;-4093;92.1;6.55;12.7;;
25.9123324682504;-80.1374671157574;12:42:18.41;1/30/2021;8;2.014;132.59;-7.05683271228189;1.29;135;126.42;0.8;4.28;21.6;.01;4.10;4.11;88;39;478.6;15.9;-2.4;D;798.7;3;7.505;2;2.05;175;122.11;-80.13740356;25.91229659;0;0;1;N;1.852905;62;62;11;114;114;123.1969;0;9999.99;4.11;4.237;2;9;21.7;0;21.7000007629395;36.17;1527.34821;01/30/21;12:21:12;21.75;54.56;36.17;1.199;8.48;-86.3;-4.0;-4.1;-5067;92.0;6.55;12.7;;
25.9123273887005;-80.1374617207634;12:42:19.41;1/30/2021;8;2.028;131.72;-7.05683271228189;1.29;134.9;126.32;0.62;3.95;21.6;.00;4.13;4.13;88;38;478.5;15.9;-2.4;D;817;3;6.751;2;2.01;175;120.49;-80.13740356;25.91229659;0;0;1;N;1.850716;61;61;11;115;115;123.2127;0;9999.99;4.13;4.257;2;9;21.7;0;21.7000007629395;36.16;1527.33725;01/30/21;12:21:13;21.74;54.55;36.16;1.206;8.49;-87.1;-4.2;-3.8;-2716;92.0;6.55;12.5;;
25.9123196868867;-80.137452511539;12:42:20.42;1/30/2021;8;2.045;131.18;-7.05683271228189;1.29;134.5;125.95;0.76;3.62;21.7;.00;4.12;4.13;88;38;478.5;15.9;-2.4;D;817;3;5.529;2;2;175;117.68;-80.13740356;25.91229659;0;0;1;N;1.780146;62;62;11;118;118;123.6934;0;9999.99;4.13;4.257;2;9;21.7;0;21.7000007629395;36.16;1527.33725;01/30/21;12:21:13;21.74;54.55;36.16;1.206;8.49;-87.1;-4.2;-3.8;-2716;92.0;6.55;12.5;;
25.9123130170659;-80.1374448280582;12:42:21.42;1/30/2021;8;2.021;131.26;-7.05683271228189;1.29;134.8;126.23;0.56;3.88;21.6;.00;4.13;4.14;88;38;478.5;15.9;-2.4;D;817;3;4.513;2;2.01;175;113.87;-80.13740356;25.91229659;0;0;1;N;1.738763;60;60;11;118;118;123.9757;0;9999.99;4.14;4.267;2;9;21.7;0;21.7000007629395;36.16;1527.33675;01/30/21;12:21:14;21.74;54.55;36.16;1.196;8.51;-88.2;-4.4;-3.8;-3038;92.0;6.55;12.7;;
25.9123061974029;-80.1374366804272;12:42:22.44;1/30/2021;8;2.06;131.29;-7.05683271228189;1.29;137.9;129.12;-0.23;11.5;21.6;.01;4.13;4.14;88;38;478.5;15.9;-2.3;D;832.3;4;12.268;2;2.02;175;173.42;-80.13742262;25.91219659;0;0;1;N;3.545654;56;56;11;250;250;167.4162;0;9999.99;4.14;4.267;2;9;21.7;0;21.7000007629395;36.18;1527.35918;01/30/21;12:21:15;21.75;54.57;36.18;1.204;8.47;-85.8;-3.4;-0.5;-1672;92.1;6.55;12.7;;
25.9122994637788;-80.1374292006763;12:42:23.47;1/30/2021;8;1.9;129.51;-7.05683271228189;1.29;145.1;135.88;1.28;-2.35;21.6;.00;4.19;4.19;88;38;478.5;15.9;-2.3;D;832.3;4;11.458;2;1.98;175;176.71;-80.13742262;25.91219659;0;0;1;N;2.684481;65;65;11;250;250;171.2019;0;9999.99;4.19;4.317;2;9;21.7;0;21.7000007629395;36.15;1527.32583;01/30/21;12:21:17;21.75;54.53;36.15;1.202;8.53;-89.0;-3.5;-5.1;-2951;92.0;6.55;12.7;;
25.9122928048535;-80.1374226814986;12:42:24.47;1/30/2021;8;1.822;132.15;-7.05683271228189;1.29;152.6;142.99;3.11;4.44;21.6;.01;4.13;4.14;88;38;478.5;15.9;-2.3;D;832.3;4;10.698;2;1.87;175;179.97;-80.13742262;25.91219659;0;0;1;N;1.901161;76;76;11;250;250;176.3624;0;9999.99;4.15;4.277;2;9;21.7;0;21.7000007629395;36.15;1527.32583;01/30/21;12:21:17;21.75;54.53;36.15;1.202;8.53;-89.0;-3.5;-5.1;-2951;92.0;6.55;12.7;;
25.9122862625462;-80.1374183431667;12:42:25.47;1/30/2021;8;1.782;134.38;-7.05683271228189;1.29;163.3;153.29;3.34;2.32;21.7;.02;4.13;4.15;88;38;478.5;15.9;-2.3;D;832.3;4;9.980;2;1.8;175;182.46;-80.13742262;25.91219659;0;0;1;N;1.324349;76;76;11;241;241;180.3304;0;9999.99;4.16;4.287;2;9;21.7;0;21.7000007629395;36.16;1527.33762;01/30/21;12:21:18;21.74;54.54;36.16;1.177;8.46;-85.3;-3.9;-3.9;-3278;92.0;6.55;12.7;;
25.9122798709733;-80.1374146104978;12:42:26.48;1/30/2021;8;1.693;139.23;-7.05683271228189;1.29;171.6;161.41;3.83;4.1;21.6;.01;4.15;4.16;88;39;478.5;15.9;-2.4;D;807.9;4;9.295;2;1.73;175;184.94;-80.13742262;25.91219659;0;0;1;N;0.8196185;80;80;11;217;217;183.8786;0;9999.99;4.18;4.307;2;9;21.7;0;21.7000007629395;36.15;1527.32677;01/30/21;12:21:20;21.73;54.53;36.15;1.147;8.53;-89.4;-3.8;0.4;-1952;91.9;6.55;12.7;;
25.9122725029551;-80.1374118332789;12:42:27.50;1/30/2021;8;1.647;150.45;-7.05683271228189;1.29;181.1;170.87;3.49;1.75;21.7;.01;4.16;4.17;88;39;478.5;15.9;-2.4;D;807.9;4;8.510;2;1.69;176;187.28;-80.13742262;25.91219659;0;0;1;N;0.3959763;78;78;11;191;191;186.8944;0;9999.99;4.19;4.317;2;9;21.7;0;21.7000007629395;36.15;1527.3268;01/30/21;12:21:21;21.73;54.53;36.15;1.144;8.45;-84.7;-4.3;-5.0;-1854;91.9;6.55;12.5;;
25.9122638600979;-80.1374106794203;12:42:28.53;1/30/2021;8;1.635;161.77;-7.05683271228189;1.29;189.6;179.46;2.93;2.36;21.7;.01;4.15;4.16;88;39;478.5;15.9;-2.4;D;807.9;4;7.575;2;1.67;176;189.07;-80.13742262;25.91219659;0;0;1;N;0.103505;75;75;11;165;165;188.9868;0;9999.99;4.18;4.307;2;9;21.7;0;21.7000007629395;36.15;1527.32652;01/30/21;12:21:22;21.73;54.54;36.15;1.151;8.50;-87.4;-3.6;-1.4;-3533;91.9;6.55;12.7;;
25.9122571295369;-80.1374109995431;12:42:29.53;1/30/2021;8;1.703;167.48;-7.05683271228189;1.29;194;183.96;2;0.76;21.6;.01;4.18;4.19;88;39;478.4;15.9;-2.4;D;802.4;4;6.831;2;1.66;176;189.8;-80.13742262;25.91219659;0;0;1;N;1.124906E-03;69;69;11;150;150;189.7362;0;9999.99;4.21;4.337;2;9;21.7;0;21.7000007629395;36.15;1527.32648;01/30/21;12:21:23;21.73;54.53;36.15;1.158;8.52;-88.6;-4.2;-5.2;-1319;91.9;6.54;12.7;;
25.9122466527559;-80.1374124929241;12:42:30.53;1/30/2021;8;1.818;174.75;-7.05683271228189;1.29;196.4;186.42;1.24;2.38;21.6;.01;4.19;4.20;88;39;478.4;15.9;-2.4;D;802.4;5;14.823;2;1.73;176;156.75;-80.13735399;25.91212417;0;0;1;N;5.376264E-02;64;64;11;73;73;172.8596;0;9999.99;4.21;4.337;2;9;21.7;0;21.7000007629395;36.16;1527.33706;01/30/21;12:21:24;21.73;54.55;36.16;1.169;8.44;-83.9;-4.3;-0.8;-693;91.9;6.54;12.7;;
25.9122382436192;-80.1374143196468;12:42:31.53;1/30/2021;8;1.838;182.98;-7.05683271228189;1.29;195.8;185.8;0.69;-5.98;21.7;.00;4.20;4.20;88;39;478.4;15.9;-2.4;D;802.4;5;14.046;2;1.78;177;154.56;-80.13735399;25.91212417;0;0;1;N;3.721503;61;61;11;18;18;159.8386;0;9999.99;4.21;4.337;2;9;21.7;0;21.7000007629395;36.16;1527.3366;01/30/21;12:21:25;21.73;54.55;36.16;1.165;8.46;-85.3;-3.7;-3.9;-3851;91.8;6.54;12.6;;
25.9122292817205;-80.137416124977;12:42:32.53;1/30/2021;8;1.916;189.85;-7.05683271228189;1.29;189.6;179.46;0.92;6.3;21.7;.00;4.18;4.19;88;39;478.4;15.9;-2.4;D;802.4;5;13.238;2;1.8;177;152;-80.13735399;25.91212417;0;0;1;N;2.917616;63;63;11;35;35;156.5076;0;9999.99;4.19;4.317;2;9;21.7;0;21.7000007629395;36.16;1527.33656;01/30/21;12:21:26;21.73;54.55;36.16;1.210;8.47;-85.9;-3.2;-2.4;-3021;91.8;6.54;12.8;;
25.9122199551429;-80.1374179061329;12:42:33.53;1/30/2021;8;1.951;190.54;-7.05683271228189;1.29;183.5;173.28;1.87;3.47;21.7;.01;4.18;4.18;88;42;478.4;15.9;-2.6;D;744.1;5;12.422;2;1.85;177;149.03;-80.13735399;25.91212417;0;0;1;N;2.104579;68;68;11;40;40;151.4842;0;9999.99;4.19;4.317;2;9;21.7;0;21.7000007629395;36.21;1527.39237;01/30/21;12:21:27;21.73;54.61;36.21;1.169;8.44;-84.0;-3.6;-5.6;-3194;91.8;6.53;12.7;;
25.9122104623505;-80.1374181736048;12:42:34.55;1/30/2021;8;1.927;187.01;-7.05683271228189;1.29;175.3;165.08;2.12;6;21.7;.01;4.17;4.18;88;42;478.4;15.9;-2.6;D;744.1;5;11.545;2;1.83;177;146.22;-80.13735399;25.91212417;0;0;1;N;1.391225;70;70;11;60;60;148.2325;0;9999.99;4.19;4.317;2;9;21.7;0;21.7000007629395;36.22;1527.40344;01/30/21;12:21:28;21.73;54.63;36.22;1.165;8.46;-84.9;-3.3;-2.7;-2035;91.8;6.53;12.7;;
25.9122020489231;-80.1374168282315;12:42:35.55;1/30/2021;8;1.959;181.25;-7.05683271228189;1.29;167.7;157.58;2.28;5.93;21.6;.01;4.16;4.16;88;42;478.4;15.9;-2.6;D;744.1;5;10.700;2;1.88;177;144.03;-80.13735399;25.91212417;0;0;1;N;0.8713864;71;71;11;79;79;145.6075;0;9999.99;4.18;4.307;2;9;21.7;0;21.7000007629395;36.23;1527.41458;01/30/21;12:21:29;21.74;54.64;36.23;1.165;8.47;-85.9;-4.0;-4.6;-662;91.8;6.53;12.6;;
25.9121937801505;-80.137414977598;12:42:36.55;1/30/2021;8;1.991;176.9;-7.05683271228189;1.29;162.8;152.8;2.09;7.12;21.7;.00;4.13;4.13;88;40;478.4;15.9;-2.5;D;788.6;5;9.855;2;1.89;177;141.76;-80.13735399;25.91212417;0;0;1;N;0.4023265;70;70;11;86;86;142.4347;0;9999.99;4.15;4.277;2;9;21.7;0;21.7000007629395;36.22;1527.40348;01/30/21;12:21:30;21.75;54.63;36.22;1.144;8.49;-86.8;-3.4;-2.6;-1357;91.7;6.53;12.8;;
25.9121813679685;-80.137412250271;12:42:37.55;1/30/2021;8;1.973;168.83;-7.05683271228189;1.29;158.1;148.26;1.87;5.49;21.6;.01;4.18;4.19;88;40;478.4;15.9;-2.5;D;788.6;5;8.626;2;1.92;177;137.51;-80.13735399;25.91212417;0;0;1;N;0.293865;68;68;11;84;84;137.4523;0;9999.99;4.20;4.327;2;9;21.7;0;21.7000007629395;36.22;1527.40352;01/30/21;12:21:31;21.75;54.63;36.22;1.174;8.52;-88.4;-2.8;-3.6;-938;91.7;6.52;12.8;;
25.9121713037305;-80.137408282263;12:42:38.55;1/30/2021;8;2.053;161.45;-7.05683271228189;1.29;155.1;145.38;1.28;3.52;21.7;.00;4.17;4.17;88;40;478.4;15.9;-2.5;D;788.6;5;7.547;2;1.99;177;133.98;-80.13735399;25.91212417;0;0;1;N;0.719277;66;66;11;85;85;134.4188;0;9999.99;4.18;4.307;2;9;21.7;0;21.7000007629395;36.22;1527.40344;01/30/21;12:21:32;21.76;54.63;36.22;1.173;8.46;-85.4;-3.8;-4.8;-2774;91.6;6.52;12.8;;
25.9121616564712;-80.1374022679736;12:42:39.56;1/30/2021;8;2.023;156.41;-7.05683271228189;1.29;151.5;141.95;1.42;4.26;21.7;.00;4.16;4.16;88;40;478.4;15.9;-2.5;D;788.6;5;6.380;2;1.97;177;130.8;-80.13735399;25.91212417;0;0;1;N;0.9648339;66;66;11;90;90;132.6792;0;9999.99;4.17;4.297;2;9;21.7;0;21.7000007629395;36.23;1527.41447;01/30/21;12:21:33;21.76;54.64;36.23;1.197;8.49;-87.1;-3.6;-5.1;-1927;91.6;6.52;12.6;;
25.9121530766053;-80.1373960115146;12:42:40.58;1/30/2021;8;2.033;153.09;-7.05683271228189;1.29;149.6;140.14;0.76;4.31;21.7;.01;4.19;4.20;88;41;478.4;15.9;-2.5;D;772;5;5.291;2;1.99;177;127.41;-80.13735399;25.91212417;0;0;1;N;1.113568;62;62;11;93;93;131.6331;0;9999.99;4.20;4.327;2;9;21.7;0;21.7000007629395;36.23;1527.41469;01/30/21;12:21:34;21.76;54.64;36.23;1.183;8.52;-88.7;-3.8;-2.4;-3155;91.6;6.52;12.7;;
25.9121450653514;-80.1373899319508;12:42:41.58;1/30/2021;8;2.058;149.43;-7.05683271228189;1.29;147.8;138.43;0.83;3.9;21.7;.00;4.18;4.19;88;41;478.4;15.9;-2.5;D;772;6;24.620;2;2;177;141.23;-80.13723579;25.91197244;0;0;1;N;1.62556;62;62;11;124;124;137.7143;0;9999.99;4.19;4.317;2;9;21.7;0;21.7000007629395;36.23;1527.41437;01/30/21;12:21:35;21.76;54.64;36.23;1.217;8.46;-85.1;-4.0;-3.0;-3746;91.6;6.52;12.7;;
25.9121363797474;-80.1373829343765;12:42:42.58;1/30/2021;8;2.093;147.04;-7.05683271228189;1.29;147.7;138.34;0.21;5.31;21.7;.00;4.18;4.18;88;41;478.4;15.9;-2.5;D;772;6;23.429;2;2.03;177;141.09;-80.13723579;25.91197244;0;0;1;N;1.606205;58;58;11;122;122;136.9678;0;9999.99;4.18;4.307;2;9;21.7;0;21.7000007629395;36.22;1527.40317;01/30/21;12:21:36;21.76;54.63;36.22;1.205;8.50;-87.4;-4.9;-0.7;-1318;91.6;6.52;12.7;;
25.9121298693729;-80.1373770860426;12:42:43.59;1/30/2021;8;2.089;143.17;-7.05683271228189;1.29;148.6;139.19;0.26;2.81;21.7;.01;4.19;4.19;88;40;478.3;15.9;-2.5;D;777.3;6;22.498;2;2.07;177;141.09;-80.13723579;25.91197244;0;0;1;N;1.541001;59;59;11;116;116;136.4951;0;9999.99;4.19;4.317;2;9;21.7;0;21.7000007629395;36.21;1527.3924;01/30/21;12:21:37;21.76;54.62;36.21;1.209;8.53;-89.4;-4.1;-3.9;-4917;91.6;6.52;12.7;;
25.9121216919695;-80.1373699317617;12:42:44.59;1/30/2021;8;2.085;143.81;-7.05683271228189;1.29;148.4;139;0.78;2.7;21.7;.00;4.19;4.19;88;40;478.3;15.9;-2.5;D;777.3;6;21.341;2;2.06;177;141.05;-80.13723579;25.91197244;0;0;1;N;1.477851;62;62;11;114;114;135.6299;0;9999.99;4.19;4.317;2;9;21.7;0;21.7000007629395;36.24;1527.42536;01/30/21;12:21:38;21.76;54.65;36.24;1.195;8.44;-84.1;-3.6;-3.1;-5368;91.6;6.51;12.7;;
25.9121131211724;-80.1373627986753;12:42:45.61;1/30/2021;8;2.072;143.57;-7.05683271228189;1.29;148.9;139.48;0.77;2.85;21.7;.01;4.21;4.21;88;40;478.3;15.9;-2.5;D;777.3;6;20.151;2;2.03;177;140.92;-80.13723579;25.91197244;0;0;1;N;1.441486;62;62;11;108;108;134.7596;0;9999.99;4.21;4.337;2;9;21.7;0;21.7000007629395;36.23;1527.41429;01/30/21;12:21:39;21.75;54.64;36.23;1.188;8.46;-85.1;-3.0;-4.3;-1929;91.6;6.52;12.6;;
25.9121052083862;-80.1373566428237;12:42:46.61;1/30/2021;8;2.042;143.97;-7.05683271228189;1.29;149.2;139.76;0.32;3.29;21.6;.01;4.22;4.23;88;40;478.3;15.9;-2.5;D;777.3;6;19.080;2;2.05;177;140.69;-80.13723579;25.91197244;0;0;1;N;1.441096;59;59;11;107;107;134.7706;0;9999.99;4.23;4.357;2;9;21.7;0;21.7000007629395;36.22;1527.40346;01/30/21;12:21:40;21.76;54.63;36.22;1.195;8.48;-86.2;-4.3;-4.9;-997;91.6;6.52;12.8;;
25.9120975653132;-80.1373504214504;12:42:47.63;1/30/2021;8;2.071;144.22;-7.05683271228189;1.29;149.6;140.14;0.43;3.01;21.7;.00;4.23;4.23;88;40;478.3;15.9;-2.5;D;778.8;6;18.029;2;2.05;177;140.51;-80.13723579;25.91197244;0;0;1;N;1.416954;60;60;11;106;106;134.9377;0;9999.99;4.23;4.357;2;9;21.7;0;21.7000007629395;36.23;1527.41437;01/30/21;12:21:41;21.76;54.64;36.23;1.208;8.43;-83.5;-4.2;0.3;-4019;91.6;6.51;12.7;;
25.9120892116174;-80.1373442238504;12:42:48.66;1/30/2021;8;2.105;145.42;-7.05683271228189;1.29;149.7;140.23;0.56;2.77;21.6;.00;4.23;4.23;88;40;478.3;15.9;-2.5;D;778.8;6;16.918;2;2.04;177;140.13;-80.13723579;25.91197244;0;0;1;N;1.443394;60;60;11;105;105;134.7537;0;9999.99;4.23;4.357;2;9;21.8;0;21.7000007629395;36.21;1527.39218;01/30/21;12:21:42;21.76;54.61;36.21;1.212;8.45;-84.6;-3.6;-3.7;-1958;91.5;6.51;12.6;;
25.9120820643334;-80.1373390950925;12:42:49.66;1/30/2021;8;2.06;145.85;-7.05683271228189;1.29;149.7;140.23;0.47;3.14;21.6;.01;4.21;4.21;88;40;478.3;15.9;-2.5;D;778.8;6;15.979;2;2.05;177;139.71;-80.13723579;25.91197244;0;0;1;N;1.479048;60;60;11;104;104;134.5066;0;9999.99;4.21;4.337;2;9;21.8;0;21.7999992370605;36.23;1527.67652;01/30/21;12:21:43;21.75;54.64;36.23;1.208;8.47;-85.8;-4.0;-0.8;-3192;91.4;6.50;12.7;;
25.9120734755861;-80.1373323587254;12:42:50.66;1/30/2021;8;2.082;145.27;-7.05683271228189;1.29;149.9;140.42;0.64;2.94;21.7;.01;4.22;4.22;88;40;478.3;15.9;-2.5;D;787.4;6;14.815;2;2.05;177;139.31;-80.13723579;25.91197244;0;0;1;N;1.474963;61;61;11;103;103;134.535;0;9999.99;4.22;4.347;2;9;21.7;0;21.7000007629395;36.23;1527.4146;01/30/21;12:21:44;21.75;54.65;36.23;1.201;8.49;-86.8;-3.9;-1.6;-1835;91.4;6.50;12.7;;
25.9120658541245;-80.1373260060835;12:42:51.66;1/30/2021;8;2.094;144.87;-7.05683271228189;1.29;150;140.52;0.46;2.92;21.7;.01;4.25;4.25;88;40;478.3;15.9;-2.5;D;787.4;6;13.759;2;2.05;177;139.02;-80.13723579;25.91197244;0;0;1;N;1.439381;61;61;11;103;103;134.7815;0;9999.99;4.25;4.377;2;9;21.8;0;21.7000007629395;36.21;1527.39239;01/30/21;12:21:45;21.76;54.62;36.21;1.201;8.51;-88.1;-4.7;-7.1;-3361;91.3;6.50;12.7;;
25.9120575733134;-80.1373190680702;12:42:52.66;1/30/2021;8;2.134;145.86;-7.05683271228189;1.29;148.5;139.1;0.57;3.66;21.7;.00;4.28;4.29;88;40;478.3;15.9;-2.5;D;787.4;6;12.609;2;2.06;177;138.66;-80.13723579;25.91197244;0;0;1;N;1.406682;60;60;11;111;111;135.0085;0;9999.99;4.29;4.417;2;9;21.8;0;21.7999992370605;36.22;1527.66517;01/30/21;12:21:46;21.76;54.62;36.22;1.208;8.46;-85.1;-3.1;0.8;-3013;91.4;6.50;12.7;;
25.9120500653583;-80.1373138064817;12:42:53.66;1/30/2021;8;2.075;146.09;-7.05683271228189;1.29;148.5;139.1;0.57;3.55;21.6;.01;4.29;4.30;88;40;478.3;15.9;-2.5;D;787.4;6;11.636;2;2.07;177;137.89;-80.13723579;25.91197244;0;0;1;N;1.452069;60;60;11;109;109;134.6936;0;9999.99;4.30;4.427;2;9;21.7;0;21.7000007629395;36.2;1527.38132;01/30/21;12:21:47;21.75;54.61;36.20;1.221;8.49;-86.9;-3.9;-0.9;-2939;91.4;6.50;12.6;;
25.9120427649134;-80.1373080669135;12:42:54.66;1/30/2021;8;2.083;145.5;-7.05683271228189;1.29;148.7;139.29;0.59;3.23;21.6;.01;4.31;4.31;88;40;478.2;15.9;-2.5;D;784.8;6;10.649;2;2.06;177;137.25;-80.13723579;25.91197244;0;0;1;N;1.444395;61;61;11;109;109;134.7464;0;9999.99;4.31;4.437;2;9;21.7;0;21.7000007629395;36.21;1527.3925;01/30/21;12:21:48;21.75;54.62;36.21;1.205;8.52;-88.6;-2.0;-2.7;-2362;91.3;6.50;12.7;;
25.9120351732805;-80.1373019238056;12:42:55.66;1/30/2021;8;2.156;144.17;-7.05683271228189;1.29;148.3;138.91;0.67;3.62;21.7;.01;4.27;4.28;88;40;478.2;15.9;-2.5;D;784.8;6;9.613;2;2.08;177;136.52;-80.13723579;25.91197244;0;0;1;N;1.424126;60;60;11;111;111;134.8876;0;9999.99;4.28;4.407;2;9;21.8;0;21.7999992370605;36.21;1527.65463;01/30/21;12:21:49;21.75;54.62;36.21;1.222;8.45;-84.6;-4.5;-1.7;-3225;91.3;6.50;12.6;;
25.9120276626065;-80.1372952355429;12:42:56.66;1/30/2021;7;2.159;144.13;-7.05683271228189;1.29;148.1;138.72;0.85;3.37;21.7;.00;4.27;4.28;88;40;478.2;15.9;-2.5;D;784.8;6;8.547;2;2.09;177;135.92;-80.13723579;25.91197244;0;0;1;N;1.359743;62;62;11;114;114;135.3345;0;9999.99;4.28;4.407;2;9;21.7;0;21.7000007629395;36.22;1527.40338;01/30/21;12:21:50;21.75;54.63;36.22;1.218;8.50;-87.2;-4.4;-7.1;-1736;91.3;6.50;12.6;;
25.9120188685088;-80.1372879705505;12:42:57.66;1/30/2021;8;2.118;144.52;-7.05683271228189;1.29;149;139.57;0.63;3.12;21.7;.00;4.28;4.29;88;39;478.2;15.9;-2.4;D;797.4;6;7.341;2;2.06;177;134.69;-80.13723579;25.91197244;0;0;1;N;1.326855;61;61;11;111;111;135.5637;0;9999.99;4.29;4.417;2;9;21.8;0;21.7999992370605;36.21;1527.65426;01/30/21;12:21:51;21.76;54.62;36.21;1.215;8.53;-89.2;-3.5;-8.1;-3199;91.4;6.50;12.7;;
25.9120108623354;-80.1372810953016;12:42:58.66;1/30/2021;8;2.185;143.8;-7.05683271228189;1.29;148.3;138.91;0.42;3.92;21.7;.00;4.32;4.33;88;39;478.2;15.9;-2.4;D;797.4;6;6.228;2;2.12;177;133.32;-80.13723579;25.91197244;0;0;1;N;1.271294;60;60;11;115;115;135.9515;0;9999.99;4.33;4.457;2;9;21.8;0;21.7999992370605;36.21;1527.65424;01/30/21;12:21:52;21.76;54.62;36.21;1.199;8.44;-84.1;-3.2;-0.3;-1874;91.4;6.50;12.7;;
25.9120031127649;-80.1372747556105;12:42:59.66;1/30/2021;8;2.109;143.65;-7.05683271228189;1.29;148.6;139.19;0.78;3.27;21.7;.00;4.32;4.33;88;39;478.2;15.9;-2.4;D;797.4;7;16.968;2;2.15;177;151.51;-80.13719384;25.91186899;0;0;1;N;2.540538;60;60;11;160;160;147.8677;0;9999.99;4.33;4.457;2;9;21.8;0;21.7999992370605;36.21;1527.65425;01/30/21;12:21:53;21.76;54.61;36.21;1.208;8.45;-84.8;-2.9;-0.9;-1556;91.4;6.50;12.6;;
25.9119949511783;-80.137268020402;12:43:00.66;1/30/2021;8;2.131;143.64;-7.05683271228189;1.29;150.9;141.37;0.61;5.58;21.8;.00;4.38;4.38;88;39;478.2;15.9;-2.4;D;797.4;7;15.850;2;2.14;177;152.09;-80.13719384;25.91186899;0;0;1;N;2.213344;61;61;11;155;155;148.476;0;9999.99;4.38;4.507;2;9;21.8;0;21.7999992370605;36.21;1527.65406;01/30/21;12:21:54;21.76;54.61;36.21;1.204;8.48;-86.0;-3.3;-4.0;-4017;91.4;6.50;12.7;;
25.9119874220124;-80.137262275815;12:43:01.66;1/30/2021;8;2.049;143.52;-7.05683271228189;1.29;152.9;143.28;0.47;3.16;21.7;.00;4.40;4.40;88;40;478.2;15.9;-2.5;D;791.6;7;14.842;2;2.11;177;152.54;-80.13719384;25.91186899;0;0;1;N;1.950986;60;60;11;150;150;148.9523;0;9999.99;4.41;4.537;2;9;21.7;0;21.7000007629395;36.23;1527.4141;01/30/21;12:21:55;21.75;54.64;36.23;1.189;8.43;-83.4;-4.5;-5.0;-2640;91.3;6.50;12.7;;
25.911979115092;-80.1372564136085;12:43:02.66;1/30/2021;8;2.035;145.11;-7.05683271228189;1.29;155.2;145.48;0.65;4.44;21.7;.00;4.37;4.38;88;40;478.2;15.9;-2.5;D;791.6;7;13.752;2;2.07;177;152.93;-80.13719384;25.91186899;0;0;1;N;1.712774;61;61;11;142;142;149.3519;0;9999.99;4.38;4.507;2;9;21.8;0;21.7000007629395;36.22;1527.403;01/30/21;12:21:56;21.75;54.63;36.22;1.189;8.45;-84.6;-4.3;-2.7;-1586;91.3;6.50;12.7;;
25.9119703685799;-80.137250346249;12:43:03.67;1/30/2021;8;2.031;146.34;-7.05683271228189;1.29;157.5;147.68;0.53;3.38;21.7;.01;4.38;4.39;88;40;478.2;15.9;-2.5;D;791.6;7;12.610;2;2.06;177;153.37;-80.13719384;25.91186899;0;0;1;N;1.476215;60;60;11;137;137;150.0981;0;9999.99;4.39;4.517;2;9;21.8;0;21.7999992370605;36.22;1527.66538;01/30/21;12:21:57;21.76;54.63;36.22;1.213;8.47;-85.6;-3.9;-0.4;-3088;91.3;6.50;12.6;;
25.9119632206449;-80.1372462820158;12:43:04.67;1/30/2021;8;2.021;148.84;-7.05683271228189;1.29;159.2;149.32;0.57;3.76;21.7;.00;4.36;4.37;88;40;478.2;15.9;-2.5;D;791.6;7;11.718;2;2.02;177;153.41;-80.13719384;25.91186899;0;0;1;N;1.363269;60;60;11;131;131;150.2878;0;9999.99;4.37;4.497;2;9;21.8;0;21.7999992370605;36.22;1527.66528;01/30/21;12:21:58;21.76;54.63;36.22;1.199;8.49;-86.6;-3.8;-5.9;-3316;91.3;6.50;12.8;;
25.9119545539804;-80.1372417652559;12:43:05.69;1/30/2021;8;2.047;151.04;-7.05683271228189;1.29;160.3;150.38;0.74;3.06;21.7;.01;4.37;4.39;88;39;478.1;15.9;-2.4;D;806.9;7;10.654;2;1.98;177;153.26;-80.13719384;25.91186899;0;0;1;N;1.262555;61;61;11;129;129;150.9918;0;9999.99;4.38;4.507;2;9;21.8;0;21.7999992370605;36.22;1527.6654;01/30/21;12:21:59;21.76;54.62;36.22;1.209;8.50;-87.6;-4.1;-2.8;-3134;91.3;6.49;12.6;;
25.9119442781453;-80.1372363079706;12:43:06.72;1/30/2021;8;2.082;153.06;-7.05683271228189;1.29;161.9;151.93;0.5;3.48;21.7;.01;4.39;4.40;88;39;478.1;15.9;-2.4;D;806.9;7;9.388;2;2.05;177;153.1;-80.13719384;25.91186899;0;0;1;N;1.139358;60;60;11;127;127;151.8547;0;9999.99;4.40;4.527;2;9;21.8;0;21.7999992370605;36.21;1527.65464;01/30/21;12:22:00;21.76;54.62;36.21;1.205;8.46;-85.3;-4.8;-2.8;-2055;91.3;6.49;12.8;;
25.9119355405007;-80.137232269962;12:43:07.72;1/30/2021;8;2.074;154.51;-7.05683271228189;1.29;162.9;152.9;0.31;2.68;21.7;.01;4.37;4.38;88;39;478.1;15.9;-2.4;D;806.9;7;8.339;2;2.06;177;152.55;-80.13719384;25.91186899;0;0;1;N;1.091477;59;59;11;124;124;152.1913;0;9999.99;4.38;4.507;2;9;21.8;0;21.7999992370605;36.22;1527.6654;01/30/21;12:22:01;21.77;54.63;36.22;1.204;8.48;-86.6;-3.6;-4.2;-1461;91.2;6.49;12.5;;
25.9119271754952;-80.1372284432671;12:43:08.73;1/30/2021;8;2.054;155.05;-7.05683271228189;1.29;163.7;153.68;0.58;3.1;21.7;.01;4.40;4.40;88;42;478.1;15.9;-2.6;D;752.8;7;7.337;2;2.07;177;151.86;-80.13719384;25.91186899;0;0;1;N;1.047045;60;60;11;122;122;152.5041;0;9999.99;4.40;4.527;2;9;21.8;0;21.7999992370605;36.22;1527.66538;01/30/21;12:22:02;21.77;54.63;36.22;1.216;8.52;-88.5;-4.1;-7.6;-667;91.2;6.49;12.8;;
25.911918272871;-80.1372246752979;12:43:09.75;1/30/2021;8;2.072;156.9;-7.05683271228189;1.29;164.6;154.55;0.23;3.18;21.7;.01;4.38;4.39;88;42;478.1;15.9;-2.6;D;752.8;7;6.287;2;2.07;177;150.63;-80.13719384;25.91186899;0;0;1;N;1.030259;58;58;11;119;119;152.6225;0;9999.99;4.39;4.517;2;9;21.8;0;21.7999992370605;36.23;1527.67661;01/30/21;12:22:03;21.77;54.64;36.23;1.205;8.46;-84.9;-2.8;-5.7;-3821;91.2;6.49;12.7;;
25.9119095929493;-80.1372207878824;12:43:10.77;1/30/2021;8;2.078;157.94;-7.05683271228189;1.29;165.4;155.33;0.4;2.72;21.7;.01;4.40;4.40;88;42;478.1;15.9;-2.6;D;752.8;7;5.258;2;2.12;177;149.16;-80.13719384;25.91186899;0;0;1;N;0.9975485;59;59;11;117;117;152.8525;0;9999.99;4.40;4.527;2;9;21.8;0;21.7999992370605;36.21;1527.65438;01/30/21;12:22:04;21.77;54.62;36.21;1.215;8.49;-87.0;-2.9;-4.8;-4141;91.1;6.48;12.8;;
25.9119003496402;-80.13721714728;12:43:11.78;1/30/2021;8;2.065;159.21;-7.05683271228189;1.29;165.5;155.43;0.48;3.18;21.7;.01;4.43;4.43;88;42;478.1;15.9;-2.6;D;752.8;7;4.194;2;2.08;177;146.24;-80.13719384;25.91186899;0;0;1;N;1.004813;60;60;11;113;113;152.8031;0;9999.99;4.43;4.557;2;9;21.8;0;21.7999992370605;36.21;1527.65452;01/30/21;12:22:05;21.77;54.61;36.21;1.205;8.52;-88.9;-3.2;-4.7;-1341;91.2;6.49;12.5;;
25.9118910207447;-80.1372137028982;12:43:12.78;1/30/2021;8;2.108;159.01;-7.05683271228189;1.29;166.6;156.51;0.54;2.2;21.7;.01;4.39;4.40;88;42;478.1;15.9;-2.6;D;741.3;8;14.564;2;2.1;177;151.53;-80.13714428;25.91177589;0;0;1;N;0.7299982;60;60;11;103;103;150.3908;0;9999.99;4.40;4.527;2;9;21.8;0;21.7999992370605;36.23;1527.67665;01/30/21;12:22:06;21.77;54.64;36.23;1.211;8.44;-84.2;-3.6;-0.4;-1846;91.1;6.48;12.8;;
25.9118827063586;-80.1372105126228;12:43:13.78;1/30/2021;8;2.051;159.34;-7.05683271228189;1.29;166.4;156.31;0.58;2.52;21.8;.00;4.41;4.42;88;42;478.1;15.9;-2.6;D;741.3;8;13.600;2;2.07;177;150.85;-80.13714428;25.91177589;0;0;1;N;0.8413442;60;60;11;99;99;149.4039;0;9999.99;4.42;4.547;2;9;21.8;0;21.7999992370605;36.21;1527.65437;01/30/21;12:22:07;21.77;54.61;36.21;1.215;8.45;-84.8;-3.2;-2.0;-2250;91.2;6.49;12.7;;
25.9118737152426;-80.1372071794368;12:43:14.78;1/30/2021;8;2.089;160.9;-7.05683271228189;1.29;167;156.9;0.27;2.7;21.8;.00;4.41;4.41;88;42;478.1;15.9;-2.6;D;741.3;8;12.566;2;2.07;177;149.96;-80.13714428;25.91177589;0;0;1;N;0.9713903;59;59;11;93;93;148.4966;0;9999.99;4.41;4.537;2;9;21.8;0;21.7999992370605;36.22;1527.66526;01/30/21;12:22:08;21.77;54.63;36.22;1.202;8.47;-85.8;-3.6;-5.8;-3221;91.1;6.48;12.7;;
25.9118645824284;-80.1372037921821;12:43:15.78;1/30/2021;7;2.101;161.43;-7.05683271228189;1.29;165.3;155.24;0.68;3.28;21.7;.01;4.44;4.44;88;40;478.0;15.9;-2.5;D;786.6;8;11.519;2;2.07;177;148.89;-80.13714428;25.91177589;0;0;1;N;1.109383;61;61;11;94;94;146.643;0;9999.99;4.44;4.567;2;9;21.8;0;21.7999992370605;36.22;1527.66522;01/30/21;12:22:09;21.76;54.63;36.22;1.215;8.43;-83.3;-4.4;-2.8;-1722;91.2;6.49;12.6;;
25.9118555366712;-80.1372003012184;12:43:16.78;1/30/2021;8;2.039;161.14;-7.05683271228189;1.29;164.6;154.55;0.72;2.67;21.7;.00;4.43;4.44;88;40;478.0;15.9;-2.5;D;786.6;8;10.480;2;2.09;177;147.68;-80.13714428;25.91177589;0;0;1;N;1.22966;61;61;11;93;93;145.6748;0;9999.99;4.44;4.567;2;9;21.8;0;21.7999992370605;36.21;1527.65427;01/30/21;12:22:10;21.76;54.61;36.21;1.202;8.45;-84.5;-4.2;-2.9;-946;91.1;6.48;12.7;;
25.9118457794515;-80.1371961470247;12:43:17.78;1/30/2021;8;2.104;159.97;-7.05683271228189;1.29;164.2;154.16;0.46;2.73;21.7;.01;4.44;4.45;88;40;478.0;15.9;-2.5;D;786.6;8;9.344;2;2.08;177;146.28;-80.13714428;25.91177589;0;0;1;N;1.324387;60;60;11;90;90;145.0154;0;9999.99;4.45;4.577;2;9;21.8;0;21.7999992370605;36.23;1527.67649;01/30/21;12:22:11;21.76;54.64;36.23;1.214;8.47;-85.6;-3.2;-0.1;-4072;91.0;6.47;12.7;;
25.9118372547726;-80.1371923856757;12:43:18.78;1/30/2021;8;2.118;159.59;-7.05683271228189;1.29;162.1;152.13;0.9;4.19;21.8;.00;4.42;4.42;88;40;478.0;15.9;-2.5;D;786.6;8;8.350;2;2.08;177;144.81;-80.13714428;25.91177589;0;0;1;N;1.398939;62;62;11;96;96;144.4962;0;9999.99;4.42;4.547;2;9;21.8;0;21.7999992370605;36.25;1527.6987;01/30/21;12:22:12;21.76;54.67;36.25;1.199;8.48;-86.4;-4.1;-7.2;-2062;91.0;6.47;12.8;;
25.9118289825221;-80.1371888600732;12:43:19.78;1/30/2021;8;2.107;159.72;-7.05683271228189;1.29;160.5;150.58;0.85;3.46;21.7;.00;4.42;4.43;88;41;478.0;15.9;-2.5;D;773.7;8;7.398;2;2.07;177;142.94;-80.13714428;25.91177589;0;0;1;N;1.48082;60;60;11;100;100;143.9277;0;9999.99;4.43;4.557;2;9;21.8;0;21.7999992370605;36.23;1527.67622;01/30/21;12:22:13;21.77;54.65;36.23;1.206;8.46;-85.2;-3.6;-8.8;-790;91.0;6.47;12.6;;
25.9118198405822;-80.1371847251065;12:43:20.78;1/30/2021;8;2.098;158.82;-7.05683271228189;1.29;160.1;150.19;0.6;3.84;21.7;.00;4.41;4.42;88;41;478.0;15.9;-2.5;D;773.7;8;6.344;2;2.07;177;140.38;-80.13714428;25.91177589;0;0;1;N;1.547302;61;61;11;100;100;143.4672;0;9999.99;4.42;4.547;2;9;21.8;0;21.7999992370605;36.23;1527.67642;01/30/21;12:22:14;21.78;54.64;36.23;1.209;8.46;-85.3;-2.7;-3.0;-2355;91.0;6.47;12.7;;
25.9118110340912;-80.1371803891821;12:43:21.78;1/30/2021;8;2.126;156.88;-7.05683271228189;1.29;158.6;148.74;0.7;3.92;21.7;.01;4.41;4.42;88;41;478.0;15.9;-2.5;D;773.7;8;5.321;2;2.08;177;137.26;-80.13714428;25.91177589;0;0;1;N;1.584331;61;61;11;105;105;143.2119;0;9999.99;4.42;4.547;2;9;21.8;0;21.7999992370605;36.25;1527.69852;01/30/21;12:22:15;21.78;54.67;36.25;1.206;8.48;-86.5;-2.8;-3.1;-3904;91.1;6.48;12.7;;
25.9118023333333;-80.1371768333333;12:43:22.78;1/30/2021;8;2.091;154.56;-7.05683271228189;1.29;158.3;148.45;0.84;3.45;21.7;.01;4.44;4.45;88;42;478.0;15.9;-2.6;D;747.2;8;4.309;2;2.12;177;133.04;-80.13714428;25.91177589;0;0;1;N;1.585422;62;62;11;106;106;143.205;0;9999.99;4.45;4.577;2;9;21.8;0;21.7999992370605;36.24;1527.68763;01/30/21;12:22:16;21.78;54.66;36.24;1.207;8.51;-88.0;-3.7;-5.0;-2063;91.0;6.47;12.8;;
25.9117938311881;-80.1371709256211;12:43:23.78;1/30/2021;8;2.091;154.56;-7.05683271228189;1.29;159.9;150;0.15;9.5;21.7;.00;4.42;4.42;88;42;478.0;15.9;-2.6;D;747.2;9;14.212;2;2.13;177;167.62;-80.13714046;25.91166899;0;0;1;N;2.65857;59;59;11;181;181;162.7296;0;9999.99;4.43;4.557;2;9;21.8;0;21.7999992370605;36.23;1527.67611;01/30/21;12:22:17;21.78;54.65;36.23;1.217;8.45;-84.4;-2.8;-4.6;-2151;91.0;6.47;12.5;;
25.9117848553876;-80.1371665742155;12:43:24.78;1/30/2021;8;2.071;153.97;-7.05683271228189;1.29;163.3;153.29;0.78;0.51;21.7;.00;4.48;4.48;88;42;478.0;15.9;-2.6;D;747.2;9;13.146;2;2.12;177;168.54;-80.13714046;25.91166899;0;0;1;N;2.257536;62;62;11;169;169;163.846;0;9999.99;4.48;4.607;2;9;21.8;0;21.7999992370605;36.23;1527.67608;01/30/21;12:22:18;21.77;54.65;36.23;1.207;8.49;-86.7;-3.6;-3.7;-1487;90.9;6.46;12.7;;
25.9117763434731;-80.1371627518599;12:43:25.78;1/30/2021;8;1.968;152.9;-7.05683271228189;1.29;167.3;157.19;1.12;4.72;21.7;.00;4.47;4.47;88;42;478.0;15.9;-2.6;D;747.2;9;12.144;2;2.08;177;169.42;-80.13714046;25.91166899;0;0;1;N;1.895218;64;64;11;159;159;165.2707;0;9999.99;4.48;4.607;2;9;21.8;0;21.7999992370605;36.24;1527.68718;01/30/21;12:22:19;21.77;54.65;36.24;1.203;8.52;-88.6;-3.4;-4.5;-3112;90.8;6.46;12.6;;
25.9117678652129;-80.1371594349879;12:43:26.78;1/30/2021;8;2.018;154.66;-7.05683271228189;1.29;169.3;159.15;1.1;3.02;21.7;.01;4.44;4.45;88;33;477.9;14.2;-2.3;D;836.7;9;11.157;2;2.03;177;170.21;-80.13714046;25.91166899;0;0;1;N;1.582273;64;64;11;158;158;166.9721;0;9999.99;4.45;4.577;2;9;21.8;0;21.7999992370605;36.24;1527.68757;01/30/21;12:22:20;21.76;54.65;36.24;1.204;8.44;-84.2;-3.0;-7.4;-2319;90.8;6.46;12.7;;
25.9117584922885;-80.1371564204564;12:43:27.78;1/30/2021;8;2.026;158.22;-7.05683271228189;1.29;172.2;162.01;1.3;5.12;21.7;.00;4.43;4.43;88;33;477.9;14.2;-2.3;D;836.7;9;10.079;2;2.03;177;170.89;-80.13714046;25.91166899;0;0;1;N;1.310021;65;65;11;156;156;168.8586;0;9999.99;4.44;4.567;2;9;21.8;0;21.7999992370605;36.26;1527.70961;01/30/21;12:22:21;21.75;54.68;36.26;1.190;8.45;-84.5;-2.9;-4.1;-4706;90.8;6.46;12.6;;
25.9117482084311;-80.1371535788457;12:43:28.80;1/30/2021;8;1.999;161.53;-7.05683271228189;1.29;175.7;165.47;1.22;3.43;21.7;.00;4.47;4.47;88;33;477.9;14.2;-2.3;D;836.7;9;8.906;2;2.02;177;171.53;-80.13714046;25.91166899;0;0;1;N;1.060316;64;64;11;148;148;170.6089;0;9999.99;4.48;4.607;2;9;21.8;0;21.7999992370605;36.26;1527.70957;01/30/21;12:22:22;21.73;54.68;36.26;1.187;8.48;-86.4;-3.6;-2.3;61;90.8;6.47;12.6;;
25.9117386666667;-80.1371523333333;12:43:29.80;1/30/2021;8;1.987;167.37;-7.05683271228189;1.29;177.4;167.17;1.13;4.34;21.8;.00;4.47;4.47;88;38;477.9;15.9;-2.3;D;829.8;9;8.002;2;2;177;171.71;-80.13714046;25.91166899;0;0;1;N;0.9214593;64;64;11;145;145;171.5885;0;9999.99;4.48;4.607;2;9;21.8;0;21.7999992370605;36.34;1527.79802;01/30/21;12:22:23;21.73;54.79;36.34;1.177;8.43;-83.4;-3.9;-2.8;-2385;90.9;6.47;12.7;;
25.911729;-80.1371508333333;12:43:30.80;1/30/2021;8;1.99;168.87;-7.05683271228189;1.29;180.1;169.87;1.26;4.56;21.7;.00;4.47;4.47;88;38;477.9;15.9;-2.3;D;829.8;9;6.762;2;1.99;177;171.79;-80.13714046;25.91166899;0;0;1;N;0.7681953;65;65;11;140;140;172.6745;0;9999.99;4.48;4.607;2;9;21.8;0;21.7999992370605;36.34;1527.79807;01/30/21;12:22:25;21.77;54.79;36.34;1.189;8.47;-85.6;-2.7;-3.0;-2769;91.0;6.47;12.7;;
25.9117196666667;-80.1371496666667;12:43:31.81;1/30/2021;8;2.01;172.67;-7.05683271228189;1.29;181.5;171.27;0.96;4.63;21.7;.00;4.45;4.45;88;40;477.9;15.9;-2.5;D;793.3;10;27.360;2;2.01;177;187.79;-80.13718622;25.91147589;0;0;1;N;0.7038025;63;63;11;170;170;182.0392;0;9999.99;4.46;4.587;2;9;21.8;0;21.7999992370605;36.34;1527.79807;01/30/21;12:22:25;21.77;54.79;36.34;1.189;8.47;-85.6;-2.7;-3.0;-2769;91.0;6.47;12.7;;
25.9117103333333;-80.1371493333334;12:43:32.83;1/30/2021;8;1.97;174.78;-7.05683271228189;1.29;184.1;173.89;0.92;7.55;21.8;.00;4.45;4.45;88;40;477.9;15.9;-2.5;D;793.3;10;26.359;2;2;177;188.29;-80.13718622;25.91147589;0;0;1;N;1.761158;63;63;11;169;169;184.5079;0;9999.99;4.46;4.587;2;9;21.8;0;21.7999992370605;36.34;1527.79801;01/30/21;12:22:26;21.78;54.79;36.34;1.192;8.44;-83.7;-3.1;-2.1;-2841;90.9;6.46;12.7;;
25.9117011666667;-80.1371491666667;12:43:33.84;1/30/2021;8;1.956;176.26;-7.05683271228189;1.29;187.7;177.53;0.94;3.24;21.8;.01;4.48;4.49;88;40;477.9;15.9;-2.5;D;793.3;10;25.320;2;2;177;188.54;-80.13718622;25.91147589;0;0;1;N;1.571181;63;63;11;156;156;184.6563;0;9999.99;4.49;4.617;2;9;21.8;0;21.7999992370605;36.33;1527.78703;01/30/21;12:22:27;21.78;54.77;36.33;1.192;8.45;-84.6;-3.6;-6.9;-4344;90.9;6.46;12.7;;
