Latitude;Longitude;Time;Date;Number of Sats;GPS Speed (Kn);GPS True Heading;GPS Magnetic Variation;HDOP;C Magnetic Heading;C True Heading;Pitch Angle;Roll Angle;C Inside Temp (c);DFS Depth (m);DTB Height (m);Total Water Column (m);Batt Percent;Power Watts;Watt-Hours;Batt Volts;Batt Ampers;Batt State;Time to Empty;Current Step;Dist To Next (m);Next Speed (kn);Vehicle Speed (kn);Motor Speed CMD;Next Heading;Next Long;Next Lat;Next Depth (m);Depth Goal (m);Vehicle State;Error State;Distance to Track (m);Fin Pitch R;Fin Pitch L;Pitch Goal;Fin Yaw T;Fin Yaw B;Yaw Goal;Fin Roll;DVL-Depth (m);DVL -Altitude (m);DVL -Water Column (m);DVL-FixType;DVL-FixQuality;DVL-Temperature;Conductivity (mmhos/cm);Temperature (c);Salinity (ppt);Sound Speed (m/s);Date m/d/y   ;Time hh:mm:ss;Temp C;SpCond mS/cm;Sal ppt;Depth feet;pH;pH mV;Turbid+ NTU;Chl ug/L;BGA-PC cells/mL;ODOsat %;ODO mg/L;Battery volts;ROSEM Command Type;
25.9127533333333;-80.1379033333333;13:13:40.58;1/30/2021;7;0.36;308.84;-7.05677528663452;1.6;137.4;128.66;1.31;-4.18;22.8;.00;2.44;2.44;84;20;452.3;15.8;-1.2;D;1466.6;0;7.275;2;0.16;128;91.38;-80.13783061;25.91275176;0;0;1;N;5.156208;65;65;11;5;5;326.9082;0;9999.99;2.45;2.577;0;0;22.2;0;22.2000007629395;36.17;1528.65055;01/30/21;12:52:36;21.86;54.57;36.17;1.107;8.46;-85.2;-3.6;-4.3;-2091;89.6;6.37;13.2;;
25.9127531215833;-80.1379035088401;13:13:41.61;1/30/2021;7;0.136;308.84;-7.05677528663452;1.6;137.5;128.75;0.59;-3.58;22.8;.00;2.43;2.44;84;20;452.3;15.8;-1.2;D;1466.6;1;41.394;2;0.03;174;126.62;-80.13757133;25.91253107;0;0;1;N;4.401013;61;61;11;73;73;115.2831;0;9999.99;2.44;2.567;2;9;22.2;0;22.2000007629395;36.17;1528.65023;01/30/21;12:52:38;21.86;54.56;36.17;1.181;8.46;-85.1;-1.7;-0.3;-3470;89.5;6.36;13.3;;
25.912751324425;-80.1379036628458;13:13:42.63;1/30/2021;7;0.303;308.84;-7.05677528663452;1.6;134.6;126.04;2.96;1.22;22.8;.01;2.43;2.44;84;21;452.3;15.8;-1.3;D;1376.5;1;41.287;2;0.02;174;126.38;-80.13757133;25.91253107;0;0;1;N;5.058059;73;73;11;83;83;115.3687;0;9999.99;2.45;2.577;0;0;22.2;0;22.2000007629395;36.17;1528.65023;01/30/21;12:52:38;21.86;54.56;36.17;1.181;8.46;-85.1;-1.7;-0.3;-3470;89.5;6.36;13.3;;
25.9127532558295;-80.1379010603296;13:13:43.63;1/30/2021;8;0.712;308.84;-7.05677528663452;1.28;136;127.35;1.93;-0.66;22.7;.01;2.46;2.48;84;21;452.3;15.8;-1.3;D;1376.5;1;41.206;2;0.21;174;126.84;-80.13757133;25.91253107;0;0;1;N;5.050025;69;69;11;83;83;116.2818;0;9999.99;2.48;2.607;2;9;22.2;0;22.2000007629395;36.19;1528.6734;01/30/21;12:52:39;21.86;54.59;36.19;1.099;8.45;-84.8;-4.4;-8.4;-2130;89.5;6.36;13.2;;
25.9127464730844;-80.1378970673364;13:13:44.63;1/30/2021;9;1.032;179.8;-7.05677528663452;1.28;137.1;128.38;1.07;0.69;22.8;.02;2.59;2.61;84;21;452.3;15.8;-1.3;D;1376.5;1;40.436;2;0.53;174;126.32;-80.13757133;25.91253107;0;0;1;N;4.716296;63;63;11;72;72;114.5082;0;9999.99;2.60;2.727;2;9;22.2;0;22.2000007629395;36.16;1528.64058;01/30/21;12:52:41;21.86;54.55;36.16;1.184;8.47;-85.7;-2.9;-4.5;-3235;89.5;6.36;13.1;;
25.9127425551157;-80.1378929606013;13:13:45.63;1/30/2021;9;1.159;179.8;-7.05677528663452;1.28;137.1;128.38;1.64;-1.16;22.7;.01;2.77;2.78;84;21;452.3;15.8;-1.3;D;1376.5;1;39.847;2;0.86;174;126.17;-80.13757133;25.91253107;0;0;1;N;4.979093;69;69;11;65;65;113.2076;0;9999.99;2.79;2.917;2;9;22.2;0;22.2000007629395;36.16;1528.64058;01/30/21;12:52:41;21.86;54.55;36.16;1.184;8.47;-85.7;-2.9;-4.5;-3235;89.5;6.36;13.1;;
25.9127381127297;-80.1378859933829;13:13:46.64;1/30/2021;9;1.54;159.22;-7.05677528663452;1.08;135.5;126.88;1.08;-1.63;22.7;.01;2.85;2.85;84;38;452.3;15.8;-2.4;D;765.7;1;38.993;2;1.14;174;126.19;-80.13757133;25.91253107;0;0;1;N;4.91577;63;63;11;67;67;111.919;0;9999.99;2.85;2.977;2;9;22.2;0;22.2000007629395;36.18;1528.66161;01/30/21;12:52:42;21.85;54.58;36.18;1.188;8.51;-87.9;-3.8;-9.1;-3397;89.5;6.36;13.3;;
25.9127296645506;-80.137877345109;13:13:47.67;1/30/2021;8;2.036;148.45;-7.05677528663452;1.08;131.8;123.44;0.89;3.11;22.7;.01;2.70;2.71;84;38;452.3;15.8;-2.4;D;765.7;1;37.741;2;1.37;174;125.81;-80.13757133;25.91253107;0;0;1;N;5.011355;61;61;11;63;63;108.3076;0;9999.99;2.71;2.837;2;9;22.2;0;22.2000007629395;36.19;1528.67259;01/30/21;12:52:44;21.86;54.59;36.19;1.212;8.51;-87.9;-4.1;-4.8;-1882;89.5;6.36;13.3;;
25.912723767124;-80.1378709439284;13:13:48.67;1/30/2021;9;1.975;133.2;-7.05677528663452;1.08;128.9;120.75;0.59;1.35;22.7;.01;2.53;2.54;84;38;452.3;15.8;-2.4;D;765.7;1;36.839;2;1.55;174;125.57;-80.13757133;25.91253107;0;0;1;N;5.056978;61;61;11;64;64;105.0156;0;9999.99;2.54;2.667;2;9;22.2;0;22.2000007629395;36.19;1528.67243;01/30/21;12:52:45;21.87;54.59;36.19;1.121;8.46;-85.2;-2.5;-1.2;-3131;89.7;6.37;13.1;;
25.912720569561;-80.1378642364663;13:13:49.67;1/30/2021;9;1.89;128.35;-7.05677528663452;1.08;126.3;118.34;1.86;3.98;22.7;.01;2.53;2.54;84;38;452.2;15.8;-2.4;D;766.3;1;36.086;2;1.66;174;125.73;-80.13757133;25.91253107;0;0;1;N;4.855687;68;68;11;65;65;102.8445;0;9999.99;2.55;2.677;2;9;22.2;0;22.2000007629395;36.19;1528.67243;01/30/21;12:52:45;21.87;54.59;36.19;1.121;8.46;-85.2;-2.5;-1.2;-3131;89.7;6.37;13.1;;
25.9127156875591;-80.1378561595793;13:13:50.67;1/30/2021;9;1.908;124.81;-7.05677528663452;1.08;124.4;116.58;1.16;3.27;22.7;.01;2.64;2.64;84;38;452.2;15.8;-2.4;D;766.3;1;35.114;2;1.74;174;125.78;-80.13757133;25.91253107;0;0;1;N;4.703038;64;64;11;73;73;102.9545;0;9999.99;2.65;2.777;2;9;22.2;0;22.2000007629395;36.19;1528.67277;01/30/21;12:52:46;21.87;54.59;36.19;1.162;8.46;-85.2;-3.9;-6.1;-1667;89.8;6.37;13.3;;
25.9127114535544;-80.1378464631476;13:13:51.75;1/30/2021;9;1.878;123.36;-7.05677528663452;1.08;120.1;112.6;1.29;3.65;22.7;.01;2.86;2.87;84;38;452.2;15.8;-2.4;D;766.3;1;34.052;2;1.75;174;126.09;-80.13757133;25.91253107;0;0;1;N;4.533624;65;65;11;91;91;103.8716;0;9999.99;2.87;2.997;2;9;22.2;0;22.2000007629395;36.17;1528.65069;01/30/21;12:52:48;21.87;54.56;36.17;1.189;8.47;-85.6;-3.8;-8.0;-2921;89.8;6.38;13.3;;
25.9127081526526;-80.137842128623;13:13:52.75;1/30/2021;9;1.646;123.36;-7.05677528663452;0.95;117.6;110.29;1.57;1.23;22.7;.01;2.89;2.90;84;38;452.2;15.8;-2.4;D;766.3;1;33.486;2;1.78;174;126.02;-80.13757133;25.91253107;0;0;1;N;4.375972;66;66;11;105;105;104.7382;0;9999.99;2.90;3.027;2;9;22.2;0;22.2000007629395;36.17;1528.65069;01/30/21;12:52:48;21.87;54.56;36.17;1.189;8.47;-85.6;-3.8;-8.0;-2921;89.8;6.38;13.3;;
25.912703663025;-80.1378327388263;13:13:53.78;1/30/2021;9;1.91;121.07;-7.05677528663452;0.95;116.1;108.9;1.4;3.49;22.7;.01;3.14;3.15;84;37;452.2;15.8;-2.3;D;790.7;1;32.433;2;1.79;174;126.28;-80.13757133;25.91253107;0;0;1;N;4.091417;65;65;11;117;117;106.3322;0;9999.99;3.15;3.277;2;9;22.2;0;22.2000007629395;36.18;1528.6617;01/30/21;12:52:49;21.86;54.58;36.18;1.191;8.51;-88.2;-3.5;-4.4;-3108;89.7;6.37;13.1;;
25.9126988628843;-80.1378236929807;13:13:54.78;1/30/2021;9;1.905;114.47;-7.05677528663452;0.95;115.5;108.34;1.41;2.94;22.8;.01;3.20;3.20;84;37;452.2;15.8;-2.3;D;790.7;1;31.388;2;1.8;175;126.47;-80.13757133;25.91253107;0;0;1;N;3.849747;65;65;11;125;125;107.7213;0;9999.99;3.21;3.337;2;9;22.2;0;22.2000007629395;36.18;1528.66191;01/30/21;12:52:50;21.86;54.57;36.18;1.219;8.46;-85.1;-2.7;-3.4;-1306;89.8;6.38;13.2;;
25.9126941731563;-80.1378134811458;13:13:55.78;1/30/2021;9;1.886;112.49;-7.05677528663452;0.95;115;107.88;1.91;2.03;22.8;.00;3.32;3.33;84;37;452.2;15.8;-2.3;D;790.7;1;30.257;2;1.83;175;126.83;-80.13757133;25.91253107;0;0;1;N;3.523695;68;68;11;134;134;109.648;0;9999.99;3.34;3.467;2;9;22.2;0;22.2000007629395;36.17;1528.65038;01/30/21;12:52:51;21.86;54.56;36.17;1.171;8.52;-88.6;-2.6;-7.9;-2326;89.7;6.37;13.3;;
25.9126894890727;-80.1378029267001;13:13:56.78;1/30/2021;9;1.935;112.2;-7.05677528663452;0.95;115.7;108.53;1.32;2.66;22.8;.01;3.37;3.38;84;38;452.2;15.8;-2.4;D;774.3;1;29.101;2;1.86;175;127.25;-80.13757133;25.91253107;0;0;1;N;3.171165;65;65;11;140;140;111.7959;0;9999.99;3.38;3.507;2;9;22.2;0;22.2000007629395;36.16;1528.63951;01/30/21;12:52:52;21.86;54.56;36.16;1.171;8.46;-85.0;-2.8;-6.1;-3383;89.7;6.38;13.3;;
25.9126854200707;-80.1377932312564;13:13:57.78;1/30/2021;9;1.98;112.5;-7.05677528663452;0.95;116.8;109.55;1.72;1.57;22.8;.01;3.44;3.44;84;38;452.2;15.8;-2.4;D;774.3;1;28.056;2;1.94;175;127.72;-80.13757133;25.91253107;0;0;1;N;2.834059;67;67;11;144;144;113.9119;0;9999.99;3.45;3.577;2;9;22.2;0;22.2000007629395;36.18;1528.66162;01/30/21;12:52:54;21.86;54.57;36.18;1.147;8.50;-87.6;-2.3;-4.1;-1452;89.7;6.37;13.2;;
25.9126824202452;-80.1377838673598;13:13:58.80;1/30/2021;9;1.994;108.83;-7.05677528663452;0.95;117.7;110.38;1.34;1.8;22.8;.01;3.50;3.51;84;38;452.2;15.8;-2.4;D;774.3;1;27.113;2;1.9;175;128.37;-80.13757133;25.91253107;0;0;1;N;2.435754;65;65;11;151;151;116.4856;0;9999.99;3.52;3.647;2;9;22.2;0;22.2000007629395;36.18;1528.66161;01/30/21;12:52:55;21.86;54.58;36.18;1.164;8.47;-85.4;-3.9;-2.1;-746;89.7;6.37;13.3;;
25.9126779513342;-80.137772409089;13:13:59.80;1/30/2021;9;2.032;108.86;-7.05677528663452;0.95;119.7;112.23;1.43;2.28;22.8;.01;3.53;3.54;84;38;452.2;15.8;-2.4;D;774.3;1;25.908;2;1.91;175;129.08;-80.13757133;25.91253107;0;0;1;N;2.005506;63;63;11;154;154;119.3462;0;9999.99;3.54;3.667;2;9;22.2;0;22.2000007629395;36.18;1528.66172;01/30/21;12:52:56;21.86;54.57;36.18;1.152;8.46;-85.4;-3.0;-4.7;-3254;89.8;6.38;13.2;;
25.912674509983;-80.1377623694296;13:14:00.80;1/30/2021;9;1.984;107.85;-7.05677528663452;0.95;121.7;114.08;0.83;1.43;22.8;.00;3.57;3.57;84;38;452.2;15.8;-2.4;D;766.7;1;24.889;2;1.92;175;129.85;-80.13757133;25.91253107;0;0;1;N;1.584089;63;63;11;160;160;122.2193;0;9999.99;3.58;3.707;2;9;22.2;0;22.2000007629395;36.18;1528.6616;01/30/21;12:52:57;21.86;54.58;36.18;1.163;8.45;-84.5;-3.5;-3.8;-4612;89.8;6.38;13.1;;
25.9126694073531;-80.137753097689;13:14:01.80;1/30/2021;9;1.921;112.14;-7.05677528663452;0.95;124.2;116.39;1;1.09;22.8;.01;3.59;3.60;84;38;452.2;15.8;-2.4;D;766.7;1;23.814;2;1.91;175;130.24;-80.13757133;25.91253107;0;0;1;N;1.354918;63;63;11;157;157;123.8069;0;9999.99;3.60;3.727;2;9;22.2;0;22.2000007629395;36.18;1528.6616;01/30/21;12:52:57;21.86;54.58;36.18;1.163;8.45;-84.5;-3.5;-3.8;-4612;89.8;6.38;13.1;;
25.9126648414077;-80.1377433320122;13:14:02.80;1/30/2021;9;1.921;113.67;-7.05677528663452;0.95;126.5;118.52;1.79;2.38;22.8;.01;3.62;3.62;84;38;452.2;15.8;-2.4;D;766.7;1;22.742;2;1.93;175;130.85;-80.13757133;25.91253107;0;0;1;N;1.055475;68;68;11;157;157;125.9037;0;9999.99;3.63;3.757;2;9;22.2;0;22.2000007629395;36.18;1528.66176;01/30/21;12:52:58;21.86;54.58;36.18;1.180;8.47;-85.7;-3.4;-0.2;-4514;89.8;6.38;13.2;;
25.9126603662731;-80.1377344260757;13:14:03.80;1/30/2021;9;1.976;114.99;-7.05677528663452;0.95;129;120.84;1.71;1.16;22.8;.00;3.63;3.63;84;37;452.2;15.8;-2.3;D;792.2;1;21.744;2;1.92;175;131.39;-80.13757133;25.91253107;0;0;1;N;0.7988039;68;68;11;156;156;127.7175;0;9999.99;3.65;3.777;2;9;22.2;0;22.2000007629395;36.17;1528.65031;01/30/21;12:53:00;21.87;54.56;36.17;1.170;8.45;-84.5;-3.1;-8.7;-4204;89.9;6.38;13.3;;
25.9126554271449;-80.1377259236777;13:14:04.80;1/30/2021;9;1.89;116.52;-7.05677528663452;0.95;132;123.62;1.67;1.48;22.8;.00;3.66;3.66;84;37;452.2;15.8;-2.3;D;792.2;1;20.743;2;1.88;175;131.81;-80.13757133;25.91253107;0;0;1;N;0.6018863;67;67;11;149;149;129.117;0;9999.99;3.67;3.797;2;9;22.2;0;22.2000007629395;36.17;1528.65031;01/30/21;12:53:00;21.87;54.56;36.17;1.170;8.45;-84.5;-3.1;-8.7;-4204;89.9;6.38;13.3;;
25.9126517393459;-80.1377201697899;13:14:05.80;1/30/2021;9;1.913;121.42;-7.05677528663452;0.95;134.3;125.77;1.81;1.97;22.8;.00;3.68;3.68;84;37;452.2;15.8;-2.3;D;792.2;1;20.041;2;1.9;175;132.03;-80.13757133;25.91253107;0;0;1;N;0.5034614;68;68;11;145;145;129.8185;0;9999.99;3.69;3.817;2;9;22.2;0;22.2000007629395;36.18;1528.66134;01/30/21;12:53:01;21.87;54.57;36.18;1.164;8.47;-85.9;-2.5;-1.4;-3873;90.0;6.39;13.1;;
25.9126458466803;-80.1377127560006;13:14:06.80;1/30/2021;9;1.943;125.02;-7.05677528663452;0.95;136.1;127.44;1.75;1.31;22.8;.00;3.68;3.69;84;37;452.2;15.8;-2.3;D;792.2;1;19.052;2;1.87;175;132.06;-80.13757133;25.91253107;0;0;1;N;0.4646647;67;67;11;138;138;130.0954;0;9999.99;3.70;3.827;2;9;22.2;0;22.2000007629395;36.19;1528.67266;01/30/21;12:53:03;21.87;54.59;36.19;1.181;8.45;-84.8;-3.0;-6.4;-1715;90.1;6.40;13.2;;
25.9126392685832;-80.1377047107947;13:14:07.80;1/30/2021;9;1.937;125.3;-7.05677528663452;0.95;138.5;129.69;1.21;1.55;22.7;.00;3.70;3.70;84;37;452.1;15.8;-2.3;D;793.7;1;17.964;2;1.85;175;132.05;-80.13757133;25.91253107;0;0;1;N;0.4394157;64;64;11;129;129;130.2757;0;9999.99;3.71;3.837;2;9;22.2;0;22.2000007629395;36.19;1528.67266;01/30/21;12:53:03;21.87;54.59;36.19;1.181;8.45;-84.8;-3.0;-6.4;-1715;90.1;6.40;13.2;;
25.9126315502396;-80.137695671094;13:14:08.80;1/30/2021;9;1.989;128.4;-7.05677528663452;0.95;139.4;130.53;1.74;1.21;22.7;.00;3.65;3.66;84;37;452.1;15.8;-2.3;D;793.7;1;16.718;2;1.84;175;131.94;-80.13757133;25.91253107;0;0;1;N;0.4393763;67;67;11;126;126;130.2759;0;9999.99;3.67;3.797;2;9;22.2;0;22.2000007629395;36.19;1528.67254;01/30/21;12:53:05;21.88;54.59;36.19;1.146;8.52;-88.5;-3.5;-1.0;-2734;90.2;6.40;13.1;;
25.9126264547899;-80.1376908999852;13:14:09.81;1/30/2021;9;1.892;131.23;-7.05677528663452;0.95;140.1;131.18;1.71;2.34;22.8;.00;3.72;3.73;84;37;452.1;15.8;-2.3;D;793.7;1;15.985;2;1.82;175;131.57;-80.13757133;25.91253107;0;0;1;N;0.5210605;66;66;11;122;122;129.693;0;9999.99;3.74;3.867;2;9;22.2;0;22.2000007629395;36.2;1528.68342;01/30/21;12:53:06;21.87;54.61;36.20;1.163;8.46;-85.1;-3.2;-5.1;-2678;90.2;6.41;13.2;;
25.912619916043;-80.1376837205317;13:14:10.81;1/30/2021;9;1.992;133.34;-7.05677528663452;0.95;140.8;131.84;1.32;1.81;22.7;.01;3.73;3.73;84;38;452.1;15.8;-2.4;D;775.7;1;14.965;2;1.85;175;131.31;-80.13757133;25.91253107;0;0;1;N;0.55449;66;66;11;119;119;129.4547;0;9999.99;3.74;3.867;2;9;22.2;0;22.2000007629395;36.2;1528.68342;01/30/21;12:53:06;21.87;54.61;36.20;1.163;8.46;-85.1;-3.2;-5.1;-2678;90.2;6.41;13.2;;
25.9126127576948;-80.1376774560328;13:14:11.81;1/30/2021;9;1.865;135.62;-7.05677528663452;0.95;141;132.03;1.27;2.67;22.7;.00;3.74;3.74;84;38;452.1;15.8;-2.4;D;775.7;1;13.970;2;1.88;175;130.56;-80.13757133;25.91253107;0;0;1;N;0.700753;65;65;11;113;113;128.4136;0;9999.99;3.75;3.877;2;9;22.2;0;22.2000007629395;36.18;1528.66163;01/30/21;12:53:07;21.87;54.57;36.18;1.160;8.53;-89.1;-1.5;-3.3;-2452;90.2;6.41;13.2;;
25.9126075695504;-80.1376692571783;13:14:12.81;1/30/2021;9;1.924;130.69;-7.05677528663452;0.95;140.5;131.56;1.24;1.36;22.7;.00;3.75;3.75;84;38;452.1;15.8;-2.4;D;775.7;1;12.973;2;1.91;175;130.97;-80.13757133;25.91253107;0;0;1;N;0.5570916;64;64;11;119;119;129.4362;0;9999.99;3.76;3.887;2;9;22.2;0;22.2000007629395;36.21;1528.69443;01/30/21;12:53:09;21.87;54.61;36.21;1.194;8.46;-85.2;-3.7;-5.3;-2161;90.3;6.41;13.0;;
25.9126007926356;-80.1376614163839;13:14:13.83;1/30/2021;9;1.993;133.54;-7.05677528663452;0.95;141.3;132.31;0.81;2.2;22.7;.01;3.76;3.77;84;38;452.1;15.8;-2.4;D;775.7;1;11.887;2;1.91;175;130.71;-80.13757133;25.91253107;0;0;1;N;0.5650872;62;62;11;115;115;129.3791;0;9999.99;3.77;3.897;2;9;22.2;0;22.2000007629395;36.21;1528.69443;01/30/21;12:53:09;21.87;54.61;36.21;1.194;8.46;-85.2;-3.7;-5.3;-2161;90.3;6.41;13.0;;
25.9125941687849;-80.1376541745389;13:14:14.83;1/30/2021;9;2.008;134.26;-7.05677528663452;0.95;140.6;131.65;0.89;2.46;22.7;.00;3.77;3.77;84;38;452.1;15.8;-2.4;D;777.9;1;10.857;2;1.92;175;130.26;-80.13757133;25.91253107;0;0;1;N;0.6065591;64;64;11;119;119;129.0838;0;9999.99;3.78;3.907;2;9;22.2;0;22.2000007629395;36.18;1528.66157;01/30/21;12:53:10;21.87;54.58;36.18;1.204;8.52;-88.8;-2.7;-6.3;-2328;90.3;6.41;13.3;;
25.9125875707436;-80.1376471832821;13:14:15.83;1/30/2021;10;2.104;134.34;-7.05677528663452;0.95;140.4;131.46;0.98;3.71;22.8;.00;3.77;3.77;84;38;452.1;15.8;-2.4;D;777.9;1;9.850;2;1.94;175;129.63;-80.13757133;25.91253107;0;0;1;N;0.6561482;62;62;11;116;116;128.7307;0;9999.99;3.78;3.907;2;9;22.2;0;22.2000007629395;36.18;1528.66135;01/30/21;12:53:12;21.87;54.58;36.18;1.164;8.46;-85.3;-3.3;-9.2;-1980;90.4;6.42;13.3;;
25.9125808065534;-80.1376394937241;13:14:16.83;1/30/2021;10;2.065;132.57;-7.05677528663452;0.95;140.5;131.56;1.02;1.81;22.7;.01;3.77;3.78;84;38;452.1;15.8;-2.4;D;777.9;1;8.779;2;1.94;175;129.05;-80.13757133;25.91253107;0;0;1;N;0.6752167;63;63;11;115;115;128.5953;0;9999.99;3.78;3.907;2;9;22.2;0;22.2000007629395;36.18;1528.66135;01/30/21;12:53:12;21.87;54.58;36.18;1.164;8.46;-85.3;-3.3;-9.2;-1980;90.4;6.42;13.3;;
25.9125734553658;-80.1376328235769;13:14:17.83;1/30/2021;9;2.033;133.67;-7.05677528663452;0.95;140.9;131.93;0.87;2.7;22.7;.01;3.78;3.79;84;38;452.1;15.8;-2.4;D;777.9;1;7.749;2;1.95;175;127.46;-80.13757133;25.91253107;0;0;1;N;0.8093259;62;62;11;110;110;127.643;0;9999.99;3.79;3.917;2;9;22.2;0;22.2000007629395;36.2;1528.6839;01/30/21;12:53:13;21.87;54.60;36.20;1.168;8.51;-88.3;-2.6;-7.4;-2171;90.4;6.42;13.1;;
25.9125658506869;-80.1376252675509;13:14:18.83;1/30/2021;9;2.008;133.98;-7.05677528663452;0.95;140.5;131.56;0.82;2.1;22.8;.00;3.79;3.79;84;38;452.0;15.8;-2.4;D;775.6;1;6.637;2;1.96;175;125.64;-80.13757133;25.91253107;0;0;1;N;0.9052629;62;62;11;109;109;126.9635;0;9999.99;3.80;3.927;2;9;22.2;0;22.2000007629395;36.19;1528.6727;01/30/21;12:53:14;21.87;54.59;36.19;1.161;8.46;-85.1;-2.7;-1.1;-1760;90.3;6.42;13.3;;
25.912558605194;-80.1376186291594;13:14:19.83;1/30/2021;9;1.976;134.32;-7.05677528663452;0.95;140.6;131.65;0.93;2.7;22.8;.00;3.78;3.79;84;38;452.0;15.8;-2.4;D;775.6;1;5.636;2;1.96;175;122.91;-80.13757133;25.91253107;0;0;1;N;1.033508;63;63;11;105;105;126.0584;0;9999.99;3.79;3.917;2;9;22.2;0;22.2000007629395;36.21;1528.69467;01/30/21;12:53:15;21.87;54.62;36.21;1.161;8.46;-85.4;-1.1;-2.7;-4220;90.4;6.42;13.4;;
25.9125521472236;-80.1376121157349;13:14:20.83;1/30/2021;9;2;134.89;-7.05677528663452;0.95;140.3;131.37;0.61;3.64;22.7;.00;3.81;3.81;84;38;452.0;15.8;-2.4;D;775.6;2;21.121;2;1.95;175;148.79;-80.13750269;25.91238969;0;0;1;N;2.855971;61;61;11;174;174;143.101;0;9999.99;3.81;3.937;2;9;22.2;0;22.2000007629395;36.19;1528.67254;01/30/21;12:53:17;21.87;54.59;36.19;1.159;8.47;-85.5;-3.8;-5.1;-2625;90.5;6.43;13.1;;
25.9125466274024;-80.1376048993774;13:14:21.83;1/30/2021;9;1.8;133.84;-7.05677528663452;0.95;144.5;135.32;0.63;3.02;22.8;.00;3.81;3.82;84;38;452.0;15.8;-2.4;D;764.5;2;20.224;2;1.92;175;149.64;-80.13750269;25.91238969;0;0;1;N;2.435312;61;61;11;162;162;144.134;0;9999.99;3.82;3.947;2;9;22.2;0;22.2000007629395;36.19;1528.67254;01/30/21;12:53:17;21.87;54.59;36.19;1.159;8.47;-85.5;-3.8;-5.1;-2625;90.5;6.43;13.1;;
25.9125404136137;-80.1375978190359;13:14:22.83;1/30/2021;9;1.841;136.95;-7.05677528663452;1.06;147.8;138.43;1.35;1.32;22.8;.00;3.80;3.80;84;38;452.0;15.8;-2.4;D;764.5;2;19.272;2;1.91;175;150.42;-80.13750269;25.91238969;0;0;1;N;2.048419;65;65;11;154;154;145.0837;0;9999.99;3.81;3.937;2;9;22.2;0;22.2000007629395;36.18;1528.66156;01/30/21;12:53:18;21.87;54.58;36.18;1.139;8.47;-85.5;-2.1;-7.2;-2690;90.5;6.43;13.3;;
25.9125337726427;-80.1375915097025;13:14:23.84;1/30/2021;9;1.807;138.37;-7.05677528663452;0.99;150.3;140.8;1.07;1.7;22.9;.00;3.74;3.74;84;38;452.0;15.8;-2.4;D;764.5;2;18.319;2;1.88;175;150.99;-80.13750269;25.91238969;0;0;1;N;1.764743;63;63;11;146;146;145.6305;0;9999.99;3.75;3.877;2;9;22.2;0;22.2000007629395;36.19;1528.67252;01/30/21;12:53:20;21.87;54.59;36.19;1.140;8.47;-85.6;-3.7;-4.9;-2133;90.6;6.43;13.2;;
25.9125280421982;-80.1375853992965;13:14:24.84;1/30/2021;9;1.861;140.88;-7.05677528663452;0.95;152.5;142.9;1.28;1.12;22.9;.01;3.81;3.81;84;38;452.0;15.8;-2.4;D;764.5;2;17.467;2;1.84;176;151.73;-80.13750269;25.91238969;0;0;1;N;1.455745;65;65;11;142;142;146.5676;0;9999.99;3.82;3.947;2;9;22.2;0;22.2000007629395;36.19;1528.67252;01/30/21;12:53:20;21.87;54.59;36.19;1.140;8.47;-85.6;-3.7;-4.9;-2133;90.6;6.43;13.2;;
25.9125208312236;-80.1375794854938;13:14:25.84;1/30/2021;9;1.932;142.62;-7.05677528663452;0.95;155.4;145.67;1.45;3.09;22.8;.01;3.82;3.82;84;37;452.0;15.8;-2.4;D;783.2;2;16.482;2;1.86;176;152.22;-80.13750269;25.91238969;0;0;1;N;1.225194;68;68;11;138;138;147.7004;0;9999.99;3.83;3.957;2;9;22.2;0;22.2000007629395;36.22;1528.7058;01/30/21;12:53:21;21.86;54.63;36.22;1.171;8.47;-85.6;-3.2;-3.4;-5110;90.6;6.43;13.2;;
25.9125128427289;-80.1375739302625;13:14:26.86;1/30/2021;9;1.854;145.21;-7.05677528663452;0.95;156.5;146.72;1.44;1.85;22.8;.00;3.83;3.83;84;37;452.0;15.8;-2.4;D;783.2;2;15.437;2;1.88;176;152.51;-80.13750269;25.91238969;0;0;1;N;1.068551;66;66;11;135;135;148.8016;0;9999.99;3.84;3.967;2;9;22.2;0;22.2000007629395;36.19;1528.67243;01/30/21;12:53:23;21.87;54.59;36.19;1.159;8.47;-85.5;-3.0;-6.4;-1758;90.6;6.44;13.3;;
25.9125054446411;-80.1375682095771;13:14:27.89;1/30/2021;9;1.893;147.5;-7.05677528663452;0.95;158.1;148.26;1.22;4.02;22.8;.00;3.84;3.84;84;37;452.0;15.8;-2.4;D;783.2;2;14.443;2;1.91;176;153.02;-80.13750269;25.91238969;0;0;1;N;0.872481;64;64;11;135;135;150.1855;0;9999.99;3.85;3.977;2;9;22.2;0;22.2000007629395;36.19;1528.67243;01/30/21;12:53:23;21.87;54.59;36.19;1.159;8.47;-85.5;-3.0;-6.4;-1758;90.6;6.44;13.3;;
25.9125007109088;-80.1375662111919;13:14:28.89;1/30/2021;9;1.919;148.34;-7.05677528663452;0.95;159.6;149.71;1;1.88;22.8;.00;3.86;3.86;84;38;452.0;15.8;-2.4;D;763.4;2;13.884;2;1.91;176;152.77;-80.13750269;25.91238969;0;0;1;N;0.7499288;62;62;11;127;127;150.023;0;9999.99;3.87;3.997;2;9;22.2;0;22.2000007629395;36.2;1528.68342;01/30/21;12:53:24;21.86;54.61;36.20;1.178;8.47;-85.8;-2.9;-4.7;-661;90.6;6.44;13.3;;
25.9124906525177;-80.1375613679842;13:14:29.91;1/30/2021;9;1.845;148.62;-7.05677528663452;0.95;160.8;150.87;1.28;2.96;22.8;.01;3.88;3.89;84;38;452.0;15.8;-2.4;D;763.4;2;12.668;2;1.9;176;152.4;-80.13750269;25.91238969;0;0;1;N;0.8962015;65;65;11;124;124;150.0177;0;9999.99;3.89;4.017;2;9;22.2;0;22.2000007629395;36.2;1528.68358;01/30/21;12:53:26;21.87;54.60;36.20;1.151;8.47;-85.8;-2.5;-6.0;-1553;90.7;6.44;13.3;;
25.9124834521857;-80.137556965891;13:14:30.92;1/30/2021;9;1.888;151.43;-7.05677528663452;0.95;161.8;151.83;0.89;1.34;22.8;.01;3.88;3.89;84;38;452.0;15.8;-2.4;D;763.4;2;11.754;2;1.89;176;152.5;-80.13750269;25.91238969;0;0;1;N;0.8108243;62;62;11;122;122;150.6224;0;9999.99;3.89;4.017;2;9;22.2;0;22.2000007629395;36.2;1528.68358;01/30/21;12:53:26;21.87;54.60;36.20;1.151;8.47;-85.8;-2.5;-6.0;-1553;90.7;6.44;13.3;;
25.912476130497;-80.137554377991;13:14:31.92;1/30/2021;9;1.903;154.42;-7.05677528663452;0.95;162.8;152.8;0.75;2.69;22.8;.00;3.89;3.90;84;38;452.0;15.8;-2.4;D;763.4;2;10.914;2;1.89;176;151.73;-80.13750269;25.91238969;0;0;1;N;0.9025658;61;61;11;119;119;149.9726;0;9999.99;3.90;4.027;2;9;22.2;0;22.2000007629395;36.2;1528.68392;01/30/21;12:53:27;21.87;54.61;36.20;1.165;8.47;-85.9;-2.0;-2.8;-3478;90.7;6.44;13.3;;
25.9124676493983;-80.1375512776712;13:14:32.94;1/30/2021;9;1.905;155.41;-7.05677528663452;0.95;162.9;152.9;0.74;1.82;22.7;.01;3.91;3.92;84;38;451.9;15.8;-2.4;D;762.5;2;9.938;2;1.91;176;150.73;-80.13750269;25.91238969;0;0;1;N;0.9969809;62;62;11;114;114;149.3055;0;9999.99;3.92;4.047;2;9;22.2;0;22.2000007629395;36.2;1528.68354;01/30/21;12:53:28;21.87;54.60;36.20;1.186;8.45;-84.7;-3.7;-5.5;-1464;90.8;6.45;13.2;;
25.9124597166049;-80.1375470542437;13:14:33.95;1/30/2021;9;1.892;155.75;-7.05677528663452;0.95;163.4;153.39;0.82;2.56;22.8;.01;3.91;3.92;84;38;451.9;15.8;-2.4;D;762.5;2;8.962;2;1.94;176;150.32;-80.13750269;25.91238969;0;0;1;N;0.9588547;62;62;11;112;112;149.5754;0;9999.99;3.92;4.047;2;9;22.2;0;22.2000007629395;36.19;1528.67267;01/30/21;12:53:30;21.87;54.58;36.19;1.189;8.51;-88.3;-2.7;-2.7;-2042;90.7;6.44;13.2;;
25.9124511351803;-80.1375432565934;13:14:34.95;1/30/2021;9;1.841;157.29;-7.05677528663452;0.95;162.5;152.51;0.66;3.11;22.8;.01;3.92;3.92;84;38;451.9;15.8;-2.4;D;762.5;2;7.946;2;1.99;176;149.3;-80.13750269;25.91238969;0;0;1;N;0.9926459;60;60;11;113;113;149.3363;0;9999.99;3.92;4.047;2;9;22.2;0;22.2000007629395;36.19;1528.67267;01/30/21;12:53:30;21.87;54.58;36.19;1.189;8.51;-88.3;-2.7;-2.7;-2042;90.7;6.44;13.2;;
25.9124427921339;-80.1375393117736;13:14:35.95;1/30/2021;9;1.922;157.66;-7.05677528663452;0.95;162.8;152.8;0.44;2.53;22.8;.00;3.90;3.91;84;41;451.9;15.7;-2.6;D;708.9;2;6.949;2;1.97;176;148.19;-80.13750269;25.91238969;0;0;1;N;1.002599;60;60;11;112;112;149.2661;0;9999.99;3.91;4.037;2;9;22.2;0;22.2000007629395;36.19;1528.67287;01/30/21;12:53:31;21.86;54.59;36.19;1.163;8.45;-84.6;-3.0;-6.7;-3916;90.7;6.44;13.3;;
25.9124343054902;-80.1375351324655;13:14:36.95;1/30/2021;9;1.854;156.78;-7.05677528663452;0.95;162.4;152.42;0.74;2.68;22.8;.00;3.93;3.93;84;41;451.9;15.7;-2.6;D;708.9;2;5.928;2;1.97;176;146.81;-80.13750269;25.91238969;0;0;1;N;0.9979416;61;61;11;115;115;149.2994;0;9999.99;3.94;4.067;2;9;22.2;0;22.2000007629395;36.21;1528.69464;01/30/21;12:53:33;21.85;54.61;36.21;1.213;8.52;-88.5;-3.2;-5.5;-1045;90.8;6.45;13.2;;
25.9124261082539;-80.1375310971876;13:14:37.97;1/30/2021;9;2.001;156.97;-7.05677528663452;0.95;162.7;152.71;0.42;2.36;22.7;.01;3.94;3.95;84;41;451.9;15.7;-2.6;D;708.9;2;4.947;2;1.95;176;144.95;-80.13750269;25.91238969;0;0;1;N;0.9898951;58;58;11;112;112;149.3558;0;9999.99;3.94;4.067;2;9;22.2;0;22.2000007629395;36.21;1528.69464;01/30/21;12:53:33;21.85;54.61;36.21;1.213;8.52;-88.5;-3.2;-5.5;-1045;90.8;6.45;13.2;;
25.9124178188182;-80.1375272610056;13:14:38.98;1/30/2021;9;2.022;155.6;-7.05677528663452;0.95;162.7;152.71;0.83;-1.5;22.8;.01;3.94;3.95;84;41;451.9;15.7;-2.6;D;708.9;3;18.297;2;1.94;176;137.45;-80.13740356;25.91229659;0;0;1;N;0.4244873;62;62;11;69;69;138.3016;0;9999.99;3.95;4.077;2;9;22.2;0;22.2000007629395;36.21;1528.69515;01/30/21;12:53:34;21.85;54.62;36.21;1.173;8.46;-85.0;-2.6;-5.1;-3098;90.8;6.45;13.3;;
25.9124094597319;-80.1375238643612;13:14:40.00;1/30/2021;9;1.917;157.85;-7.05677528663452;0.95;157.9;148.07;0.78;6.08;22.8;.01;3.95;3.96;84;41;451.9;15.7;-2.6;D;712.9;3;17.387;2;1.9;176;136.21;-80.13740356;25.91229659;0;0;1;N;1.910174E-02;62;62;11;80;80;136.3373;0;9999.99;3.96;4.087;2;9;22.2;0;22.2000007629395;36.19;1528.67293;01/30/21;12:53:36;21.85;54.59;36.19;1.212;8.52;-88.6;-3.1;-2.4;-4668;90.9;6.46;13.3;;
25.9124009789996;-80.1375191481102;13:14:41.02;1/30/2021;9;1.879;154.6;-7.05677528663452;0.95;156.3;146.53;0.67;2.45;22.8;.01;3.99;3.99;84;41;451.9;15.7;-2.6;D;712.9;3;16.383;2;1.92;176;135.12;-80.13740356;25.91229659;0;0;1;N;0.3025238;64;64;11;77;77;134.4972;0;9999.99;4.00;4.127;2;9;22.2;0;22.2000007629395;36.19;1528.67293;01/30/21;12:53:36;21.85;54.59;36.19;1.212;8.52;-88.6;-3.1;-2.4;-4668;90.9;6.46;13.3;;
25.9123922472817;-80.1375136662893;13:14:42.05;1/30/2021;9;1.971;153.21;-7.05677528663452;0.95;153.1;143.47;1.29;2.71;22.8;.01;4.00;4.01;84;41;451.9;15.7;-2.6;D;714;3;15.311;2;1.95;176;134.01;-80.13740356;25.91229659;0;0;1;N;0.5824645;65;65;11;83;83;132.5257;0;9999.99;4.01;4.137;2;9;22.2;0;22.2000007629395;36.19;1528.67295;01/30/21;12:53:37;21.85;54.59;36.19;1.175;8.46;-85.0;-1.9;-4.8;-3397;90.9;6.46;13.1;;
25.9123843614869;-80.1375080514767;13:14:43.06;1/30/2021;9;1.976;151.37;-7.05677528663452;0.95;149.8;140.33;0.54;3.85;22.8;.01;3.98;3.99;84;41;451.9;15.7;-2.6;D;714;3;14.300;2;1.92;176;133.04;-80.13740356;25.91229659;0;0;1;N;0.789452;61;61;11;95;95;130.7776;0;9999.99;3.99;4.117;2;9;22.2;0;22.2000007629395;36.18;1528.66195;01/30/21;12:53:39;21.85;54.57;36.18;1.137;8.52;-88.5;-4.0;-2.4;-3144;90.9;6.46;13.2;;
25.9123772575372;-80.1375017202136;13:14:44.08;1/30/2021;9;1.845;147.67;-7.05677528663452;0.95;147.8;138.43;0.83;2.86;22.8;.01;3.97;3.98;84;41;451.9;15.7;-2.6;D;714;3;13.298;2;1.91;176;132.42;-80.13740356;25.91229659;0;0;1;N;0.8836325;62;62;11;93;93;129.9334;0;9999.99;3.98;4.107;2;9;22.2;0;22.2000007629395;36.18;1528.66183;01/30/21;12:53:40;21.84;54.58;36.18;1.211;8.46;-85.0;-1.2;-5.2;-2528;90.9;6.46;13.2;;
25.9123702616854;-80.1374958400909;13:14:45.08;1/30/2021;9;1.901;143.28;-7.05677528663452;0.95;146;136.73;0.58;3.05;22.8;.00;3.97;3.98;84;42;451.8;15.7;-2.6;D;696.7;3;12.341;2;1.92;176;131.59;-80.13740356;25.91229659;0;0;1;N;0.9997889;60;60;11;97;97;129.1136;0;9999.99;3.98;4.107;2;9;22.2;0;22.2000007629395;36.18;1528.66183;01/30/21;12:53:40;21.84;54.58;36.18;1.211;8.46;-85.0;-1.2;-5.2;-2528;90.9;6.46;13.2;;
25.9123629221432;-80.1374900011499;13:14:46.08;1/30/2021;9;1.963;142.87;-7.05677528663452;0.95;145;135.79;0.74;2.26;22.7;.00;3.99;4.00;84;42;451.8;15.7;-2.6;D;696.7;3;11.365;2;1.95;176;130.47;-80.13740356;25.91229659;0;0;1;N;1.143085;61;61;11;96;96;128.106;0;9999.99;4.00;4.127;2;9;22.2;0;22.2000007629395;36.19;1528.67262;01/30/21;12:53:41;21.84;54.59;36.19;1.217;8.51;-88.0;-3.2;-6.6;-2966;90.9;6.46;13.1;;
25.9123555195112;-80.1374843423977;13:14:47.08;1/30/2021;9;2.013;142.41;-7.05677528663452;0.95;143.9;134.75;0.9;2.43;22.8;.01;4.00;4.01;84;42;451.8;15.7;-2.6;D;696.7;3;10.403;2;1.96;176;129.04;-80.13740356;25.91229659;0;0;1;N;1.306874;61;61;11;96;96;126.9595;0;9999.99;4.01;4.137;2;9;22.2;0;22.2000007629395;36.19;1528.6727;01/30/21;12:53:43;21.84;54.59;36.19;1.207;8.46;-85.0;-1.5;-2.5;-3938;90.9;6.46;13.4;;
25.9123481523624;-80.1374775058046;13:14:48.08;1/30/2021;9;1.994;141.44;-7.05677528663452;0.95;142.8;133.72;0.51;0.48;22.8;.01;4.01;4.02;84;42;451.8;15.7;-2.6;D;696.7;3;9.358;2;1.98;176;127.78;-80.13740356;25.91229659;0;0;1;N;1.380295;60;60;11;97;97;126.4469;0;9999.99;4.02;4.147;2;9;22.2;0;22.2000007629395;36.19;1528.6727;01/30/21;12:53:43;21.84;54.59;36.19;1.207;8.46;-85.0;-1.5;-2.5;-3938;90.9;6.46;13.4;;
25.9123415562188;-80.1374703534942;13:14:49.08;1/30/2021;9;1.988;139.28;-7.05677528663452;0.95;141.8;132.78;0.51;3.64;22.8;.01;4.02;4.03;84;41;451.8;15.7;-2.6;D;708.7;3;8.345;2;1.99;176;126.81;-80.13740356;25.91229659;0;0;1;N;1.375244;60;60;11;102;102;126.4835;0;9999.99;4.03;4.157;2;9;22.2;0;22.2000007629395;36.19;1528.67275;01/30/21;12:53:44;21.85;54.60;36.19;1.179;8.51;-88.3;-3.2;-4.0;-1182;90.9;6.46;13.2;;
25.9123341271415;-80.1374629352567;13:14:50.08;1/30/2021;9;2.073;136.9;-7.05677528663452;0.95;141;132.03;0.56;0.86;22.8;.00;4.06;4.06;84;41;451.8;15.7;-2.6;D;708.7;3;7.259;2;1.95;176;125.1;-80.13740356;25.91229659;0;0;1;N;1.408895;60;60;11;104;104;126.249;0;9999.99;4.06;4.187;2;9;22.2;0;22.2000007629395;36.17;1528.6507;01/30/21;12:53:46;21.84;54.57;36.17;1.172;8.45;-84.8;-3.0;-4.3;-1449;90.9;6.46;13.3;;
25.9123278928169;-80.1374556720763;13:14:51.08;1/30/2021;9;2.062;133.96;-7.05677528663452;0.95;139.1;130.25;1.12;4.54;22.8;.01;4.03;4.04;84;41;451.8;15.7;-2.6;D;708.7;3;6.268;2;2;176;123.74;-80.13740356;25.91229659;0;0;1;N;1.36643;64;64;11;113;113;126.5439;0;9999.99;4.04;4.167;2;9;22.2;0;22.2000007629395;36.17;1528.6507;01/30/21;12:53:46;21.84;54.57;36.17;1.172;8.45;-84.8;-3.0;-4.3;-1449;90.9;6.46;13.3;;
25.912321693196;-80.137448274;13:14:52.08;1/30/2021;9;2.042;132.17;-7.05677528663452;0.95;139.2;130.34;0.38;1.52;22.7;.01;4.03;4.04;84;42;451.8;15.7;-2.6;D;706.6;3;5.273;2;1.99;176;121.97;-80.13740356;25.91229659;0;0;1;N;1.309055;60;60;11;113;113;126.9454;0;9999.99;4.04;4.167;2;9;22.2;0;22.2000007629395;36.18;1528.66185;01/30/21;12:53:47;21.84;54.58;36.18;1.155;8.48;-86.1;-3.9;-2.5;-4114;90.9;6.46;13.2;;
25.9123148472111;-80.1374400065997;13:14:53.08;1/30/2021;9;2.033;133.3;-7.05677528663452;0.95;140.8;131.84;-0.26;8.2;22.7;.00;4.03;4.03;84;42;451.8;15.7;-2.6;D;706.6;4;13.264;2;2;176;172.47;-80.13742262;25.91219659;0;0;1;N;4.044847;58;58;11;250;250;165.457;0;9999.99;4.03;4.157;2;9;22.2;0;22.2000007629395;36.19;1528.67279;01/30/21;12:53:49;21.83;54.59;36.19;1.204;8.45;-84.7;-4.0;-7.9;-3554;91.0;6.46;13.2;;
25.9123087123105;-80.1374336904566;13:14:54.08;1/30/2021;8;1.798;132.39;-7.05677528663452;1.18;149.6;140.14;1.27;-2.96;22.8;.00;4.06;4.06;84;42;451.8;15.7;-2.6;D;706.6;4;12.516;2;1.96;176;174.92;-80.13742262;25.91219659;0;0;1;N;3.293346;65;65;11;245;245;169.7173;0;9999.99;4.06;4.187;2;9;22.2;0;22.2000007629395;36.19;1528.67279;01/30/21;12:53:49;21.83;54.59;36.19;1.204;8.45;-84.7;-4.0;-7.9;-3554;91.0;6.46;13.2;;
25.9123029287445;-80.137430537625;13:14:55.09;1/30/2021;9;1.666;136.13;-7.05677528663452;1.18;159.4;149.51;3.38;0.67;22.8;.00;4.06;4.06;84;42;451.8;15.7;-2.6;D;706.6;4;11.851;2;1.86;176;176.17;-80.13742262;25.91219659;0;0;1;N;2.848473;76;76;11;220;220;170.942;0;9999.99;4.08;4.207;2;9;22.2;0;22.2000007629395;36.18;1528.6614;01/30/21;12:53:51;21.84;54.58;36.18;1.142;8.52;-88.8;-2.3;-3.6;-1341;91.0;6.46;13.2;;
25.9122962180828;-80.1374273860085;13:14:56.09;1/30/2021;9;1.61;141.93;-7.05677528663452;0.95;166.3;156.21;3.35;1.45;22.8;.01;4.03;4.04;84;41;451.7;15.7;-2.6;D;713.2;4;11.088;2;1.8;176;177.54;-80.13742262;25.91219659;0;0;1;N;2.407278;77;77;11;194;194;172.9899;0;9999.99;4.06;4.187;2;9;22.2;0;22.2000007629395;36.18;1528.6614;01/30/21;12:53:51;21.84;54.58;36.18;1.142;8.52;-88.8;-2.3;-3.6;-1341;91.0;6.46;13.2;;
25.9122883941584;-80.1374245341005;13:14:57.09;1/30/2021;9;1.793;150.38;-7.05677528663452;0.95;173.8;163.59;3.19;0.46;22.8;.02;4.06;4.08;84;41;451.7;15.7;-2.6;D;713.2;4;10.210;2;1.74;176;178.93;-80.13742262;25.91219659;0;0;1;N;1.963275;76;76;11;176;176;175.9398;0;9999.99;4.09;4.217;2;9;22.2;0;22.2000007629395;36.19;1528.67316;01/30/21;12:53:52;21.84;54.59;36.19;1.122;8.45;-84.8;-2.7;-5.3;-3394;90.9;6.46;13.1;;
25.9122809143358;-80.1374237442507;13:14:58.09;1/30/2021;9;1.784;158.39;-7.05677528663452;0.95;180.2;169.97;2.3;0.35;22.8;.01;4.11;4.12;84;41;451.7;15.7;-2.6;D;713.2;4;9.377;2;1.7;177;179.31;-80.13742262;25.91219659;0;0;1;N;1.728612;71;71;11;160;160;177.5352;0;9999.99;4.13;4.257;2;9;22.2;0;22.2000007629395;36.18;1528.66255;01/30/21;12:53:53;21.84;54.58;36.18;1.139;8.47;-86.0;-3.6;-2.2;-4581;90.9;6.46;13.2;;
25.9122722840651;-80.1374239024073;13:14:59.09;1/30/2021;9;1.855;165.04;-7.05677528663452;0.95;183.7;173.48;1.39;1.8;22.8;.01;4.11;4.12;84;42;451.7;15.7;-2.6;D;706.4;4;8.417;2;1.73;177;179.13;-80.13742262;25.91219659;0;0;1;N;1.575217;65;65;11;147;147;178.5893;0;9999.99;4.12;4.247;2;9;22.2;0;22.2000007629395;36.19;1528.67345;01/30/21;12:53:55;21.84;54.59;36.19;1.149;8.45;-84.8;-3.4;-4.9;-5695;90.9;6.46;13.2;;
25.9122640926107;-80.1374233182513;13:15:00.13;1/30/2021;9;1.802;170.26;-7.05677528663452;0.95;187.3;177.12;0.29;1.94;22.8;.00;4.07;4.07;84;42;451.7;15.7;-2.6;D;706.4;4;7.507;2;1.81;177;179.47;-80.13742262;25.91219659;0;0;1;N;1.363538;59;59;11;139;139;180.0556;0;9999.99;4.08;4.207;2;9;22.2;0;22.2000007629395;36.19;1528.67254;01/30/21;12:53:56;21.84;54.59;36.19;1.178;8.48;-86.4;-3.3;-5.8;-1460;90.9;6.46;13.3;;
25.9122550531526;-80.1374244724392;13:15:01.14;1/30/2021;9;1.851;174.88;-7.05677528663452;0.95;188.5;178.34;1.58;2.87;22.8;.00;4.07;4.08;84;42;451.7;15.7;-2.6;D;706.4;4;6.504;2;1.82;177;178.37;-80.13742262;25.91219659;0;0;1;N;1.305454;65;65;11;137;137;180.4604;0;9999.99;4.08;4.207;2;9;22.2;0;22.2000007629395;36.19;1528.67247;01/30/21;12:53:57;21.84;54.59;36.19;1.175;8.51;-88.2;-3.5;-5.0;-3558;91.0;6.46;13.1;;
25.9122458584437;-80.1374240469157;13:15:02.14;1/30/2021;9;1.999;175.76;-7.05677528663452;0.95;190.8;180.68;1.37;3.39;22.8;.00;4.09;4.09;84;42;451.7;15.7;-2.6;D;706.4;4;5.480;2;1.8;177;178.51;-80.13742262;25.91219659;0;0;1;N;1.083883;65;65;11;132;132;182.0119;0;9999.99;4.10;4.227;2;9;22.2;0;22.2000007629395;36.21;1528.69443;01/30/21;12:53:58;21.84;54.62;36.21;1.155;8.45;-84.4;-4.3;0.3;-5175;91.0;6.46;13.3;;
25.9122374302685;-80.1374260196922;13:15:03.14;1/30/2021;9;1.841;182.83;-7.05677528663452;0.95;191.4;181.3;0.94;3.98;22.8;.00;4.08;4.08;84;42;451.7;15.7;-2.6;D;698.8;5;14.509;2;1.87;177;150.23;-80.13735399;25.91212417;0;0;1;N;2.768698;63;63;11;18;18;154.1429;0;9999.99;4.09;4.217;2;9;22.2;0;22.2000007629395;36.19;1528.6724;01/30/21;12:53:59;21.84;54.58;36.19;1.161;8.47;-85.9;-4.6;-3.8;-2838;90.9;6.46;13.1;;
25.9122277735878;-80.1374270975616;13:15:04.14;1/30/2021;9;2.037;184.05;-7.05677528663452;0.95;186;175.81;0.53;-5.41;22.7;.00;4.02;4.02;84;42;451.7;15.7;-2.6;D;698.8;5;13.645;2;1.88;177;147.6;-80.13735399;25.91212417;0;0;1;N;1.981972;62;62;11;26;26;150.7225;0;9999.99;4.03;4.157;2;9;22.2;0;22.2000007629395;36.21;1528.69438;01/30/21;12:54:00;21.84;54.61;36.21;1.168;8.51;-88.0;-3.1;-5.9;-1496;90.9;6.46;13.2;;
25.9122187491986;-80.1374290091783;13:15:05.17;1/30/2021;9;1.959;189.23;-7.05677528663452;1;179.6;169.36;1.74;7.53;22.8;.01;4.08;4.08;84;42;451.7;15.7;-2.6;D;698.8;5;12.919;2;1.89;177;144.49;-80.13735399;25.91212417;0;0;1;N;1.165608;67;67;11;36;36;146.5206;0;9999.99;4.08;4.207;2;9;22.2;0;22.2000007629395;36.2;1528.6835;01/30/21;12:54:01;21.84;54.60;36.20;1.175;8.45;-84.6;-3.7;-2.9;-5393;90.9;6.46;13.1;;
25.9122106994871;-80.1374291905885;13:15:06.17;1/30/2021;9;1.941;184.91;-7.05677528663452;0.95;171;160.82;2.2;3.95;22.8;.00;4.06;4.07;84;44;451.6;15.7;-2.7;D;673.4;5;12.212;2;1.87;178;141.99;-80.13735399;25.91212417;0;0;1;N;0.55645;70;70;11;55;55;142.7666;0;9999.99;4.08;4.207;2;9;22.2;0;22.2000007629395;36.2;1528.68363;01/30/21;12:54:02;21.83;54.60;36.20;1.172;8.47;-85.6;-3.9;-1.6;-5138;90.9;6.46;13.2;;
25.9122018955857;-80.1374290374461;13:15:07.19;1/30/2021;9;1.848;180.61;-7.05677528663452;0.95;163.2;153.19;2.43;5.9;22.8;.01;4.05;4.05;84;44;451.6;15.7;-2.7;D;673.4;5;11.447;2;1.87;178;139.03;-80.13735399;25.91212417;0;0;1;N;7.459392E-02;72;72;11;65;65;139.0866;0;9999.99;4.07;4.197;2;9;22.2;0;22.2000007629395;36.22;1528.70586;01/30/21;12:54:03;21.83;54.62;36.22;1.172;8.50;-87.3;-3.5;-1.3;-1734;90.9;6.46;13.4;;
25.9121935651537;-80.1374272380228;13:15:08.19;1/30/2021;9;1.83;173.28;-7.05677528663452;0.95;157.7;147.88;2.24;6.57;22.8;.00;4.06;4.07;84;44;451.6;15.7;-2.7;D;673.4;5;10.640;2;1.88;178;136.49;-80.13735399;25.91212417;0;0;1;N;0.5531607;70;70;11;78;78;135.6907;0;9999.99;4.08;4.207;2;9;22.2;0;22.2000007629395;36.22;1528.7058;01/30/21;12:54:04;21.83;54.63;36.22;1.131;8.45;-84.4;-3.5;-2.6;-539;90.9;6.46;13.3;;
25.9121856121735;-80.1374232249237;13:15:09.20;1/30/2021;9;1.856;162.96;-7.05677528663452;0.95;152.4;142.8;1.65;4.81;22.8;.01;4.09;4.10;84;44;451.6;15.7;-2.7;D;673.4;5;9.728;2;1.89;178;134.61;-80.13735399;25.91212417;0;0;1;N;0.8327059;67;67;11;90;90;133.6134;0;9999.99;4.11;4.237;2;9;22.2;0;22.2000007629395;36.21;1528.69464;01/30/21;12:54:05;21.83;54.61;36.21;1.134;8.47;-85.6;-3.4;-3.9;-255;90.9;6.46;13.1;;
25.9121770155908;-80.1374178439659;13:15:10.23;1/30/2021;9;2.087;156.41;-7.05677528663452;0.95;149.4;139.95;1.48;4.38;22.8;.01;4.06;4.07;84;43;451.6;15.7;-2.7;D;680.2;5;8.679;2;1.94;178;132.62;-80.13735399;25.91212417;0;0;1;N;1.048321;66;66;11;96;96;132.0903;0;9999.99;4.08;4.207;2;9;22.2;0;22.2000007629395;36.22;1528.70612;01/30/21;12:54:06;21.83;54.63;36.22;1.145;8.46;-85.3;-3.6;-4.8;-3980;90.9;6.46;13.3;;
25.9121694848419;-80.1374125906619;13:15:11.23;1/30/2021;9;1.956;150.26;-7.05677528663452;0.95;146.7;137.39;0.68;1.76;22.7;.01;4.09;4.10;84;43;451.6;15.7;-2.7;D;680.2;5;7.729;2;1.95;178;130.69;-80.13735399;25.91212417;0;0;1;N;1.198125;61;61;11;102;102;131.038;0;9999.99;4.10;4.227;2;9;22.2;0;22.2000007629395;36.21;1528.69493;01/30/21;12:54:07;21.83;54.62;36.21;1.148;8.45;-84.5;-3.6;-4.0;-1772;90.9;6.46;13.2;;
25.9121624408576;-80.1374070691774;13:15:12.25;1/30/2021;9;1.919;146.74;-7.05677528663452;0.95;145;135.79;0.85;4.68;22.8;.00;4.07;4.07;84;43;451.6;15.7;-2.7;D;680.2;5;6.804;2;1.95;178;128.72;-80.13735399;25.91212417;0;0;1;N;1.288017;62;62;11;105;105;130.4095;0;9999.99;4.07;4.197;2;9;22.2;0;22.2000007629395;36.22;1528.70572;01/30/21;12:54:08;21.83;54.63;36.22;1.185;8.47;-85.7;-3.6;-5.0;-4695;90.9;6.46;13.3;;
25.9121546703598;-80.1373994669399;13:15:13.25;1/30/2021;9;2.052;142.81;-7.05677528663452;0.95;145.6;136.35;0.31;1.99;22.8;.01;4.10;4.10;84;43;451.6;15.7;-2.7;D;678.6;5;5.674;2;1.96;178;126.71;-80.13735399;25.91212417;0;0;1;N;1.271875;60;60;11;105;105;130.5233;0;9999.99;4.10;4.227;2;9;22.2;0;22.2000007629395;36.22;1528.70572;01/30/21;12:54:09;21.84;54.63;36.22;1.182;8.47;-85.6;-3.8;-5.3;-5153;90.9;6.46;13.1;;
25.9121456925011;-80.1373942726551;13:15:14.25;1/30/2021;9;2.117;141.04;-7.05677528663452;0.95;144.9;135.69;0.49;4.94;22.8;.00;4.11;4.11;84;43;451.6;15.7;-2.7;D;678.6;6;24.948;2;1.96;178;140.55;-80.13723579;25.91197244;0;0;1;N;1.950334;60;60;11;131;131;136.5024;0;9999.99;4.11;4.237;2;9;22.2;0;22.2000007629395;36.21;1528.6948;01/30/21;12:54:10;21.84;54.62;36.21;1.168;8.44;-84.2;-4.8;-2.8;-1289;90.9;6.46;13.3;;
25.9121397602385;-80.137387342195;13:15:15.25;1/30/2021;9;1.71;139.39;-7.05677528663452;0.95;144.7;135.51;1;4.97;22.8;.00;4.13;4.14;84;51;451.6;15.7;-3.2;D;571.5;6;23.998;2;1.94;178;140.83;-80.13723579;25.91197244;0;0;1;N;1.758987;61;61;11;129;129;136.6662;0;9999.99;4.14;4.267;2;9;22.2;0;22.2000007629395;36.2;1528.68343;01/30/21;12:54:11;21.84;54.60;36.20;1.178;8.47;-85.7;-3.7;-3.0;-1415;90.8;6.45;13.4;;
25.9121327811898;-80.1373803292729;13:15:16.25;1/30/2021;9;1.957;138.48;-7.05677528663452;0.95;145.8;136.54;0.65;3.24;22.8;.00;4.13;4.13;84;51;451.6;15.7;-3.2;D;571.5;6;22.954;2;1.92;178;140.96;-80.13723579;25.91197244;0;0;1;N;1.626351;61;61;11;127;127;136.4471;0;9999.99;4.14;4.267;2;9;22.2;0;22.2000007629395;36.2;1528.68345;01/30/21;12:54:12;21.84;54.61;36.20;1.210;8.51;-87.8;-5.8;-6.3;-4793;90.8;6.45;13.2;;
25.912125069626;-80.1373746309661;13:15:17.25;1/30/2021;9;1.925;139.76;-7.05677528663452;0.95;146.8;137.49;0.75;4.59;22.8;.00;4.15;4.16;84;51;451.6;15.7;-3.2;D;571.5;6;21.929;2;1.9;178;140.71;-80.13723579;25.91197244;0;0;1;N;1.650807;61;61;11;118;118;135.2861;0;9999.99;4.16;4.287;2;9;22.2;0;22.2000007629395;36.22;1528.70549;01/30/21;12:54:13;21.84;54.63;36.22;1.173;8.46;-85.3;-3.9;-4.7;-1376;90.9;6.46;13.2;;
25.912118386501;-80.1373688629194;13:15:18.25;1/30/2021;9;1.896;138.81;-7.05677528663452;0.95;147.4;138.05;0.9;4.84;22.9;.00;4.16;4.17;84;51;451.6;15.7;-3.2;D;571.5;6;20.988;2;1.88;178;140.64;-80.13723579;25.91197244;0;0;1;N;1.604424;62;62;11;112;112;134.3457;0;9999.99;4.17;4.297;2;9;22.2;0;22.2000007629395;36.2;1528.68353;01/30/21;12:54:14;21.84;54.60;36.20;1.135;8.46;-85.4;-4.8;-4.6;-2901;90.9;6.46;13.3;;
25.912111841411;-80.1373626707462;13:15:19.27;1/30/2021;9;1.842;139.4;-7.05677528663452;0.95;147.4;138.05;0.89;3.53;22.8;.00;4.18;4.18;84;51;451.5;15.7;-3.2;D;572.3;6;20.033;2;1.87;178;140.69;-80.13723579;25.91197244;0;0;1;N;1.51293;62;62;11;112;112;134.2726;0;9999.99;4.19;4.317;2;9;22.2;0;22.2000007629395;36.2;1528.68337;01/30/21;12:54:15;21.85;54.61;36.20;1.169;8.51;-88.3;-3.8;-5.5;229;90.8;6.45;13.3;;
25.9121043887882;-80.1373562114564;13:15:20.27;1/30/2021;9;2.008;142.32;-7.05677528663452;0.95;147.6;138.24;1.17;5.86;22.8;.00;4.17;4.17;84;51;451.5;15.7;-3.2;D;572.3;6;18.982;2;1.91;178;140.62;-80.13723579;25.91197244;0;0;1;N;1.458511;62;62;11;111;111;134.6493;0;9999.99;4.18;4.307;2;9;22.2;0;22.2000007629395;36.22;1528.7055;01/30/21;12:54:16;21.85;54.63;36.22;1.178;8.46;-85.0;-3.9;-1.5;-3584;90.9;6.46;13.3;;
25.9120967779062;-80.137349479061;13:15:21.28;1/30/2021;9;1.905;140.84;-7.05677528663452;0.95;148.4;139;0.66;3.41;22.8;.00;4.21;4.21;84;51;451.5;15.7;-3.2;D;572.3;6;17.901;2;1.88;178;140.57;-80.13723579;25.91197244;0;0;1;N;1.387378;61;61;11;112;112;135.1429;0;9999.99;4.22;4.347;2;9;22.2;0;22.2000007629395;36.2;1528.68346;01/30/21;12:54:17;21.85;54.61;36.20;1.196;8.47;-85.5;-4.4;0.6;-2090;90.8;6.45;13.2;;
25.9120901604927;-80.1373431996368;13:15:22.30;1/30/2021;9;1.904;139.94;-7.05677528663452;0.95;148.1;138.72;0.63;3.83;22.8;.00;4.16;4.16;84;48;451.5;15.7;-3;D;616.2;6;16.934;2;1.88;178;140.62;-80.13723579;25.91197244;0;0;1;N;1.296049;61;61;11;115;115;135.779;0;9999.99;4.17;4.297;2;9;22.2;0;22.2000007629395;36.21;1528.69454;01/30/21;12:54:18;21.85;54.61;36.21;1.166;8.51;-88.2;-5.0;-0.9;-3844;90.9;6.46;13.2;;
25.9120830644659;-80.1373371676068;13:15:23.30;1/30/2021;9;1.831;142.77;-7.05677528663452;0.95;147.5;138.15;1.04;3.29;22.8;.00;4.19;4.19;84;48;451.5;15.7;-3;D;616.2;6;15.941;2;1.89;178;140.5;-80.13723579;25.91197244;0;0;1;N;1.256194;63;63;11;118;118;136.0578;0;9999.99;4.20;4.327;2;9;22.2;0;22.2000007629395;36.2;1528.68354;01/30/21;12:54:19;21.85;54.61;36.20;1.157;8.46;-85.2;-3.1;-6.1;-1872;90.8;6.45;13.3;;
25.9120765728223;-80.137330878918;13:15:24.30;1/30/2021;9;1.915;143.47;-7.05677528663452;0.95;148;138.62;0.6;6.26;22.8;.00;4.17;4.17;84;47;451.5;15.7;-3;D;620.2;6;14.984;2;1.88;178;140.6;-80.13723579;25.91197244;0;0;1;N;1.15728;61;61;11;120;120;136.7499;0;9999.99;4.18;4.307;2;9;22.2;0;22.2000007629395;36.23;1528.71636;01/30/21;12:54:20;21.85;54.65;36.23;1.177;8.46;-85.3;-4.5;-6.7;-2927;90.8;6.45;13.2;;
25.9120691172419;-80.1373247568787;13:15:25.30;1/30/2021;9;1.988;144.07;-7.05677528663452;0.95;148.3;138.91;1.08;3.74;22.8;.00;4.19;4.19;84;47;451.5;15.7;-3;D;620.2;6;13.955;2;1.9;178;140.38;-80.13723579;25.91197244;0;0;1;N;1.130515;63;63;11;119;119;136.9378;0;9999.99;4.20;4.327;2;9;22.2;0;22.2000007629395;36.21;1528.69431;01/30/21;12:54:21;21.85;54.62;36.21;1.225;8.52;-88.6;-5.3;-8.3;-3808;90.9;6.45;13.1;;
25.912062532104;-80.1373173960324;13:15:26.30;1/30/2021;9;2.03;141.01;-7.05677528663452;0.95;147.2;137.87;1.12;3.16;22.9;.00;4.22;4.22;84;47;451.5;15.7;-3;D;620.2;6;12.922;2;1.92;178;140.83;-80.13723579;25.91197244;0;0;1;N;0.9494402;64;64;11;128;128;138.2129;0;9999.99;4.23;4.357;2;9;22.2;0;22.2000007629395;36.22;1528.70535;01/30/21;12:54:22;21.85;54.63;36.22;1.174;8.45;-84.5;-4.0;-1.4;-3793;90.9;6.46;13.2;;
25.9120556663856;-80.1373102321711;13:15:27.30;1/30/2021;9;2.043;137.06;-7.05677528663452;0.95;149.1;139.66;1.03;3.89;22.8;.00;4.22;4.22;84;47;451.5;15.7;-3;D;620.2;6;11.878;2;1.93;178;141.18;-80.13723579;25.91197244;0;0;1;N;0.7976806;62;62;11;124;124;139.287;0;9999.99;4.23;4.357;2;9;22.2;0;22.2000007629395;36.22;1528.70544;01/30/21;12:54:23;21.85;54.63;36.22;1.166;8.46;-85.2;-3.3;-6.0;-2592;91.0;6.46;13.2;;
25.9120482844943;-80.137303179458;13:15:28.33;1/30/2021;9;1.987;137.28;-7.05677528663452;0.95;148.5;139.1;1.03;3.69;22.9;.00;4.27;4.28;84;47;451.4;15.7;-3;D;618.5;6;10.796;2;1.91;178;141.37;-80.13723579;25.91197244;0;0;1;N;0.6933897;63;63;11;131;131;140.0274;0;9999.99;4.28;4.407;2;9;22.2;0;22.2000007629395;36.21;1528.69466;01/30/21;12:54:24;21.85;54.62;36.21;1.199;8.52;-88.8;-3.7;-5.1;-1761;91.0;6.46;13.2;;
25.9120416711865;-80.1372980449754;13:15:29.33;1/30/2021;9;1.899;141.58;-7.05677528663452;0.95;149.6;140.14;0.81;4.69;22.8;.00;4.23;4.23;84;47;451.4;15.7;-3;D;618.5;6;9.901;2;1.9;178;141.03;-80.13723579;25.91197244;0;0;1;N;0.692528;62;62;11;127;127;140.0335;0;9999.99;4.24;4.367;2;9;22.2;0;22.2000007629395;36.23;1528.7167;01/30/21;12:54:25;21.85;54.64;36.23;1.202;8.44;-84.1;-4.0;-7.1;-1105;91.0;6.46;13.2;;
25.9120353193988;-80.1372925314384;13:15:30.33;1/30/2021;9;1.846;139.81;-7.05677528663452;0.95;149.8;140.33;0.67;4.12;22.8;.00;4.23;4.23;84;47;451.4;15.7;-3;D;618.5;6;9.005;2;1.91;178;140.93;-80.13723579;25.91197244;0;0;1;N;0.6449404;61;61;11;129;129;140.372;0;9999.99;4.24;4.367;2;9;22.2;0;22.2000007629395;36.22;1528.70545;01/30/21;12:54:26;21.85;54.63;36.22;1.168;8.46;-85.1;-3.8;-6.0;-4088;90.9;6.46;13.3;;
25.9120278033219;-80.1372866926028;13:15:31.33;1/30/2021;9;1.909;141.8;-7.05677528663452;0.95;149.7;140.23;0.84;5.22;22.9;.00;4.28;4.29;84;47;451.4;15.7;-3;D;617.4;6;7.989;2;1.92;178;140.41;-80.13723579;25.91197244;0;0;1;N;0.6459943;63;63;11;129;129;140.3645;0;9999.99;4.29;4.417;2;9;22.2;0;22.2000007629395;36.21;1528.69441;01/30/21;12:54:27;21.85;54.62;36.21;1.167;8.53;-89.0;-3.5;-5.4;317;90.9;6.46;13.2;;
25.9120203839376;-80.1372811237737;13:15:32.33;1/30/2021;9;2.002;142.11;-7.05677528663452;0.95;150.7;141.18;0.61;3.6;22.9;.00;4.27;4.27;84;47;451.4;15.7;-3;D;617.4;6;6.998;2;1.92;178;139.62;-80.13723579;25.91197244;0;0;1;N;0.6618103;60;60;11;121;121;140.2518;0;9999.99;4.28;4.407;2;9;22.2;0;22.2000007629395;36.22;1528.70543;01/30/21;12:54:28;21.85;54.63;36.22;1.162;8.51;-88.2;-4.4;-2.9;-3279;90.9;6.46;13.3;;
25.9120125553148;-80.1372749198639;13:15:33.33;1/30/2021;9;2.008;143.67;-7.05677528663452;0.95;151.6;142.04;0.97;4.29;22.8;.00;4.26;4.27;84;47;451.4;15.7;-3;D;617.4;6;5.934;2;1.92;178;138.74;-80.13723579;25.91197244;0;0;1;N;0.6520338;63;63;11;120;120;140.3215;0;9999.99;4.27;4.397;2;9;22.2;0;22.2000007629395;36.23;1528.71641;01/30/21;12:54:29;21.85;54.64;36.23;1.186;8.45;-84.8;-4.6;-4.1;-3662;90.9;6.46;13.1;;
25.9120044474639;-80.1372694912378;13:15:34.33;1/30/2021;9;1.848;143.79;-7.05677528663452;0.95;151.8;142.23;1.02;4.98;22.8;.00;4.29;4.29;84;47;451.4;15.7;-3;D;617.4;6;4.902;2;1.93;178;136.56;-80.13723579;25.91197244;0;0;1;N;0.7235746;63;63;11;117;117;139.8131;0;9999.99;4.30;4.427;2;9;22.2;0;22.2000007629395;36.22;1528.70559;01/30/21;12:54:30;21.85;54.63;36.22;1.179;8.50;-87.4;-5.1;-5.7;-2761;90.9;6.46;13.2;;
25.9119982394306;-80.1372653675151;13:15:35.33;1/30/2021;9;1.947;145.17;-7.05677528663452;0.95;151.8;142.23;0.6;4.68;22.8;.00;4.31;4.31;84;47;451.4;15.7;-3;D;623.1;7;16.054;2;1.94;178;153.54;-80.13719384;25.91186899;0;0;1;N;1.837687;59;59;11;159;159;150.5753;0;9999.99;4.32;4.447;2;9;22.2;0;22.2000007629395;36.21;1528.69449;01/30/21;12:54:31;21.85;54.62;36.21;1.173;8.52;-88.5;-4.7;-1.8;-3976;90.8;6.45;13.2;;
25.9119903883651;-80.1372607240243;13:15:36.33;1/30/2021;9;1.87;147.41;-7.05677528663452;0.95;154.4;144.71;0.68;6.81;22.7;.00;4.31;4.31;84;47;451.4;15.7;-3;D;623.1;7;15.066;2;1.94;178;153.64;-80.13719384;25.91186899;0;0;1;N;1.693918;62;62;11;152;152;150.5798;0;9999.99;4.32;4.447;2;9;22.2;0;22.2000007629395;36.23;1528.71635;01/30/21;12:54:32;21.85;54.64;36.23;1.162;8.46;-84.9;-3.4;-6.6;-2464;90.8;6.45;13.3;;
25.9119833312952;-80.1372552782755;13:15:37.33;1/30/2021;9;1.908;146.34;-7.05677528663452;0.95;156;146.24;1.08;2.86;22.8;.00;4.31;4.31;84;47;451.4;15.7;-3;D;623.1;7;14.121;2;1.93;178;154.21;-80.13719384;25.91186899;0;0;1;N;1.44216;63;63;11;147;147;151.2975;0;9999.99;4.31;4.437;2;9;22.2;0;22.2000007629395;36.22;1528.70535;01/30/21;12:54:33;21.85;54.63;36.22;1.160;8.47;-85.6;-2.8;-5.1;-2661;90.8;6.45;13.1;;
25.9119754335928;-80.1372501925431;13:15:38.33;1/30/2021;9;1.973;147.94;-7.05677528663452;0.95;160.2;150.29;0.9;4.49;22.8;.00;4.32;4.32;84;47;451.3;15.7;-2.9;D;627.2;7;13.110;2;1.9;178;154.54;-80.13719384;25.91186899;0;0;1;N;1.257015;62;62;11;133;133;151.709;0;9999.99;4.33;4.457;2;9;22.2;0;22.2000007629395;36.23;1528.71638;01/30/21;12:54:34;21.85;54.64;36.23;1.194;8.48;-86.1;-4.0;-2.7;-2543;90.8;6.45;13.2;;
25.9119682871301;-80.1372460650311;13:15:39.33;1/30/2021;9;1.735;148.41;-7.05677528663452;0.95;161.5;151.54;1.02;2.78;22.8;.00;4.34;4.34;84;47;451.3;15.7;-2.9;D;627.2;7;12.215;2;1.89;178;154.68;-80.13719384;25.91186899;0;0;1;N;1.141309;63;63;11;128;128;151.9041;0;9999.99;4.35;4.477;2;9;22.2;0;22.2000007629395;36.22;1528.70534;01/30/21;12:54:35;21.85;54.63;36.22;1.173;8.45;-84.4;-4.1;0.3;-1120;90.8;6.45;13.2;;
25.9119601544984;-80.1372418937914;13:15:40.33;1/30/2021;9;1.931;152.48;-7.05677528663452;0.95;161.8;151.83;1.35;5.28;22.8;.00;4.28;4.28;84;47;451.3;15.7;-2.9;D;627.2;7;11.219;2;1.88;179;154.63;-80.13719384;25.91186899;0;0;1;N;1.060589;65;65;11;129;129;152.4094;0;9999.99;4.29;4.417;2;9;22.2;0;22.2000007629395;36.23;1528.71653;01/30/21;12:54:36;21.85;54.64;36.23;1.209;8.47;-85.7;-3.7;-3.5;-1570;90.8;6.45;13.3;;
25.9119516418325;-80.1372375433479;13:15:41.33;1/30/2021;9;1.826;155.56;-7.05677528663452;0.95;162.9;152.9;1.55;4.72;22.8;.01;4.27;4.27;84;47;451.3;15.7;-2.9;D;627.2;7;10.177;2;1.89;179;154.56;-80.13719384;25.91186899;0;0;1;N;0.9711797;66;66;11;128;128;153.0396;0;9999.99;4.28;4.407;2;9;22.2;0;22.2000007629395;36.23;1528.71679;01/30/21;12:54:37;21.85;54.64;36.23;1.131;8.46;-85.2;-3.8;-5.0;-1159;90.8;6.45;13.1;;
25.9119432927257;-80.1372337002164;13:15:42.34;1/30/2021;9;1.94;155.97;-7.05677528663452;0.95;164.1;154.07;0.82;5.94;22.8;.00;4.31;4.31;84;49;451.3;15.7;-3.1;D;595.7;7;9.174;2;1.88;179;154.24;-80.13719384;25.91186899;0;0;1;N;0.9268991;62;62;11;124;124;153.3519;0;9999.99;4.32;4.447;2;9;22.2;0;22.2000007629395;36.21;1528.69474;01/30/21;12:54:38;21.85;54.62;36.21;1.149;8.45;-84.8;-3.2;-3.9;-3076;91.0;6.46;13.2;;
25.9119350186908;-80.1372303561695;13:15:43.34;1/30/2021;9;1.917;156.79;-7.05677528663452;0.95;164.1;154.07;0.89;4.24;22.8;.00;4.31;4.32;84;49;451.3;15.7;-3.1;D;595.7;7;8.200;2;1.92;179;153.55;-80.13719384;25.91186899;0;0;1;N;0.9283565;62;62;11;124;124;153.3419;0;9999.99;4.32;4.447;2;9;22.2;0;22.2000007629395;36.23;1528.71658;01/30/21;12:54:39;21.84;54.64;36.23;1.186;8.47;-85.5;-3.7;-6.2;-2176;91.0;6.46;13.3;;
25.9119271960681;-80.1372266076363;13:15:44.36;1/30/2021;9;1.984;156.34;-7.05677528663452;0.95;165.5;155.43;0.71;4.46;22.9;.00;4.30;4.30;84;49;451.3;15.7;-3.1;D;595.7;7;7.254;2;1.9;179;153.14;-80.13719384;25.91186899;0;0;1;N;0.8713952;61;61;11;120;120;153.7449;0;9999.99;4.31;4.437;2;9;22.2;0;22.2000007629395;36.22;1528.70554;01/30/21;12:54:40;21.84;54.62;36.22;1.142;8.46;-85.3;-3.9;-4.9;-4134;90.9;6.46;13.4;;
25.9119182545484;-80.1372226718347;13:15:45.38;1/30/2021;9;1.988;157.84;-7.05677528663452;0.95;166.3;156.21;1.35;3.1;22.8;.00;4.33;4.33;84;48;451.2;15.7;-3;D;611;7;6.191;2;1.92;179;152.24;-80.13719384;25.91186899;0;0;1;N;0.8402798;64;64;11;118;118;153.9646;0;9999.99;4.34;4.467;2;9;22.2;0;22.2000007629395;36.22;1528.70548;01/30/21;12:54:41;21.85;54.63;36.22;1.173;8.50;-87.5;-4.0;-6.3;-3387;90.9;6.46;13.1;;
25.9119085164129;-80.1372185150858;13:15:46.39;1/30/2021;9;2.035;159.41;-7.05677528663452;0.95;167.2;157.09;0.89;5.32;22.8;.01;4.33;4.33;84;48;451.2;15.7;-3;D;611;8;16.511;2;1.98;179;153.28;-80.13714428;25.91177589;0;0;1;N;0.3223261;62;62;11;110;110;152.8867;0;9999.99;4.34;4.467;2;9;22.2;0;22.2000007629395;36.22;1528.70569;01/30/21;12:54:42;21.85;54.63;36.22;1.190;8.46;-85.3;-4.6;-4.2;-2518;90.9;6.46;13.3;;
25.9118996850442;-80.1372154183433;13:15:47.39;1/30/2021;9;1.918;160.83;-7.05677528663452;0.95;166;155.92;0.82;2.84;22.8;.00;4.34;4.35;84;48;451.2;15.7;-3;D;611;8;15.496;2;1.99;179;152.67;-80.13714428;25.91177589;0;0;1;N;0.4697471;62;62;11;111;111;152.0108;0;9999.99;4.35;4.477;2;9;22.2;0;22.2000007629395;36.21;1528.69468;01/30/21;12:54:44;21.85;54.62;36.21;1.196;8.51;-88.0;-4.3;-6.3;-3027;90.9;6.46;13.1;;
25.9118905040967;-80.1372121105493;13:15:48.41;1/30/2021;9;2.133;160.87;-7.05677528663452;0.95;166.5;156.41;0.89;4.21;22.8;.01;4.36;4.37;84;48;451.2;15.7;-3;D;611;8;14.438;2;2.03;179;151.97;-80.13714428;25.91177589;0;0;1;N;0.6119955;63;63;11;104;104;151.0054;0;9999.99;4.37;4.497;2;9;22.2;0;22.2000007629395;36.21;1528.69468;01/30/21;12:54:44;21.85;54.62;36.21;1.196;8.51;-88.0;-4.3;-6.3;-3027;90.9;6.46;13.1;;
25.9118808634225;-80.1372082423286;13:15:49.44;1/30/2021;9;2.075;160.41;-7.05677528663452;0.95;166.6;156.51;1.15;2.11;22.8;.01;4.32;4.33;84;44;451.2;15.7;-2.8;D;662.2;8;13.311;2;2.02;179;151.27;-80.13714428;25.91177589;0;0;1;N;0.7245983;64;64;11;101;101;149.9931;0;9999.99;4.33;4.457;2;9;22.2;0;22.2000007629395;36.22;1528.7062;01/30/21;12:54:45;21.84;54.63;36.22;1.185;8.46;-84.9;-4.2;-4.2;-1724;90.9;6.46;13.2;;
25.9118717879441;-80.1372043768728;13:15:50.45;1/30/2021;9;2.137;160.03;-7.05677528663452;0.95;166.3;156.21;1.11;3.55;22.9;.00;4.33;4.33;84;44;451.2;15.7;-2.8;D;662.2;8;12.241;2;2.05;179;150.59;-80.13714428;25.91177589;0;0;1;N;0.8121842;63;63;11;99;99;149.2623;0;9999.99;4.34;4.467;2;9;22.2;0;22.2000007629395;36.22;1528.70553;01/30/21;12:54:47;21.85;54.63;36.22;1.181;8.51;-88.4;-4.0;-7.8;-385;90.8;6.45;13.2;;
25.9118626666667;-80.137202;13:15:51.45;1/30/2021;9;2.155;158.64;-7.05677528663452;0.95;165.4;155.33;0.91;0.96;22.8;.00;4.36;4.37;84;44;451.2;15.7;-2.8;D;662.2;8;11.251;2;2.05;179;149.39;-80.13714428;25.91177589;0;0;1;N;0.9835193;62;62;11;95;95;147.4064;0;9999.99;4.37;4.497;2;9;22.2;0;22.2000007629395;36.21;1528.69467;01/30/21;12:54:48;21.85;54.62;36.21;1.176;8.45;-84.5;-3.0;-7.2;-3420;90.8;6.45;13.3;;
25.9118506811744;-80.1371971339812;13:15:52.78;1/30/2021;9;2.089;160.02;-7.05677528663452;0.95;164.1;154.07;0.9;4.18;22.8;.00;4.36;4.37;84;43;451.2;15.7;-2.7;D;688.7;8;9.854;2;2.06;179;147.56;-80.13714428;25.91177589;0;0;1;N;1.177746;62;62;11;95;95;146.0396;0;9999.99;4.37;4.497;2;9;22.2;0;22.2000007629395;36.21;1528.69467;01/30/21;12:54:48;21.85;54.62;36.21;1.176;8.45;-84.5;-3.0;-7.2;-3420;90.8;6.45;13.3;;
25.9118402410861;-80.1371927670939;13:15:53.91;1/30/2021;9;2.029;159.18;-7.05677528663452;0.95;163.6;153.58;0.91;2.42;22.8;.01;4.36;4.37;84;43;451.2;15.7;-2.7;D;688.7;8;8.644;2;2.06;179;145.87;-80.13714428;25.91177589;0;0;1;N;1.286983;62;62;11;94;94;145.2755;0;9999.99;4.37;4.497;2;9;22.2;0;22.2000007629395;36.21;1528.69447;01/30/21;12:54:49;21.85;54.62;36.21;1.183;8.46;-85.1;-3.8;-5.7;-2633;90.7;6.45;13.2;;
25.9118313997265;-80.137189623335;13:15:54.97;1/30/2021;9;2.053;158.92;-7.05677528663452;0.95;162.2;152.22;0.44;2.42;22.8;.00;4.34;4.34;84;43;451.2;15.7;-2.7;D;686.5;8;7.660;2;2.06;179;143.69;-80.13714428;25.91177589;0;0;1;N;1.428587;60;60;11;95;95;144.2894;0;9999.99;4.34;4.467;2;9;22.2;0;22.2000007629395;36.21;1528.69475;01/30/21;12:54:50;21.85;54.62;36.21;1.187;8.53;-88.9;-4.5;-6.9;-1976;90.7;6.44;13.2;;
25.9118235550052;-80.1371861422654;13:15:55.97;1/30/2021;9;2.069;155.82;-7.05677528663452;0.95;161.1;151.16;1.16;2.95;22.8;.00;4.35;4.35;84;43;451.2;15.7;-2.7;D;686.5;8;6.754;2;2.05;179;141.69;-80.13714428;25.91177589;0;0;1;N;1.492665;64;64;11;96;96;143.8462;0;9999.99;4.35;4.477;2;9;22.2;0;22.2000007629395;36.22;1528.7055;01/30/21;12:54:52;21.84;54.63;36.22;1.238;8.45;-84.8;-2.8;-7.0;-3302;90.7;6.44;13.3;;
25.9118158779866;-80.1371828470534;13:15:56.97;1/30/2021;9;1.895;155.16;-7.05677528663452;0.95;160;150.09;1.11;2.21;22.8;.00;4.29;4.29;84;43;451.2;15.7;-2.7;D;686.5;8;5.888;2;2.05;179;139.06;-80.13714428;25.91177589;0;0;1;N;1.570091;64;64;11;100;100;143.31;0;9999.99;4.29;4.417;2;9;22.2;0;22.2000007629395;36.22;1528.7055;01/30/21;12:54:52;21.84;54.63;36.22;1.238;8.45;-84.8;-2.8;-7.0;-3302;90.7;6.44;13.3;;
25.9118074250841;-80.1371787509975;13:15:57.98;1/30/2021;9;2.103;154.96;-7.05677528663452;0.95;158.9;149.03;0.55;2.58;22.8;.00;4.32;4.33;84;42;451.1;15.7;-2.6;D;701.9;8;4.917;2;2.06;179;135.49;-80.13714428;25.91177589;0;0;1;N;1.608949;60;60;11;103;103;143.0428;0;9999.99;4.33;4.457;2;9;22.2;0;22.2000007629395;36.21;1528.6944;01/30/21;12:54:53;21.84;54.62;36.21;1.191;8.51;-87.8;-3.1;-3.5;-2664;90.7;6.44;13.2;;
25.9117985734727;-80.1371741353798;13:15:59.00;1/30/2021;9;1.97;154.26;-7.05677528663452;0.95;158.7;148.84;0.4;2.97;22.8;.00;4.35;4.36;84;42;451.1;15.7;-2.6;D;701.9;9;14.798;2;2.09;179;166.84;-80.13714046;25.91166899;0;0;1;N;2.962069;59;59;11;180;180;161.7765;0;9999.99;4.36;4.487;2;9;22.2;0;22.2000007629395;36.23;1528.71682;01/30/21;12:54:55;21.84;54.64;36.23;1.188;8.45;-84.8;-2.8;-3.2;-1976;90.6;6.44;13.2;;
25.9117895215793;-80.1371689494445;13:16:00.00;1/30/2021;9;2.139;153.59;-7.05677528663452;0.95;163;153;0.24;6.54;22.7;.00;4.36;4.36;84;42;451.1;15.7;-2.6;D;701.9;9;13.702;2;2.1;179;168;-80.13714046;25.91166899;0;0;1;N;2.468861;59;59;11;172;172;163.2052;0;9999.99;4.36;4.487;2;9;22.2;0;22.2000007629395;36.23;1528.71682;01/30/21;12:54:55;21.84;54.64;36.23;1.188;8.45;-84.8;-2.8;-3.2;-1976;90.6;6.44;13.2;;
25.9117797243705;-80.1371637666523;13:16:01.00;1/30/2021;9;2.221;151.76;-7.05677528663452;0.95;164;153.97;1.01;1.49;22.7;.00;4.36;4.37;84;42;451.1;15.7;-2.6;D;701.9;9;12.532;2;2.08;179;169.28;-80.13714046;25.91166899;0;0;1;N;1.987535;63;63;11;172;172;165.3262;0;9999.99;4.37;4.497;2;9;22.2;0;22.2000007629395;36.22;1528.70555;01/30/21;12:54:56;21.84;54.63;36.22;1.217;8.47;-85.6;-4.4;-4.5;-727;90.6;6.44;13.3;;
25.9117719692519;-80.1371608014515;13:16:02.00;1/30/2021;9;1.967;153.98;-7.05677528663452;0.95;170.1;159.94;0.91;3.57;22.8;.01;4.37;4.38;84;40;451.1;15.7;-2.5;D;733.1;9;11.630;2;2.08;179;169.93;-80.13714046;25.91166899;0;0;1;N;1.705762;62;62;11;152;152;166.1225;0;9999.99;4.38;4.507;2;9;22.2;0;22.2000007629395;36.24;1528.72767;01/30/21;12:54:58;21.85;54.66;36.24;1.210;8.45;-84.3;-3.5;-7.5;-4467;90.6;6.44;13.3;;
25.9117629680802;-80.1371571753831;13:16:03.00;1/30/2021;9;1.985;157.62;-7.05677528663452;0.95;172.8;162.6;1.17;0.71;22.8;.00;4.36;4.37;84;40;451.1;15.7;-2.5;D;733.1;9;10.583;2;2.05;179;170.91;-80.13714046;25.91166899;0;0;1;N;1.369511;65;65;11;156;156;168.4465;0;9999.99;4.37;4.497;2;9;22.2;0;22.2000007629395;36.23;1528.71696;01/30/21;12:54:59;21.85;54.64;36.23;1.204;8.47;-85.6;-2.1;-5.1;-1342;90.7;6.44;13.1;;
25.9117516481909;-80.1371547712028;13:16:04.20;1/30/2021;9;1.872;160.29;-7.05677528663452;0.95;176.8;166.57;1.45;4.15;22.8;.00;4.35;4.35;84;40;451.1;15.7;-2.5;D;733.1;9;9.302;2;2.03;179;171.15;-80.13714046;25.91166899;0;0;1;N;1.198714;64;64;11;140;140;169.6373;0;9999.99;4.36;4.487;2;9;22.2;0;22.2000007629395;36.23;1528.71662;01/30/21;12:55:00;21.85;54.64;36.23;1.205;8.46;-85.4;-5.2;-5.7;-6462;90.6;6.44;13.3;;
