Latitude;Longitude;Time;Date;Number of Sats;GPS Speed (Kn);GPS True Heading;GPS Magnetic Variation;HDOP;C Magnetic Heading;C True Heading;Pitch Angle;Roll Angle;C Inside Temp (c);DFS Depth (m);DTB Height (m);Total Water Column (m);Batt Percent;Power Watts;Watt-Hours;Batt Volts;Batt Ampers;Batt State;Time to Empty;Current Step;Dist To Next (m);Next Speed (kn);Vehicle Speed (kn);Motor Speed CMD;Next Heading;Next Long;Next Lat;Next Depth (m);Depth Goal (m);Vehicle State;Error State;Distance to Track (m);Fin Pitch R;Fin Pitch L;Pitch Goal;Fin Yaw T;Fin Yaw B;Yaw Goal;Fin Roll;DVL-Depth (m);DVL -Altitude (m);DVL -Water Column (m);DVL-FixType;DVL-FixQuality;DVL-Temperature;Conductivity (mmhos/cm);Temperature (c);Salinity (ppt);Sound Speed (m/s);Date m/d/y   ;Time hh:mm:ss;Temp C;SpCond mS/cm;Sal ppt;Depth feet;pH;pH mV;Turbid+ NTU;Chl ug/L;BGA-PC cells/mL;ODOsat %;ODO mg/L;Battery volts;ROSEM Command Type;
25.9127856666667;-80.1378455;13:57:20.05;1/30/2021;7;0.049;8.99;-7.05681789004123;1.27;173.8;163.59;1.07;-2.37;23.9;.01;3.14;3.16;82;20;443.5;15.7;-1.3;D;1398.9;0;4.053;2;0;128;158.45;-80.13783061;25.91275176;0;0;1;N;2.722603;63;63;11;250;250;269.965;0;9999.99;3.15;3.277;2;9;23;0;23;36.14;1530.66456;01/30/21;13:36:16;21.96;54.52;36.14;1.046;8.50;-87.4;-2.4;-2.9;-1928;96.7;6.86;13.1;;
25.9127861666667;-80.1378453333333;13:57:21.09;1/30/2021;7;0.065;8.99;-7.05681789004123;1.27;173.3;163.09;0.56;-3.28;23.9;.02;3.15;3.17;82;20;443.5;15.7;-1.3;D;1398.9;0;4.053;2;0;128;158.45;-80.13783061;25.91275176;0;0;1;N;2.722603;60;60;11;250;250;269.965;0;9999.99;3.15;3.277;2;9;23;0;23;36.14;1530.66447;01/30/21;13:36:17;21.96;54.52;36.14;1.066;8.50;-87.3;-2.3;-5.1;-4038;96.6;6.86;13.2;;
25.9127865167914;-80.137846158626;13:57:22.09;1/30/2021;7;0.076;8.99;-7.05681789004123;1.27;173;162.8;2.46;0.07;23.9;.01;3.14;3.15;82;22;443.5;15.7;-1.4;D;1286.6;1;39.527;2;0.02;174;135.94;-80.13757133;25.91253107;0;0;1;N;1.737314;69;69;11;40;40;140.7478;0;9999.99;3.16;3.287;2;9;23;0;23;36.16;1530.6862;01/30/21;13:36:19;21.96;54.55;36.16;1.066;8.50;-87.3;-4.1;-4.5;-2357;96.2;6.82;13.1;;
25.912784762512;-80.1378461347709;13:57:23.11;1/30/2021;7;0.462;8.99;-7.05681789004123;1.27;173.3;163.09;0.89;0.96;23.9;.01;3.14;3.15;82;22;443.5;15.7;-1.4;D;1286.6;1;39.385;2;0.15;174;135.75;-80.13757133;25.91253107;0;0;1;N;1.602537;62;62;11;36;36;140.2727;0;9999.99;3.15;3.277;2;9;23;0;23;36.17;1530.69695;01/30/21;13:36:20;21.96;54.57;36.17;1.070;8.49;-87.1;-2.8;-0.7;-4573;96.0;6.81;13.3;;
25.9127808413664;-80.1378463908537;13:57:24.11;1/30/2021;7;0.811;8.99;-7.05681789004123;1.27;173.5;163.29;1.01;-1.72;23.9;.01;3.13;3.14;82;22;443.5;15.7;-1.4;D;1286.6;1;39.092;2;0.44;174;135.27;-80.13757133;25.91253107;0;0;1;N;1.278346;63;63;11;30;30;139.05;0;9999.99;3.14;3.267;2;9;23;0;23;36.17;1530.69695;01/30/21;13:36:20;21.96;54.57;36.17;1.070;8.49;-87.1;-2.8;-0.7;-4573;96.0;6.81;13.3;;
25.9127752414671;-80.137845363247;13:57:25.11;1/30/2021;7;1.258;121.73;-7.05681789004123;1.27;172.6;162.4;0.58;0;23.9;.00;3.08;3.09;82;22;443.5;15.7;-1.4;D;1286.6;1;38.579;2;0.44;174;134.73;-80.13757133;25.91253107;0;0;1;N;0.894718;60;60;11;27;27;137.5939;0;9999.99;3.09;3.217;2;9;23;0;23;36.15;1530.67424;01/30/21;13:36:21;21.98;54.54;36.15;1.129;8.50;-87.4;-3.2;-4.4;-3091;95.9;6.80;13.2;;
25.9127689720675;-80.1378424015725;13:57:26.13;1/30/2021;7;1.348;143.44;-7.05681789004123;1.27;166.6;156.51;1.64;-14.5;23.9;.00;2.85;2.85;82;39;443.4;15.7;-2.5;D;732.3;1;37.879;2;1.06;174;134.3;-80.13757133;25.91253107;0;0;1;N;0.6028565;67;67;11;47;47;136.4685;0;9999.99;2.87;2.992833;2;9;23;0;23;36.14;1530.66317;01/30/21;13:36:23;21.96;54.52;36.14;1.063;8.50;-87.2;-3.9;-3.7;-3250;95.6;6.78;13.1;;
25.9127614244908;-80.1378404480654;13:57:27.13;1/30/2021;7;1.589;159.16;-7.05681789004123;1.27;168;157.88;0.76;7.59;23.9;.00;2.98;2.99;82;39;443.4;15.7;-2.5;D;732.3;1;37.156;2;1.25;174;133.58;-80.13757133;25.91253107;0;0;1;N;0.1388089;62;62;11;32;32;134.1916;0;9999.99;2.99;3.117;2;9;23;0;23;36.14;1530.66317;01/30/21;13:36:23;21.96;54.52;36.14;1.063;8.50;-87.2;-3.9;-3.7;-3250;95.6;6.78;13.1;;
25.9127536553424;-80.1378370078336;13:57:28.13;1/30/2021;7;1.713;161.22;-7.05681789004123;1.27;161;151.06;0.92;-1.56;23.9;.00;2.96;2.96;82;39;443.4;15.7;-2.5;D;732.3;1;36.313;2;1.4;174;132.97;-80.13757133;25.91253107;0;0;1;N;0.260477;63;63;11;50;50;131.7737;0;9999.99;2.97;3.097;2;9;23;0;23;36.14;1530.66314;01/30/21;13:36:24;21.94;54.53;36.14;1.152;8.49;-87.1;-3.8;-1.2;-2643;95.4;6.77;13.2;;
25.912746062521;-80.1378337562667;13:57:29.13;1/30/2021;7;1.758;159.04;-7.05681789004123;1.27;154.7;145;1.96;6.18;23.9;.00;2.97;2.98;82;40;443.4;15.7;-2.6;D;707.5;1;35.502;2;1.5;174;132.33;-80.13757133;25.91253107;0;0;1;N;0.6628999;69;69;11;62;62;128.6474;0;9999.99;2.99;3.117;2;9;23;0;23;36.17;1530.69604;01/30/21;13:36:26;21.92;54.56;36.17;1.092;8.50;-87.3;-2.3;-1.3;-2300;95.0;6.74;13.3;;
25.9127380136185;-80.1378285249577;13:57:30.14;1/30/2021;7;1.861;153.3;-7.05681789004123;1.27;149.4;139.95;1.47;2.74;23.9;.01;2.97;2.98;82;40;443.4;15.7;-2.6;D;707.5;1;34.514;2;1.65;174;131.81;-80.13757133;25.91253107;0;0;1;N;0.9596018;66;66;11;74;74;126.5784;0;9999.99;2.99;3.117;2;9;23;0;23;36.16;1530.68534;01/30/21;13:36:27;21.91;54.55;36.16;1.098;8.49;-87.1;-3.1;-3.2;-4122;94.8;6.73;13.1;;
25.9127311605744;-80.1378242711554;13:57:31.17;1/30/2021;7;1.857;150.49;-7.05681789004123;1.27;144.5;135.32;1.84;4.02;23.9;.00;3.21;3.22;82;39;443.4;15.7;-2.5;D;733.4;1;33.690;2;1.71;174;131.33;-80.13757133;25.91253107;0;0;1;N;1.22782;69;69;11;82;82;124.6933;0;9999.99;3.23;3.357;2;9;22.9;0;23;36.16;1530.68534;01/30/21;13:36:27;21.91;54.55;36.16;1.098;8.49;-87.1;-3.1;-3.2;-4122;94.8;6.73;13.1;;
25.9127239733916;-80.1378174039892;13:57:32.19;1/30/2021;7;1.855;145.61;-7.05681789004123;1.27;141.1;132.12;1.65;3.75;23.9;.00;3.27;3.27;82;39;443.4;15.7;-2.5;D;733.4;1;32.647;2;1.78;174;131.07;-80.13757133;25.91253107;0;0;1;N;1.342644;67;67;11;94;94;123.8916;0;9999.99;3.28;3.407;2;9;22.9;0;22.8999996185303;36.17;1530.44311;01/30/21;13:36:28;21.91;54.56;36.17;1.074;8.49;-87.1;-3.9;-1.9;-3494;94.7;6.72;13.2;;
25.9127176792571;-80.1378116979662;13:57:33.20;1/30/2021;7;1.949;141.73;-7.05681789004123;1.27;138.1;129.31;1.49;3.45;24;.00;3.30;3.30;82;39;443.4;15.7;-2.5;D;733.4;1;31.757;2;1.84;174;130.8;-80.13757133;25.91253107;0;0;1;N;1.46278;66;66;11;102;102;123.0575;0;9999.99;3.31;3.437;2;9;22.9;0;22.8999996185303;36.17;1530.44308;01/30/21;13:36:29;21.91;54.56;36.17;1.119;8.50;-87.4;-3.8;0.6;-2287;94.5;6.71;13.2;;
25.9127103406056;-80.1378033346723;13:57:34.22;1/30/2021;7;1.923;137.85;-7.05681789004123;1.27;137.6;128.84;1.55;2.01;23.9;.00;3.33;3.33;82;38;443.4;15.7;-2.4;D;752.2;1;30.591;2;1.87;174;130.66;-80.13757133;25.91253107;0;0;1;N;1.480949;66;66;11;104;104;122.9316;0;9999.99;3.34;3.467;2;9;22.9;0;22.8999996185303;36.18;1530.45379;01/30/21;13:36:31;21.91;54.57;36.18;1.075;8.50;-87.3;-2.9;-6.2;1;94.3;6.69;13.1;;
25.9127026906858;-80.1377940424818;13:57:35.53;1/30/2021;7;1.893;135.99;-7.05681789004123;1.27;135.8;127.16;0.99;3.12;23.9;.00;3.34;3.34;82;38;443.4;15.7;-2.4;D;752.2;1;29.332;2;1.9;174;130.59;-80.13757133;25.91253107;0;0;1;N;1.511743;63;63;11;110;110;122.718;0;9999.99;3.35;3.477;2;9;22.9;0;22.8999996185303;36.18;1530.45385;01/30/21;13:36:32;21.91;54.57;36.18;1.109;8.50;-87.5;-4.9;-6.6;-1178;94.2;6.69;13.2;;
25.9126959205083;-80.1377857826198;13:57:36.53;1/30/2021;7;1.957;134.96;-7.05681789004123;1.27;134.9;126.32;1.46;2.9;23.9;.00;3.39;3.39;82;38;443.4;15.7;-2.4;D;752.2;1;28.214;2;1.95;174;130.52;-80.13757133;25.91253107;0;0;1;N;1.442547;64;64;11;114;114;123.1976;0;9999.99;3.40;3.527;2;9;22.9;0;22.8999996185303;36.18;1530.45385;01/30/21;13:36:32;21.91;54.57;36.18;1.109;8.50;-87.5;-4.9;-6.6;-1178;94.2;6.69;13.2;;
25.9126896110114;-80.1377768901592;13:57:37.56;1/30/2021;7;1.932;132.21;-7.05681789004123;1.27;134.1;125.58;1.08;2.77;24;.00;3.41;3.41;82;38;443.4;15.7;-2.4;D;752.2;1;27.083;2;1.94;174;130.61;-80.13757133;25.91253107;0;0;1;N;1.35303;63;63;11;120;120;123.82;0;9999.99;3.42;3.547;2;9;22.9;0;22.8999996185303;36.2;1530.47583;01/30/21;13:36:33;21.92;54.61;36.20;1.082;8.50;-87.5;-4.1;-0.1;-3418;94.0;6.67;13.1;;
25.9126837499281;-80.1377693142972;13:57:38.64;1/30/2021;7;1.98;131.45;-7.05681789004123;1.27;134.2;125.67;0.86;3.34;23.9;.00;3.42;3.42;82;39;443.4;15.7;-2.5;D;736.5;1;26.083;2;1.94;174;130.61;-80.13757133;25.91253107;0;0;1;N;1.29572;63;63;11;121;121;124.2192;0;9999.99;3.43;3.557;2;9;22.8;0;22.7999992370605;36.18;1530.19988;01/30/21;13:36:35;21.93;54.58;36.18;1.124;8.50;-87.2;-3.5;-3.4;-1311;93.9;6.66;13.1;;
25.9126778783911;-80.1377611507203;13:57:39.66;1/30/2021;7;1.946;130.29;-7.05681789004123;1.27;133.9;125.39;1.2;3;23.9;.00;3.44;3.44;82;39;443.4;15.7;-2.5;D;736.5;1;25.038;2;1.97;174;130.69;-80.13757133;25.91253107;0;0;1;N;1.213921;64;64;11;125;125;124.7913;0;9999.99;3.45;3.577;2;9;22.9;0;22.7999992370605;36.18;1530.19988;01/30/21;13:36:35;21.93;54.58;36.18;1.124;8.50;-87.2;-3.5;-3.4;-1311;93.9;6.66;13.1;;
25.9126718837847;-80.1377530119942;13:57:40.67;1/30/2021;7;2.002;129.74;-7.05681789004123;1.27;134.3;125.77;1.25;2.62;23.9;.00;3.46;3.46;82;39;443.4;15.7;-2.5;D;736.5;1;23.987;2;1.98;174;130.75;-80.13757133;25.91253107;0;0;1;N;1.130707;64;64;11;126;126;125.3747;0;9999.99;3.47;3.597;2;9;22.8;0;22.8999996185303;36.18;1530.45375;01/30/21;13:36:36;21.94;54.58;36.18;1.146;8.50;-87.5;-3.2;-1.8;-3772;93.8;6.66;13.4;;
25.9126656900096;-80.1377444501916;13:57:41.69;1/30/2021;7;1.946;128.58;-7.05681789004123;1.27;134.3;125.77;0.76;2.58;23.9;.00;3.50;3.50;82;38;443.3;15.7;-2.4;D;759.2;1;22.888;2;1.94;174;130.84;-80.13757133;25.91253107;0;0;1;N;1.043113;62;62;11;128;128;125.9908;0;9999.99;3.51;3.637;2;9;22.8;0;22.7999992370605;36.18;1530.19989;01/30/21;13:36:38;21.94;54.58;36.18;1.072;8.50;-87.3;-3.8;-1.6;-1457;93.6;6.64;13.2;;
25.9126593433864;-80.1377365985471;13:57:42.69;1/30/2021;7;1.993;129.05;-7.05681789004123;1.27;134;125.49;0.98;4.13;23.9;.00;3.50;3.50;82;38;443.3;15.7;-2.4;D;759.2;1;21.833;2;1.95;174;130.79;-80.13757133;25.91253107;0;0;1;N;1.017511;63;63;11;130;130;126.1711;0;9999.99;3.51;3.637;2;9;22.8;0;22.7999992370605;36.18;1530.19989;01/30/21;13:36:38;21.94;54.58;36.18;1.072;8.50;-87.3;-3.8;-1.6;-1457;93.6;6.64;13.2;;
25.9126538298886;-80.1377295455696;13:57:43.70;1/30/2021;7;1.996;129.21;-7.05681789004123;1.27;134.8;126.23;1.24;2.03;23.9;.00;3.52;3.52;82;38;443.3;15.7;-2.4;D;759.2;1;20.898;2;1.92;174;130.78;-80.13757133;25.91253107;0;0;1;N;0.9744379;64;64;11;128;128;126.4749;0;9999.99;3.53;3.657;2;9;22.8;0;22.7999992370605;36.18;1530.19984;01/30/21;13:36:39;21.94;54.58;36.18;1.100;8.50;-87.5;-3.7;-2.7;-2733;93.6;6.64;13.0;;
25.9126481168741;-80.1377225563762;13:57:44.72;1/30/2021;7;1.932;129.84;-7.05681789004123;1.27;134.3;125.77;1.14;2.53;23.9;.00;3.54;3.54;82;38;443.3;15.7;-2.4;D;759.2;1;19.954;2;1.93;174;130.71;-80.13757133;25.91253107;0;0;1;N;0.9563572;64;64;11;130;130;126.6024;0;9999.99;3.55;3.677;2;9;22.8;0;22.7999992370605;36.18;1530.19985;01/30/21;13:36:41;21.94;54.58;36.18;1.095;8.50;-87.3;-3.7;-2.6;-3435;93.5;6.63;13.3;;
25.9126414661199;-80.1377138755541;13:57:45.73;1/30/2021;7;1.965;130.47;-7.05681789004123;1.27;134.9;126.32;1.08;2.86;23.9;.00;3.55;3.55;82;38;443.3;15.7;-2.4;D;753.2;1;18.813;2;1.97;174;130.73;-80.13757133;25.91253107;0;0;1;N;0.8983598;63;63;11;130;130;127.0124;0;9999.99;3.56;3.687;2;9;22.8;0;22.7999992370605;36.18;1530.19985;01/30/21;13:36:41;21.94;54.58;36.18;1.095;8.50;-87.3;-3.7;-2.6;-3435;93.5;6.63;13.3;;
25.9126350363627;-80.1377063627593;13:57:46.78;1/30/2021;7;1.961;130.71;-7.05681789004123;1.27;135.5;126.88;1.17;2.39;23.9;.00;3.57;3.57;82;38;443.3;15.7;-2.4;D;759.7;1;17.778;2;1.98;174;130.56;-80.13757133;25.91253107;0;0;1;N;0.9007248;64;64;11;128;128;126.9957;0;9999.99;3.58;3.707;2;9;22.8;0;22.7999992370605;36.17;1530.1889;01/30/21;13:36:43;21.94;54.57;36.17;1.121;8.50;-87.2;-3.9;0.5;-4397;93.5;6.63;13.1;;
25.9126289510989;-80.1376986806459;13:57:47.80;1/30/2021;7;1.95;130.42;-7.05681789004123;1.27;135.1;126.51;1.54;2.4;23.9;.00;3.59;3.59;82;38;443.3;15.7;-2.4;D;759.7;1;16.754;2;1.97;174;130.51;-80.13757133;25.91253107;0;0;1;N;0.8632504;66;66;11;130;130;127.2609;0;9999.99;3.60;3.727;2;9;22.8;0;22.7999992370605;36.18;1530.1999;01/30/21;13:36:44;21.94;54.58;36.18;1.132;8.50;-87.6;-3.6;-0.1;-2143;93.4;6.63;13.2;;
25.9126225850699;-80.1376903060753;13:57:48.80;1/30/2021;7;1.978;130.78;-7.05681789004123;1.27;135.5;126.88;0.98;2.62;23.9;.00;3.61;3.61;82;38;443.3;15.7;-2.4;D;759.7;1;15.657;2;1.98;174;130.54;-80.13757133;25.91253107;0;0;1;N;0.8040344;62;62;11;130;130;127.6804;0;9999.99;3.62;3.747;2;9;22.8;0;22.7999992370605;36.18;1530.19991;01/30/21;13:36:45;21.94;54.58;36.18;1.091;8.50;-87.5;-4.1;-2.3;-2087;93.3;6.62;13.3;;
25.912616985747;-80.1376834361523;13:57:49.80;1/30/2021;7;1.893;131.01;-7.05681789004123;1.27;136.4;127.72;1.07;2.03;23.9;.00;3.60;3.60;82;38;443.3;15.7;-2.4;D;759.7;1;14.730;2;1.97;174;130.43;-80.13757133;25.91253107;0;0;1;N;0.7799172;63;63;11;127;127;127.8514;0;9999.99;3.61;3.737;2;9;22.8;0;22.7999992370605;36.19;1530.21082;01/30/21;13:36:46;21.93;54.59;36.19;1.149;8.50;-87.4;-5.0;-2.8;-1669;93.2;6.61;13.2;;
25.9126110512602;-80.1376763131686;13:57:50.80;1/30/2021;7;1.944;131.6;-7.05681789004123;1.27;136.7;128;0.95;2.95;23.8;.00;3.61;3.61;82;38;443.3;15.7;-2.4;D;761.8;1;13.760;2;1.98;174;130.26;-80.13757133;25.91253107;0;0;1;N;0.7686638;64;64;11;127;127;127.9312;0;9999.99;3.62;3.747;2;9;22.8;0;22.7999992370605;36.18;1530.1999;01/30/21;13:36:47;21.93;54.58;36.18;1.167;8.50;-87.2;-4.0;-4.9;-3495;93.1;6.60;13.1;;
25.9126052337369;-80.1376679826565;13:57:51.80;1/30/2021;7;1.99;129.73;-7.05681789004123;1.27;137.7;128.94;0.97;1.54;23.8;.00;3.64;3.64;82;38;443.3;15.7;-2.4;D;761.8;1;12.707;2;1.98;174;130.47;-80.13757133;25.91253107;0;0;1;N;0.6639953;63;63;11;126;126;128.6749;0;9999.99;3.65;3.777;2;9;22.8;0;22.7999992370605;36.18;1530.19991;01/30/21;13:36:48;21.94;54.58;36.18;1.121;8.50;-87.7;-3.9;-3.3;-2260;93.0;6.60;13.2;;
25.9125984506689;-80.1376593419754;13:57:52.81;1/30/2021;7;1.993;129.87;-7.05681789004123;1.27;137.7;128.94;1.03;3.05;23.9;.00;3.64;3.64;82;38;443.3;15.7;-2.4;D;761.8;1;11.560;2;1.99;174;130.4;-80.13757133;25.91253107;0;0;1;N;0.6191317;63;63;11;127;127;128.9941;0;9999.99;3.65;3.777;2;9;22.8;0;22.7999992370605;36.19;1530.21086;01/30/21;13:36:49;21.94;54.59;36.19;1.087;8.50;-87.2;-4.5;-5.3;-4927;92.8;6.59;13.3;;
25.9125924004287;-80.1376521743728;13:57:53.84;1/30/2021;7;1.973;131.94;-7.05681789004123;1.27;138.3;129.5;1.27;1.02;23.9;.00;3.63;3.63;82;38;443.2;15.7;-2.4;D;754.3;1;10.578;2;1.96;174;130.14;-80.13757133;25.91253107;0;0;1;N;0.6128553;65;65;11;125;125;129.039;0;9999.99;3.64;3.767;2;9;22.8;0;22.7999992370605;36.18;1530.19986;01/30/21;13:36:50;21.93;54.57;36.18;1.084;8.50;-87.3;-4.0;-5.3;-3011;92.8;6.58;13.2;;
25.9125863970211;-80.1376446922166;13:57:54.88;1/30/2021;7;1.961;132.52;-7.05681789004123;1.27;139.3;130.43;0.89;2.29;23.9;.00;3.65;3.65;82;38;443.2;15.7;-2.4;D;754.3;1;9.575;2;1.94;174;129.98;-80.13757133;25.91253107;0;0;1;N;0.5821396;64;64;11;123;123;129.2577;0;9999.99;3.66;3.787;2;9;22.8;0;22.7999992370605;36.18;1530.19995;01/30/21;13:36:51;21.93;54.58;36.18;1.074;8.50;-87.4;-3.3;-3.5;-2500;92.8;6.58;13.1;;
25.9125799441036;-80.1376369358691;13:57:55.88;1/30/2021;7;1.921;132.41;-7.05681789004123;1.27;139.8;130.9;1.11;1.89;23.9;.00;3.66;3.66;82;38;443.2;15.7;-2.4;D;754.3;1;8.520;2;1.94;174;129.63;-80.13757133;25.91253107;0;0;1;N;0.5709208;64;64;11;121;121;129.3374;0;9999.99;3.67;3.797;2;9;22.8;0;22.7999992370605;36.19;1530.21085;01/30/21;13:36:52;21.93;54.59;36.19;1.142;8.50;-87.5;-3.0;-2.1;-3250;92.7;6.58;13.2;;
25.9125740538266;-80.1376299997732;13:57:56.88;1/30/2021;7;1.983;132.92;-7.05681789004123;1.27;139.6;130.71;1.75;2.22;23.8;.00;3.63;3.63;82;38;443.2;15.7;-2.4;D;754.3;1;7.568;2;1.97;174;129.16;-80.13757133;25.91253107;0;0;1;N;0.5707582;67;67;11;121;121;129.3387;0;9999.99;3.64;3.767;2;9;22.8;0;22.7999992370605;36.19;1530.21085;01/30/21;13:36:53;21.93;54.59;36.19;1.126;8.50;-87.2;-5.2;-5.1;-3952;92.6;6.57;13.2;;
25.9125678586188;-80.1376233192118;13:57:57.88;1/30/2021;7;1.917;134.73;-7.05681789004123;1.27;140;131.09;1.4;2.28;23.9;.00;3.65;3.65;82;38;443.2;15.7;-2.4;D;757.6;1;6.616;2;1.97;174;128.19;-80.13757133;25.91253107;0;0;1;N;0.6087051;65;65;11;119;119;129.0684;0;9999.99;3.66;3.787;2;9;22.8;0;22.7999992370605;36.18;1530.20006;01/30/21;13:36:54;21.93;54.58;36.18;1.086;8.50;-87.5;-4.2;-4.4;-1315;92.5;6.56;13.1;;
25.9125610964371;-80.1376160194922;13:57:58.88;1/30/2021;7;1.954;136.58;-7.05681789004123;1.27;140.5;131.56;1.62;2.17;23.9;.00;3.67;3.67;82;38;443.2;15.7;-2.4;D;757.6;1;5.579;2;1.96;174;126.76;-80.13757133;25.91253107;0;0;1;N;0.6504851;65;65;11;114;114;128.771;0;9999.99;3.68;3.807;2;9;22.8;0;22.7999992370605;36.19;1530.21099;01/30/21;13:36:55;21.93;54.59;36.19;1.079;8.50;-87.2;-3.8;-4.0;-2206;92.5;6.56;13.2;;
25.9125545652906;-80.1376090334433;13:57:59.88;1/30/2021;7;1.879;136.29;-7.05681789004123;1.27;141.8;132.78;1.14;5.13;23.9;.00;3.67;3.67;82;38;443.2;15.7;-2.4;D;757.6;2;21.195;2;1.99;174;149.88;-80.13750269;25.91238969;0;0;1;N;2.461919;64;64;11;176;176;145.0049;0;9999.99;3.68;3.807;2;9;22.8;0;22.7999992370605;36.19;1530.21096;01/30/21;13:36:56;21.93;54.59;36.19;1.096;8.50;-87.4;-3.8;-4.7;-3761;92.4;6.56;13.2;;
25.9125477322501;-80.1376026170558;13:58:00.88;1/30/2021;7;1.901;135.57;-7.05681789004123;1.27;146;136.73;1.44;0.36;23.9;.00;3.67;3.67;82;38;443.2;15.7;-2.4;D;757.6;2;20.217;2;1.94;174;150.37;-80.13750269;25.91238969;0;0;1;N;2.170038;66;66;11;162;162;145.4622;0;9999.99;3.68;3.807;2;9;22.8;0;22.7999992370605;36.18;1530.19994;01/30/21;13:36:57;21.93;54.58;36.18;1.150;8.50;-87.5;-4.1;-1.9;-2987;92.4;6.56;13.2;;
25.9125411249012;-80.1375962980207;13:58:01.88;1/30/2021;7;1.855;135.31;-7.05681789004123;1.27;148.4;139;1.77;1.45;23.9;.00;3.67;3.67;82;37;443.2;15.7;-2.3;D;769.9;2;19.267;2;1.92;174;150.93;-80.13750269;25.91238969;0;0;1;N;1.874204;68;68;11;155;155;146.0383;0;9999.99;3.68;3.807;2;9;22.8;0;22.7999992370605;36.19;1530.21104;01/30/21;13:36:58;21.92;54.59;36.19;1.142;8.50;-87.4;-4.5;-4.9;-2564;92.4;6.55;13.2;;
25.912533868484;-80.1375905403538;13:58:02.88;1/30/2021;7;1.85;139.02;-7.05681789004123;1.27;152.5;142.9;2.27;1.16;23.8;.00;3.67;3.67;82;37;443.2;15.7;-2.3;D;769.9;2;18.282;2;1.87;175;151.27;-80.13750269;25.91238969;0;0;1;N;1.665853;70;70;11;141;141;146.19;0;9999.99;3.68;3.807;2;9;22.8;0;22.7999992370605;36.18;1530.20008;01/30/21;13:36:59;21.92;54.57;36.18;1.100;8.50;-87.2;-3.8;-1.6;-3564;92.4;6.56;13.1;;
25.9125272545132;-80.1375853638936;13:58:03.88;1/30/2021;7;1.797;142.5;-7.05681789004123;1.27;154.4;144.71;1.63;1.77;23.9;.00;3.69;3.69;82;37;443.2;15.7;-2.3;D;769.9;2;17.388;2;1.87;175;151.61;-80.13750269;25.91238969;0;0;1;N;1.481471;67;67;11;133;133;146.3019;0;9999.99;3.71;3.837;2;9;22.8;0;22.7999992370605;36.18;1530.20008;01/30/21;13:37:00;21.92;54.58;36.18;1.046;8.50;-87.4;-3.4;-0.7;-2873;92.4;6.56;13.3;;
25.9125205100221;-80.1375802092756;13:58:04.88;1/30/2021;7;1.844;143.31;-7.05681789004123;1.27;156.9;147.11;0.9;1.23;23.9;.00;3.68;3.68;82;38;443.2;15.6;-2.4;D;755.3;2;16.484;2;1.85;175;151.94;-80.13750269;25.91238969;0;0;1;N;1.30152;62;62;11;127;127;147.1718;0;9999.99;3.70;3.827;2;9;22.8;0;22.7999992370605;36.19;1530.2109;01/30/21;13:37:01;21.92;54.59;36.19;1.124;8.50;-87.5;-4.2;-5.0;-2373;92.4;6.56;13.2;;
25.9125139188325;-80.1375747271745;13:58:05.88;1/30/2021;7;1.835;144.03;-7.05681789004123;1.27;156.9;147.11;0.9;1.8;23.9;.00;3.71;3.71;82;38;443.2;15.6;-2.4;D;755.3;2;15.580;2;1.83;175;152.45;-80.13750269;25.91238969;0;0;1;N;1.092782;62;62;11;133;133;148.631;0;9999.99;3.72;3.847;2;9;22.7;0;22.7000007629395;36.21;1529.97821;01/30/21;13:37:02;21.92;54.61;36.21;1.118;8.50;-87.2;-5.0;-1.0;-4128;92.4;6.56;13.2;;
25.9125065;-80.1375713333333;13:58:06.88;1/30/2021;7;1.935;149.72;-7.05681789004123;1.27;158.2;148.36;1.06;2.4;23.9;.00;3.71;3.71;82;38;443.2;15.6;-2.4;D;755.3;2;14.641;2;1.86;175;152.76;-80.13750269;25.91238969;0;0;1;N;0.9499828;63;63;11;132;132;149.6378;0;9999.99;3.72;3.847;2;9;22.7;0;22.7000007629395;36.2;1529.96721;01/30/21;13:37:03;21.92;54.60;36.20;1.101;8.49;-87.1;-3.5;-4.8;-4314;92.4;6.56;13.1;;
25.912499;-80.1375673333333;13:58:07.88;1/30/2021;7;1.954;151.89;-7.05681789004123;1.27;158.9;149.03;1.32;2.52;23.8;.00;3.74;3.74;82;38;443.2;15.6;-2.4;D;755.3;2;13.726;2;1.88;175;152.45;-80.13750269;25.91238969;0;0;1;N;0.9657762;65;65;11;129;129;149.5259;0;9999.99;3.75;3.877;2;9;22.7;0;22.7000007629395;36.19;1529.95622;01/30/21;13:37:04;21.93;54.59;36.19;1.115;8.50;-87.4;-3.4;-5.4;-5207;92.4;6.55;13.2;;
25.9124922729094;-80.1375627349739;13:58:08.88;1/30/2021;7;1.954;151.89;-7.05681789004123;1.27;159.8;149.9;1.47;2.26;23.9;.00;3.74;3.74;82;38;443.1;15.6;-2.4;D;757.5;2;12.891;2;1.88;175;152.23;-80.13750269;25.91238969;0;0;1;N;0.9523851;66;66;11;126;126;149.6208;0;9999.99;3.75;3.877;2;9;22.7;0;22.7000007629395;36.19;1529.95622;01/30/21;13:37:05;21.93;54.59;36.19;1.094;8.50;-87.3;-3.6;2.3;-2628;92.4;6.56;13.3;;
25.912483469646;-80.1375580227672;13:58:09.88;1/30/2021;7;1.96;151.37;-7.05681789004123;1.27;160.2;150.29;1.46;2.88;23.9;.00;3.75;3.75;82;38;443.1;15.6;-2.4;D;757.5;2;11.805;2;1.9;175;152.04;-80.13750269;25.91238969;0;0;1;N;0.9125383;65;65;11;124;124;149.9023;0;9999.99;3.76;3.887;2;9;22.7;0;22.7000007629395;36.2;1529.96729;01/30/21;13:37:06;21.93;54.60;36.20;1.074;8.50;-87.2;-2.8;-5.4;-1305;92.4;6.55;13.4;;
25.9124755706016;-80.1375546417;13:58:10.88;1/30/2021;7;1.847;154.33;-7.05681789004123;1.27;161.1;151.16;1.03;1.76;23.9;.00;3.77;3.77;82;38;443.1;15.6;-2.4;D;757.5;2;10.872;2;1.89;175;151.45;-80.13750269;25.91238969;0;0;1;N;0.9516405;61;61;11;120;120;149.6253;0;9999.99;3.78;3.907;2;9;22.7;0;22.7000007629395;36.2;1529.96728;01/30/21;13:37:07;21.93;54.61;36.20;1.087;8.50;-87.5;-4.5;-3.4;-1734;92.3;6.55;13.0;;
25.912467568557;-80.1375515495361;13:58:11.88;1/30/2021;7;1.887;156.2;-7.05681789004123;1.27;161.2;151.25;1.2;3.33;23.8;.00;3.78;3.78;82;38;443.1;15.6;-2.4;D;751.2;2;9.943;2;1.92;175;150.56;-80.13750269;25.91238969;0;0;1;N;1.02445;65;65;11;120;120;149.1122;0;9999.99;3.79;3.917;2;9;22.7;0;22.7000007629395;36.2;1529.96722;01/30/21;13:37:08;21.93;54.60;36.20;1.169;8.50;-87.4;-4.2;-6.6;-2316;92.3;6.55;13.2;;
25.9124582863999;-80.1375475191416;13:58:12.88;1/30/2021;7;1.951;156.79;-7.05681789004123;1.27;161.6;151.64;1.45;2.39;23.9;.00;3.79;3.79;82;38;443.1;15.6;-2.4;D;751.2;2;8.848;2;1.94;175;149.55;-80.13750269;25.91238969;0;0;1;N;1.067406;66;66;11;116;116;148.8096;0;9999.99;3.80;3.927;2;9;22.7;0;22.7000007629395;36.19;1529.95625;01/30/21;13:37:09;21.93;54.59;36.19;1.093;8.50;-87.4;-3.0;-1.4;-2341;92.2;6.54;13.2;;
25.9124511585077;-80.1375444633741;13:58:13.88;1/30/2021;7;1.991;156.68;-7.05681789004123;1.27;162.3;152.32;0.73;2.28;23.9;.00;3.79;3.79;82;38;443.1;15.6;-2.4;D;751.2;2;8.011;2;1.92;175;148.56;-80.13750269;25.91238969;0;0;1;N;1.105829;60;60;11;113;113;148.5399;0;9999.99;3.80;3.927;2;9;22.7;0;22.7000007629395;36.19;1529.95625;01/30/21;13:37:10;21.93;54.59;36.19;1.080;8.50;-87.4;-4.4;-3.1;-2102;92.2;6.54;13.2;;
25.9124424278057;-80.1375407002723;13:58:14.88;1/30/2021;7;2.013;156.33;-7.05681789004123;1.27;161.1;151.16;1.29;2.87;23.9;.00;3.80;3.80;82;38;443.1;15.6;-2.4;D;751.2;2;6.988;2;1.95;175;147.05;-80.13750269;25.91238969;0;0;1;N;1.148952;66;66;11;113;113;148.2366;0;9999.99;3.81;3.937;2;9;22.7;0;22.7000007629395;36.2;1529.96726;01/30/21;13:37:11;21.92;54.60;36.20;1.141;8.50;-87.4;-3.3;-2.1;-4263;92.2;6.54;13.1;;
25.9124335144692;-80.1375367795386;13:58:15.88;1/30/2021;7;2.095;158.87;-7.05681789004123;1.27;161.3;151.35;0.75;2.84;23.9;.00;3.83;3.83;82;38;443.1;15.6;-2.4;D;753.3;2;5.947;2;1.95;175;145.02;-80.13750269;25.91238969;0;0;1;N;1.185168;61;61;11;114;114;147.9825;0;9999.99;3.84;3.967;2;9;22.7;0;22.7000007629395;36.2;1529.96732;01/30/21;13:37:12;21.91;54.60;36.20;1.107;8.50;-87.3;-3.6;-4.4;-2834;92.2;6.54;13.1;;
25.9124255;-80.1375338333333;13:58:16.88;1/30/2021;7;1.997;156.31;-7.05681789004123;1.27;161.6;151.64;1.04;2.57;23.8;.00;3.83;3.83;82;38;443.1;15.6;-2.4;D;753.3;3;19.402;2;1.97;175;138;-80.13740356;25.91229659;0;0;1;N;1.196595;63;63;11;91;91;143.3464;0;9999.99;3.84;3.967;2;9;22.7;0;22.7000007629395;36.2;1529.96731;01/30/21;13:37:13;21.91;54.60;36.20;1.110;8.50;-87.3;-4.6;-4.0;-1437;92.1;6.54;13.2;;
25.9124176743477;-80.1375286954522;13:58:17.88;1/30/2021;7;1.997;156.31;-7.05681789004123;1.27;159.4;149.51;0.69;0.08;23.9;.00;3.85;3.85;82;38;443.1;15.6;-2.4;D;753.3;3;18.383;2;1.96;175;137.09;-80.13740356;25.91229659;0;0;1;N;0.300281;61;61;11;78;78;137.6871;0;9999.99;3.86;3.987;2;9;22.7;0;22.7000007629395;36.23;1530.00018;01/30/21;13:37:14;21.91;54.64;36.23;1.114;8.49;-87.1;-2.9;-2.9;-4048;92.1;6.54;13.1;;
25.9124106961725;-80.1375250118096;13:58:18.88;1/30/2021;7;2.023;156.06;-7.05681789004123;1.27;156.8;147.01;1.13;4.37;23.9;.00;3.85;3.85;82;38;443.1;15.6;-2.4;D;743.2;3;17.565;2;1.95;175;136.25;-80.13740356;25.91229659;0;0;1;N;2.225238E-02;64;64;11;83;83;136.3523;0;9999.99;3.86;3.987;2;9;22.7;0;22.7000007629395;36.22;1529.98919;01/30/21;13:37:15;21.92;54.64;36.22;1.130;8.50;-87.2;-2.9;-3.5;-2931;92.1;6.54;13.1;;
25.9124023333333;-80.1375201666667;13:58:19.88;1/30/2021;7;2.088;154.48;-7.05681789004123;1.27;154;144.33;0.71;2.6;23.9;.00;3.86;3.86;82;38;443.1;15.6;-2.4;D;743.2;3;16.578;2;1.99;175;135.59;-80.13740356;25.91229659;0;0;1;N;0.1734007;61;61;11;91;91;135.2582;0;9999.99;3.87;3.997;2;9;22.7;0;22.7000007629395;36.19;1529.95624;01/30/21;13:37:16;21.93;54.60;36.19;1.109;8.50;-87.3;-4.4;-5.5;-1103;92.1;6.53;13.2;;
25.9123943333333;-80.1375148333333;13:58:20.91;1/30/2021;7;2.102;152.06;-7.05681789004123;1.27;151.8;142.23;0.86;4.09;23.9;.00;3.84;3.84;82;38;443.1;15.6;-2.4;D;743.2;3;15.596;2;1.98;175;134.79;-80.13740356;25.91229659;0;0;1;N;0.3811895;63;63;11;91;91;133.8769;0;9999.99;3.85;3.977;2;9;22.7;0;22.7000007629395;36.22;1529.98921;01/30/21;13:37:17;21.92;54.63;36.22;1.136;8.50;-87.3;-3.9;-2.9;-831;92.1;6.54;13.2;;
25.9123848018743;-80.1375088323196;13:58:21.95;1/30/2021;7;2.039;151.2;-7.05681789004123;1.27;149.8;140.33;1;3.16;23.9;.00;3.86;3.86;82;38;443.1;15.6;-2.4;D;743.2;3;14.390;2;1.98;175;132.97;-80.13740356;25.91229659;0;0;1;N;0.5859627;63;63;11;88;88;130.6499;0;9999.99;3.87;3.997;2;9;22.7;0;22.7000007629395;36.23;1530.0002;01/30/21;13:37:18;21.93;54.64;36.23;1.076;8.49;-86.9;-3.6;-2.4;-2508;92.0;6.53;13.1;;
25.9123776666667;-80.1375041666667;13:58:22.97;1/30/2021;7;1.944;148.95;-7.05681789004123;1.27;146.7;137.39;0.88;2.78;23.9;.00;3.85;3.85;82;39;443.0;15.6;-2.4;D;740.2;3;13.455;2;1.98;175;132.65;-80.13740356;25.91229659;0;0;1;N;0.8399482;62;62;11;96;96;130.2428;0;9999.99;3.86;3.987;2;9;22.7;0;22.7000007629395;36.21;1529.97833;01/30/21;13:37:19;21.92;54.61;36.21;1.065;8.50;-87.2;-5.0;-1.2;-1685;92.0;6.52;13.0;;
25.9123689808974;-80.1374971097804;13:58:24.00;1/30/2021;7;2.047;147.22;-7.05681789004123;1.27;146;136.73;0.81;2.46;23.9;.00;3.87;3.87;82;39;443.0;15.6;-2.4;D;740.2;3;12.343;2;2.02;175;130.71;-80.13740356;25.91229659;0;0;1;N;1.047729;62;62;11;91;91;127.8295;0;9999.99;3.88;4.007;2;9;22.7;0;22.7000007629395;36.22;1529.98919;01/30/21;13:37:20;21.92;54.63;36.22;1.095;8.50;-87.3;-2.1;-4.4;-3133;92.0;6.53;13.3;;
25.9123606838755;-80.1374907646185;13:58:25.00;1/30/2021;7;2.144;146.17;-7.05681789004123;1.27;144;134.85;0.75;3.31;24;.00;3.87;3.87;82;39;443.0;15.6;-2.4;D;740.2;3;11.263;2;1.99;175;129.25;-80.13740356;25.91229659;0;0;1;N;1.177613;61;61;11;94;94;126.5472;0;9999.99;3.88;4.007;2;9;22.7;0;22.7000007629395;36.22;1529.98919;01/30/21;13:37:21;21.92;54.63;36.22;1.096;8.49;-87.1;-2.7;-3.9;-3379;91.9;6.52;13.1;;
25.9123536306734;-80.1374838447414;13:58:26.00;1/30/2021;7;2.107;142.09;-7.05681789004123;1.27;141.8;132.78;0.72;2.55;23.9;.00;3.88;3.88;82;38;443.0;15.6;-2.4;D;746.7;3;10.233;2;2.02;175;128.3;-80.13740356;25.91229659;0;0;1;N;1.341568;62;62;11;99;99;126.2004;0;9999.99;3.89;4.017;2;9;22.7;0;22.7000007629395;36.19;1529.95627;01/30/21;13:37:22;21.93;54.60;36.19;1.098;8.49;-86.7;-3.6;-6.1;-1925;91.9;6.52;13.3;;
25.9123464759805;-80.137476659223;13:58:27.00;1/30/2021;7;2.036;140.12;-7.05681789004123;1.27;140.6;131.65;0.97;3.93;24;.00;3.89;3.89;82;38;443.0;15.6;-2.4;D;746.7;3;9.177;2;2.01;175;127.19;-80.13740356;25.91229659;0;0;1;N;1.354596;64;64;11;102;102;125.9646;0;9999.99;3.90;4.027;2;9;22.7;0;22.7000007629395;36.22;1529.98926;01/30/21;13:37:23;21.92;54.63;36.22;1.102;8.50;-87.5;-2.2;-1.3;179;91.9;6.52;13.1;;
25.9123405;-80.1374705;13:58:28.00;1/30/2021;7;2.018;139.04;-7.05681789004123;1.27;138.9;130.06;1.34;2.97;24;.00;3.89;3.89;82;38;443.0;15.6;-2.4;D;746.7;3;8.204;2;1.99;175;126.69;-80.13740356;25.91229659;0;0;1;N;1.373466;62;62;11;111;111;126.4955;0;9999.99;3.90;4.027;2;9;22.7;0;22.7000007629395;36.21;1529.97825;01/30/21;13:37:24;21.92;54.62;36.21;1.095;8.49;-87.2;-3.8;-3.4;-4071;91.9;6.52;13.2;;
25.9123333333333;-80.1374635;13:58:29.00;1/30/2021;7;2.027;137.37;-7.05681789004123;1.27;138.4;129.59;0.81;3.12;23.9;.00;3.87;3.87;82;38;443.0;15.6;-2.4;D;746.7;3;7.266;2;1.99;175;125.6;-80.13740356;25.91229659;0;0;1;N;1.356686;62;62;11;115;115;126.612;0;9999.99;3.88;4.007;2;9;22.7;0;22.7000007629395;36.19;1529.95633;01/30/21;13:37:25;21.92;54.60;36.19;1.139;8.49;-87.0;-2.7;-3.2;-3692;91.9;6.52;13.1;;
25.912326373495;-80.1374554738161;13:58:30.00;1/30/2021;7;2.05;137.29;-7.05681789004123;1.27;138.2;129.4;0.89;2.91;23.9;.00;3.87;3.87;82;38;443.0;15.6;-2.4;D;750.9;3;6.159;2;1.97;175;122.53;-80.13740356;25.91229659;0;0;1;N;1.389533;62;62;11;112;112;125.8009;0;9999.99;3.88;4.007;2;9;22.7;0;22.7000007629395;36.21;1529.97823;01/30/21;13:37:26;21.92;54.62;36.21;1.092;8.49;-87.1;-3.3;-3.7;-1647;91.9;6.52;13.2;;
25.9123191933326;-80.1374477136212;13:58:31.00;1/30/2021;7;2.089;136.15;-7.05681789004123;1.27;137.6;128.84;0.99;3.38;23.9;.00;3.87;3.87;82;38;443.0;15.6;-2.4;D;750.9;4;13.862;2;1.98;175;169.57;-80.13742262;25.91219659;0;0;1;N;1.342617;62;62;11;211;211;150.1332;0;9999.99;3.88;4.007;2;9;22.7;0;22.7000007629395;36.22;1529.9892;01/30/21;13:37:27;21.92;54.63;36.22;1.083;8.50;-87.2;-3.9;-3.7;-2435;91.9;6.52;13.0;;
25.9123125476423;-80.1374400606178;13:58:32.00;1/30/2021;7;2.018;135.96;-7.05681789004123;1.27;142.5;133.44;0.2;10.5;23.9;.00;3.90;3.90;82;38;443.0;15.6;-2.4;D;750.9;4;13.011;2;1.99;175;172.3;-80.13742262;25.91219659;0;0;1;N;3.994328;58;58;11;250;250;165.246;0;9999.99;3.91;4.037;2;9;22.7;0;22.7000007629395;36.22;1529.98921;01/30/21;13:37:28;21.92;54.63;36.22;1.098;8.49;-87.0;-3.5;-3.1;-1535;91.8;6.52;13.3;;
25.9123068114514;-80.1374326502123;13:58:33.00;1/30/2021;7;1.884;133.93;-7.05681789004123;1.27;148.4;139;1.73;-3.52;23.8;.00;3.83;3.83;81;37;442.9;15.6;-2.4;D;761.5;4;12.297;2;1.98;175;175.32;-80.13742262;25.91219659;0;0;1;N;3.176678;67;67;11;250;250;169.9367;0;9999.99;3.83;3.961671;2;9;22.7;0;22.7000007629395;36.22;1529.98922;01/30/21;13:37:29;21.92;54.64;36.22;1.105;8.50;-87.2;-3.3;-1.6;-2309;91.8;6.51;13.2;;
25.9123006979849;-80.1374262410339;13:58:34.00;1/30/2021;7;1.829;133.93;-7.05681789004123;1.27;158.6;148.74;3.24;2.8;23.8;.01;3.89;3.90;81;37;442.9;15.6;-2.4;D;764.3;4;11.582;2;1.91;175;178.21;-80.13742262;25.91219659;0;0;1;N;2.426812;76;76;11;249;249;172.6716;0;9999.99;3.91;4.037;2;9;22.7;0;22.7000007629395;36.21;1529.97874;01/30/21;13:37:30;21.92;54.62;36.21;1.082;8.49;-87.1;-2.5;-4.8;-4188;91.8;6.51;13.2;;
25.9122940383338;-80.1374210481085;13:58:35.00;1/30/2021;8;1.774;137.48;-7.05681789004123;1.27;167.1;156.99;3.83;0.47;23.9;.01;3.90;3.92;81;37;442.9;15.6;-2.4;D;764.3;4;10.837;2;1.8;175;180.83;-80.13742262;25.91219659;0;0;1;N;1.781626;80;80;11;208;208;177.3028;0;9999.99;3.93;4.057;2;9;22.7;0;22.7000007629395;36.2;1529.96798;01/30/21;13:37:31;21.92;54.61;36.20;1.050;8.49;-87.2;-2.9;-5.2;-1680;91.7;6.51;13.2;;
25.9122883826583;-80.1374178619178;13:58:36.00;1/30/2021;8;1.636;152.23;-7.05681789004123;1.27;174.4;164.18;2.93;2.61;23.9;.01;3.90;3.91;81;37;442.9;15.6;-2.4;D;764.3;4;10.218;2;1.71;175;182.67;-80.13742262;25.91219659;0;0;1;N;1.292513;75;75;11;192;192;180.4837;0;9999.99;3.93;4.057;2;9;22.7;0;22.7000007629395;36.22;1529.99038;01/30/21;13:37:32;21.91;54.63;36.22;1.060;8.49;-87.1;-2.4;-2.2;78;91.7;6.51;13.2;;
25.9122801516602;-80.137415833976;13:58:37.00;1/30/2021;8;1.786;160.03;-7.05681789004123;1.27;181.2;170.97;2.85;-1.01;24;.01;3.92;3.92;81;39;442.9;15.6;-2.4;D;740.5;4;9.316;2;1.69;176;184.18;-80.13742262;25.91219659;0;0;1;N;0.9765839;74;74;11;175;175;183.0654;0;9999.99;3.94;4.067;2;9;22.7;0;22.7000007629395;36.21;1529.97887;01/30/21;13:37:33;21.92;54.62;36.21;1.060;8.49;-87.0;-3.3;-4.8;301;91.7;6.51;13.2;;
25.9122726557623;-80.1374160947324;13:58:38.00;1/30/2021;8;1.797;169.31;-7.05681789004123;1.27;187.2;177.02;2.66;1.76;23.9;.00;3.91;3.92;81;39;442.9;15.6;-2.4;D;740.5;4;8.483;2;1.67;176;184.41;-80.13742262;25.91219659;0;0;1;N;0.689141;73;73;11;157;157;183.9626;0;9999.99;3.94;4.067;2;9;22.7;0;22.7000007629395;36.21;1529.97874;01/30/21;13:37:34;21.91;54.61;36.21;1.052;8.49;-86.8;-3.2;-1.0;-4694;91.7;6.51;13.2;;
25.9122649967991;-80.1374158345674;13:58:39.00;1/30/2021;8;1.858;176.2;-7.05681789004123;1.27;190;179.87;1.35;1.5;24;.00;3.95;3.95;81;39;442.9;15.6;-2.4;D;740.5;4;7.636;2;1.73;176;185.1;-80.13742262;25.91219659;0;0;1;N;0.6409258;64;64;11;149;149;185.189;0;9999.99;3.97;4.097;2;9;22.7;0;22.7000007629395;36.22;1529.9893;01/30/21;13:37:35;21.91;54.64;36.22;1.081;8.49;-87.0;-3.4;-7.5;-3008;91.7;6.51;13.1;;
25.9122571895815;-80.1374163992367;13:58:40.00;1/30/2021;8;1.959;179.71;-7.05681789004123;1.27;193.4;183.34;0.78;3.61;24;.00;3.98;3.98;81;39;442.9;15.6;-2.4;D;740.5;4;6.766;2;1.75;177;185.28;-80.13742262;25.91219659;0;0;1;N;0.4958642;62;62;11;137;137;185.8645;0;9999.99;3.99;4.117;2;9;22.7;0;22.7000007629395;36.21;1529.97821;01/30/21;13:37:36;21.92;54.62;36.21;1.129;8.49;-87.0;-3.7;-2.6;-4902;91.7;6.51;13.2;;
25.9122497610137;-80.137417420305;13:58:41.00;1/30/2021;8;2.02;182.46;-7.05681789004123;1.27;195.5;185.5;1.13;2.79;24;.00;3.98;3.98;81;39;442.9;15.6;-2.5;D;736.3;4;5.935;2;1.8;177;185.03;-80.13742262;25.91219659;0;0;1;N;0.4369466;64;64;11;130;130;186.1883;0;9999.99;3.99;4.117;2;9;22.7;0;22.7000007629395;36.19;1529.95621;01/30/21;13:37:37;21.92;54.59;36.19;1.084;8.49;-86.8;-4.3;-5.1;-1298;91.7;6.50;13.2;;
25.912241240342;-80.1374182641919;13:58:42.00;1/30/2021;8;2.065;184.62;-7.05681789004123;1.27;197.3;187.35;0.86;1.73;23.9;.00;3.98;3.98;81;39;442.9;15.6;-2.5;D;736.3;5;14.518;2;1.89;177;153.72;-80.13735399;25.91212417;0;0;1;N;3.594774;62;62;11;12;12;158.6808;0;9999.99;3.99;4.117;2;9;22.7;0;22.7000007629395;36.2;1529.9672;01/30/21;13:37:38;21.91;54.60;36.20;1.130;8.49;-86.8;-3.4;-7.0;-1403;91.7;6.51;13.2;;
25.9122339007527;-80.1374210060036;13:58:43.00;1/30/2021;7;1.886;190.96;-7.05681789004123;1.27;192.4;182.32;0.77;-4.14;23.9;.00;3.99;3.99;81;39;442.9;15.6;-2.5;D;736.3;5;13.922;2;1.89;177;151.22;-80.13735399;25.91212417;0;0;1;N;2.954393;62;62;11;20;20;155.5021;0;9999.99;4.00;4.127;2;9;22.7;0;22.7000007629395;36.19;1529.95621;01/30/21;13:37:39;21.90;54.59;36.19;1.093;8.49;-87.1;-3.6;-2.8;-2273;91.6;6.50;13.1;;
25.9122252047746;-80.1374228916829;13:58:44.00;1/30/2021;7;1.93;188.9;-7.05681789004123;1.27;186;175.81;1.72;8.4;23.9;.00;3.99;3.99;81;42;442.8;15.6;-2.6;D;686.9;5;13.180;2;1.89;177;148.48;-80.13735399;25.91212417;0;0;1;N;2.318973;67;67;11;31;31;151.8909;0;9999.99;4.00;4.127;2;9;22.7;0;22.7000007629395;36.21;1529.9782;01/30/21;13:37:40;21.89;54.62;36.21;1.084;8.49;-86.9;-2.8;-0.3;-3423;91.7;6.51;13.1;;
25.9122164339277;-80.1374237750768;13:58:45.00;1/30/2021;8;1.936;183.47;-7.05681789004123;1.27;177.4;167.17;2.28;4.32;23.9;.00;4.00;4.01;81;42;442.8;15.6;-2.6;D;686.9;5;12.409;2;1.82;177;145.77;-80.13735399;25.91212417;0;0;1;N;1.607805;71;71;11;48;48;147.4934;0;9999.99;4.02;4.147;2;9;22.7;0;22.7000007629395;36.2;1529.96722;01/30/21;13:37:41;21.89;54.61;36.20;1.103;8.48;-86.6;-2.8;-5.7;-1154;91.7;6.51;13.1;;
25.9122073304135;-80.1374228758247;13:58:46.00;1/30/2021;8;1.953;180.54;-7.05681789004123;1.27;168.8;158.66;2.72;6.45;23.9;.01;3.97;3.97;81;42;442.8;15.6;-2.6;D;686.9;5;11.531;2;1.87;177;143.31;-80.13735399;25.91212417;0;0;1;N;1.036435;73;73;11;66;66;144.5634;0;9999.99;3.99;4.117;2;9;22.7;0;22.7000007629395;36.21;1529.9787;01/30/21;13:37:42;21.89;54.62;36.21;1.067;8.49;-86.8;-3.5;-4.0;-1267;91.6;6.50;13.0;;
25.9121985359348;-80.137420752999;13:58:47.00;1/30/2021;8;1.913;173.15;-7.05681789004123;1.27;163.3;153.29;2.09;5.2;23.9;.00;3.97;3.97;81;42;442.8;15.6;-2.6;D;686.9;5;10.629;2;1.89;177;141.08;-80.13735399;25.91212417;0;0;1;N;0.5421034;70;70;11;82;82;143.5002;0;9999.99;3.99;4.117;2;9;22.7;0;22.7000007629395;36.2;1529.96764;01/30/21;13:37:43;21.89;54.61;36.20;1.066;8.49;-86.8;-3.9;-3.7;-2043;91.5;6.50;13.1;;
25.9121899138853;-80.1374173358713;13:58:48.00;1/30/2021;8;1.996;161.63;-7.05681789004123;1.27;158.6;148.74;1.33;6.81;24;.00;3.94;3.94;81;39;442.8;15.6;-2.5;D;724.4;5;9.674;2;1.89;178;139.09;-80.13735399;25.91212417;0;0;1;N;0.1344212;65;65;11;88;88;139.1003;0;9999.99;3.96;4.087;2;9;22.7;0;22.7000007629395;36.2;1529.96758;01/30/21;13:37:44;21.89;54.60;36.20;1.126;8.49;-86.6;-3.0;-2.0;-4114;91.5;6.50;13.3;;
25.9121809671012;-80.1374121063382;13:58:49.00;1/30/2021;8;1.993;156.71;-7.05681789004123;1.27;154.4;144.71;1.16;3.99;23.9;.00;3.96;3.96;81;39;442.8;15.6;-2.5;D;724.4;5;8.584;2;1.87;178;137.37;-80.13735399;25.91212417;0;0;1;N;0.1576871;66;66;11;97;97;137.2711;0;9999.99;3.97;4.097;2;9;22.7;0;22.7000007629395;36.21;1529.97828;01/30/21;13:37:45;21.89;54.62;36.21;1.080;8.49;-86.7;-3.0;-4.2;-2954;91.4;6.49;13.2;;
25.9121724595876;-80.1374063957518;13:58:50.00;1/30/2021;8;2.053;153.04;-7.05681789004123;1.27;152.5;142.9;0.85;3.28;24;.00;3.96;3.96;81;39;442.8;15.6;-2.5;D;724.4;5;7.504;2;1.93;178;135.69;-80.13735399;25.91212417;0;0;1;N;0.3744328;62;62;11;99;99;135.9727;0;9999.99;3.97;4.097;2;9;22.7;0;22.7000007629395;36.2;1529.96721;01/30/21;13:37:46;21.90;54.60;36.20;1.072;8.49;-86.7;-1.8;-2.0;-1127;91.4;6.48;13.2;;
25.9121638812611;-80.1374004660119;13:58:51.00;1/30/2021;8;2.173;151.25;-7.05681789004123;1.27;151.6;142.04;0.82;3.46;23.9;.00;3.96;3.96;81;41;442.8;15.6;-2.6;D;698.2;5;6.412;2;1.98;178;133.53;-80.13735399;25.91212417;0;0;1;N;0.54077;62;62;11;98;98;134.7721;0;9999.99;3.97;4.097;2;9;22.7;0;22.7000007629395;36.2;1529.96721;01/30/21;13:37:47;21.90;54.61;36.20;1.103;8.49;-86.6;-3.4;-4.6;-3618;91.3;6.48;13.0;;
25.9121550489319;-80.1373941030942;13:58:52.00;1/30/2021;8;2.144;148.82;-7.05681789004123;1.27;150;140.52;0.5;2.68;24;.00;4.00;4.00;81;41;442.8;15.6;-2.6;D;698.2;5;5.281;2;2.03;178;130.56;-80.13735399;25.91212417;0;0;1;N;0.6951047;60;60;11;100;100;133.669;0;9999.99;4.00;4.127;2;9;22.7;0;22.7000007629395;36.19;1529.95621;01/30/21;13:37:48;21.89;54.59;36.19;1.106;8.49;-86.6;-3.5;-0.6;-4232;91.2;6.48;13.3;;
25.9121455976915;-80.1373876515267;13:58:53.00;1/30/2021;8;2.142;148.38;-7.05681789004123;1.27;150;140.52;0.19;2.59;24;.00;4.00;4.00;81;41;442.8;15.6;-2.6;D;698.2;6;24.524;2;2.04;178;141.73;-80.13723579;25.91197244;0;0;1;N;1.235084;59;59;11;120;120;138.6722;0;9999.99;4.00;4.127;2;9;22.7;0;22.7000007629395;36.2;1529.9672;01/30/21;13:37:49;21.88;54.61;36.20;1.113;8.48;-86.5;-3.0;-2.6;-2731;91.2;6.47;13.2;;
25.9121365586167;-80.137381652571;13:58:54.00;1/30/2021;8;2.173;148.46;-7.05681789004123;1.27;151.2;141.66;0.59;2.59;24;.00;4.01;4.01;81;41;442.8;15.6;-2.6;D;698.2;6;23.364;2;2.09;178;141.36;-80.13723579;25.91197244;0;0;1;N;1.314732;61;61;11;111;111;137.5502;0;9999.99;4.01;4.137;2;9;22.7;0;22.7000007629395;36.2;1529.9672;01/30/21;13:37:50;21.88;54.61;36.20;1.150;8.49;-86.7;-0.7;-7.0;-4461;91.1;6.47;13.2;;
25.9121285131685;-80.1373755789626;13:58:55.00;1/30/2021;8;2.078;146.73;-7.05681789004123;1.27;150.1;140.61;0.71;2.55;23.9;.00;3.96;3.96;81;40;442.7;15.6;-2.6;D;706.2;6;22.286;2;2.11;178;141.14;-80.13723579;25.91197244;0;0;1;N;1.407552;61;61;11;111;111;136.5495;0;9999.99;3.97;4.097;2;9;22.7;0;22.7000007629395;36.21;1529.97824;01/30/21;13:37:51;21.88;54.62;36.21;1.092;8.49;-86.7;-2.1;1.2;-2980;91.1;6.47;13.1;;
25.9121204026528;-80.1373693301672;13:58:56.00;1/30/2021;8;2.14;147.56;-7.05681789004123;1.27;150.7;141.18;0.64;1.82;23.9;.00;3.96;3.96;81;40;442.7;15.6;-2.6;D;706.2;6;21.192;2;2.07;178;140.93;-80.13723579;25.91197244;0;0;1;N;1.423015;61;61;11;104;104;135.3781;0;9999.99;3.97;4.097;2;9;22.7;0;22.7000007629395;36.2;1529.96726;01/30/21;13:37:52;21.88;54.61;36.20;1.113;8.48;-86.6;-2.0;-5.4;-2580;91.1;6.47;13.2;;
25.912111247374;-80.1373636682478;13:58:57.00;1/30/2021;8;2.187;148.77;-7.05681789004123;1.27;151.3;141.75;0.41;2.09;23.9;.00;4.03;4.03;81;40;442.7;15.6;-2.6;D;706.2;6;20.045;2;2.05;178;140.35;-80.13723579;25.91197244;0;0;1;N;1.422563;59;59;11;95;95;133.8239;0;9999.99;4.04;4.167;2;9;22.7;0;22.7000007629395;36.2;1529.96722;01/30/21;13:37:53;21.87;54.60;36.20;1.123;8.48;-86.2;-3.3;-3.0;-4261;91.1;6.47;13.3;;
25.9121026894492;-80.1373577447748;13:58:58.00;1/30/2021;8;2.202;147.64;-7.05681789004123;1.27;150.4;140.9;0.79;1.82;23.9;.00;4.04;4.04;81;41;442.7;15.6;-2.6;D;689.5;6;18.935;2;2.09;178;139.9;-80.13723579;25.91197244;0;0;1;N;1.543218;59;59;11;96;96;133.1618;0;9999.99;4.04;4.167;2;9;22.7;0;22.7000007629395;36.19;1529.95622;01/30/21;13:37:54;21.87;54.60;36.19;1.140;8.49;-86.8;-2.4;-7.5;-1096;91.1;6.47;13.2;;
25.9120931733265;-80.1373515327004;13:58:59.00;1/30/2021;8;2.233;149.3;-7.05681789004123;1.27;149.5;140.04;0.7;2.91;23.9;.00;4.01;4.01;81;41;442.7;15.6;-2.6;D;689.5;6;17.727;2;2.15;178;139.23;-80.13723579;25.91197244;0;0;1;N;1.576766;61;61;11;95;95;132.4453;0;9999.99;4.02;4.147;2;9;22.7;0;22.7000007629395;36.19;1529.95625;01/30/21;13:37:55;21.87;54.60;36.19;1.117;8.48;-86.6;-3.4;-0.6;-1467;91.0;6.46;13.1;;
25.9120842405692;-80.1373449160208;13:59:00.00;1/30/2021;8;2.23;148.31;-7.05681789004123;1.27;148.6;139.19;0.53;3.21;23.9;.00;4.03;4.04;81;41;442.7;15.6;-2.6;D;689.5;6;16.543;2;2.14;177;138.72;-80.13723579;25.91197244;0;0;1;N;1.669694;60;60;11;99;99;132.1876;0;9999.99;4.04;4.167;2;9;22.7;0;22.7000007629395;36.21;1529.97824;01/30/21;13:37:56;21.87;54.61;36.21;1.117;8.48;-86.5;-3.0;-4.3;-2573;91.0;6.46;13.3;;
25.9120754103615;-80.137338406735;13:59:01.00;1/30/2021;8;2.286;147.4;-7.05681789004123;1.27;147.9;138.53;0.7;1.76;23.9;.00;4.06;4.06;81;41;442.7;15.6;-2.6;D;689.5;6;15.376;2;2.15;177;138.13;-80.13723579;25.91197244;0;0;1;N;1.696244;60;60;11;99;99;131.96;0;9999.99;4.06;4.187;2;9;22.7;0;22.7000007629395;36.2;1529.96733;01/30/21;13:37:57;21.87;54.60;36.20;1.117;8.48;-86.3;-2.7;-0.9;-3596;90.9;6.46;13.3;;
25.9120675303763;-80.1373315274546;13:59:02.00;1/30/2021;8;2.235;145.58;-7.05681789004123;1.27;147.8;138.43;0.17;1.86;24;.00;4.04;4.04;81;40;442.7;15.6;-2.6;D;706.4;6;14.265;2;2.12;177;137.84;-80.13723579;25.91197244;0;0;1;N;1.726134;58;58;11;102;102;132.3755;0;9999.99;4.05;4.177;2;9;22.7;0;22.7000007629395;36.22;1529.98919;01/30/21;13:37:58;21.87;54.64;36.22;1.151;8.48;-86.6;-2.2;-7.7;-3430;90.9;6.45;13.1;;
25.9120603333333;-80.1373248333333;13:59:03.00;1/30/2021;8;2.251;145.97;-7.05681789004123;1.27;147.4;138.05;0.15;3.01;23.9;.00;4.07;4.07;81;40;442.7;15.6;-2.6;D;706.4;6;13.174;2;2.12;177;137.87;-80.13723579;25.91197244;0;0;1;N;1.647124;58;58;11;107;107;133.3472;0;9999.99;4.07;4.197;2;9;22.7;0;22.7000007629395;36.23;1530.00018;01/30/21;13:37:59;21.87;54.64;36.23;1.134;8.48;-86.3;-1.6;-3.6;-1332;90.9;6.45;13.1;;
25.9120521107095;-80.137316549544;13:59:04.00;1/30/2021;8;2.239;145.3;-7.05681789004123;1.27;146.5;137.2;0.5;2.72;23.9;.00;4.09;4.09;81;40;442.7;15.6;-2.6;D;706.4;6;11.989;2;2.13;177;137.64;-80.13723579;25.91197244;0;0;1;N;1.549926;60;60;11;114;114;133.9995;0;9999.99;4.09;4.217;2;9;22.7;0;22.7000007629395;36.23;1530.00027;01/30/21;13:38:00;21.87;54.64;36.23;1.168;8.48;-86.5;-3.2;-1.7;-4910;90.9;6.46;13.2;;
25.9120436290771;-80.1373086520686;13:59:05.00;1/30/2021;8;2.155;145.17;-7.05681789004123;1.27;146.8;137.49;0.69;2.42;23.9;.00;4.12;4.12;81;40;442.7;15.6;-2.6;D;706.4;6;10.760;2;2.14;177;137.37;-80.13723579;25.91197244;0;0;1;N;1.444853;61;61;11;116;116;134.7438;0;9999.99;4.12;4.247;2;9;22.7;0;22.7000007629395;36.22;1529.98928;01/30/21;13:38:01;21.88;54.63;36.22;1.148;8.48;-86.4;-4.1;-6.5;-1861;90.8;6.45;13.2;;
25.9120365853248;-80.1373023303465;13:59:06.00;1/30/2021;8;2.214;144.16;-7.05681789004123;1.27;146.1;136.83;0.32;2.59;23.9;.00;4.09;4.10;81;40;442.6;15.6;-2.5;D;716.2;6;9.755;2;2.08;177;136.98;-80.13723579;25.91197244;0;0;1;N;1.267834;59;59;11;121;121;135.207;0;9999.99;4.10;4.227;2;9;22.7;0;22.7000007629395;36.23;1530.00031;01/30/21;13:38:02;21.88;54.65;36.23;1.120;8.48;-86.4;-3.4;-6.6;-2995;90.9;6.45;13.3;;
25.9120286301004;-80.1372954118081;13:59:07.00;1/30/2021;8;2.155;144.74;-7.05681789004123;1.27;147.4;138.05;0.49;3.2;23.9;.00;4.12;4.12;81;40;442.6;15.6;-2.5;D;716.2;6;8.637;2;2.08;177;136.34;-80.13723579;25.91197244;0;0;1;N;1.212935;60;60;11;117;117;135.6222;0;9999.99;4.12;4.247;2;9;22.7;0;22.7000007629395;36.24;1530.0113;01/30/21;13:38:03;21.89;54.66;36.24;1.148;8.48;-86.5;-3.9;-5.0;-3130;90.8;6.45;13.2;;
25.9120211203953;-80.1372884226254;13:59:08.00;1/30/2021;8;2.167;144.6;-7.05681789004123;1.27;148;138.62;0.71;1.17;24;.00;4.11;4.11;81;40;442.6;15.6;-2.5;D;716.2;6;7.550;2;2.08;177;135.8;-80.13723579;25.91197244;0;0;1;N;1.165419;61;61;11;118;118;136.2848;0;9999.99;4.12;4.247;2;9;22.6;0;22.7000007629395;36.28;1530.05514;01/30/21;13:38:04;21.90;54.71;36.28;1.110;8.49;-86.7;-2.8;-6.6;-3278;90.8;6.45;13.2;;
25.9120135429732;-80.1372820269602;13:59:09.00;1/30/2021;8;2.161;145.55;-7.05681789004123;1.27;149.1;139.66;0.1;2.86;23.9;.00;4.11;4.11;81;40;442.6;15.6;-2.5;D;710.8;6;6.502;2;2.12;177;134.66;-80.13723579;25.91197244;0;0;1;N;1.053567;58;58;11;115;115;136.584;0;9999.99;4.12;4.247;2;9;22.6;0;22.6000003814697;36.27;1529.78892;01/30/21;13:38:05;21.91;54.69;36.27;1.110;8.48;-86.4;-2.5;-3.7;-2620;90.8;6.44;13.2;;
25.9120057563919;-80.1372750860306;13:59:10.02;1/30/2021;8;2.135;145.71;-7.05681789004123;1.27;148.9;139.48;0.39;1.17;23.9;.00;4.16;4.16;81;40;442.6;15.6;-2.5;D;710.8;7;17.243;2;2.12;177;151.88;-80.13719384;25.91186899;0;0;1;N;1.04546;59;59;11;153;153;146.0929;0;9999.99;4.16;4.287;2;9;22.7;0;22.7000007629395;36.25;1530.02217;01/30/21;13:38:07;21.93;54.67;36.25;1.157;8.49;-86.7;-1.6;-4.8;-3856;90.9;6.45;13.1;;
25.9119968635323;-80.1372693260627;13:59:11.02;1/30/2021;8;2.145;146.6;-7.05681789004123;1.27;152.2;142.61;0.27;5.03;23.9;.00;4.17;4.17;81;40;442.6;15.6;-2.5;D;710.8;7;16.099;2;2.12;177;152.03;-80.13719384;25.91186899;0;0;1;N;2.074028;59;59;11;150;150;148.4651;0;9999.99;4.17;4.297;2;9;22.7;0;22.7000007629395;36.26;1530.03316;01/30/21;13:38:08;21.93;54.68;36.26;1.130;8.48;-86.5;-3.1;-4.3;-3530;90.9;6.45;13.2;;
25.9119891295541;-80.1372628033611;13:59:12.02;1/30/2021;8;2.128;147.56;-7.05681789004123;1.27;154.5;144.81;1.1;0.83;23.9;.00;4.17;4.17;81;40;442.6;15.6;-2.5;D;710.8;7;15.034;2;2.12;177;152.69;-80.13719384;25.91186899;0;0;1;N;1.938853;64;64;11;145;145;149.2176;0;9999.99;4.17;4.297;2;9;22.7;0;22.7000007629395;36.26;1530.03316;01/30/21;13:38:08;21.93;54.68;36.26;1.130;8.48;-86.5;-3.1;-4.3;-3530;90.9;6.45;13.2;;
25.9119798863491;-80.1372562054415;13:59:13.03;1/30/2021;8;2.186;151.51;-7.05681789004123;1.27;156.8;147.01;0.31;4.13;23.9;.00;4.16;4.16;81;39;442.6;15.6;-2.5;D;729.4;7;13.819;2;2.1;177;153.17;-80.13719384;25.91186899;0;0;1;N;1.66144;59;59;11;138;138;149.7299;0;9999.99;4.17;4.297;2;9;22.7;0;22.7000007629395;36.26;1530.03331;01/30/21;13:38:09;21.94;54.68;36.26;1.126;8.48;-86.5;-3.7;-4.4;-3215;91.0;6.45;13.2;;
25.9119720717786;-80.1372506039943;13:59:14.06;1/30/2021;8;2.127;152.65;-7.05681789004123;1.27;157.8;147.97;0.9;2.45;23.8;.00;4.18;4.18;81;39;442.6;15.6;-2.5;D;729.4;7;12.791;2;2.09;177;153.65;-80.13719384;25.91186899;0;0;1;N;1.431072;62;62;11;138;138;150.6443;0;9999.99;4.19;4.317;2;9;22.7;0;22.7000007629395;36.25;1530.02223;01/30/21;13:38:11;21.94;54.68;36.25;1.131;8.48;-86.6;-2.7;-7.8;-5805;90.9;6.45;13.0;;
25.9119633788111;-80.1372455461397;13:59:15.06;1/30/2021;8;2.153;153.21;-7.05681789004123;1.27;160;150.09;0.57;4.51;23.9;.00;4.15;4.16;81;39;442.6;15.6;-2.5;D;729.4;7;11.701;2;2.08;177;153.77;-80.13719384;25.91186899;0;0;1;N;1.281884;60;60;11;130;130;150.8521;0;9999.99;4.16;4.287;2;9;22.7;0;22.7000007629395;36.25;1530.02223;01/30/21;13:38:11;21.94;54.68;36.25;1.131;8.48;-86.6;-2.7;-7.8;-5805;90.9;6.45;13.0;;
25.9119562371003;-80.1372409588455;13:59:16.08;1/30/2021;8;2.079;153.78;-7.05681789004123;1.27;160.6;150.67;0.77;2.71;23.9;.00;4.17;4.17;81;40;442.5;15.6;-2.5;D;717.7;7;10.786;2;2.08;177;154.09;-80.13719384;25.91186899;0;0;1;N;1.137901;62;62;11;131;131;151.9955;0;9999.99;4.18;4.307;2;9;22.7;0;22.7000007629395;36.25;1530.02219;01/30/21;13:38:12;21.95;54.67;36.25;1.127;8.48;-86.6;-2.6;-4.3;-2837;91.0;6.45;13.3;;
25.9119466825053;-80.1372351700831;13:59:17.13;1/30/2021;8;2.138;154.59;-7.05681789004123;1.27;161.7;151.74;0.56;2.27;23.8;.00;4.18;4.18;81;40;442.5;15.6;-2.5;D;717.7;7;9.577;2;2.04;177;154.43;-80.13719384;25.91186899;0;0;1;N;0.9417151;59;59;11;130;130;153.2473;0;9999.99;4.18;4.307;2;9;22.7;0;22.7000007629395;36.27;1530.04418;01/30/21;13:38:14;21.95;54.70;36.27;1.130;8.48;-86.6;-2.4;-2.1;-3775;91.0;6.45;13.1;;
25.9119380492564;-80.137230660557;13:59:18.13;1/30/2021;8;2.202;156.93;-7.05681789004123;1.27;163.8;153.78;0.01;1.51;23.8;.00;4.18;4.18;81;40;442.5;15.6;-2.5;D;717.7;7;8.516;2;2.04;177;154.38;-80.13719384;25.91186899;0;0;1;N;0.8424671;57;57;11;128;128;153.9493;0;9999.99;4.18;4.307;2;9;22.7;0;22.7000007629395;36.27;1530.04418;01/30/21;13:38:14;21.95;54.70;36.27;1.130;8.48;-86.6;-2.4;-2.1;-3775;91.0;6.45;13.1;;
25.9119283633417;-80.1372267304612;13:59:19.13;1/30/2021;8;2.131;158.47;-7.05681789004123;1.27;164.7;154.65;0.79;3.78;23.8;.00;4.18;4.18;81;40;442.5;15.6;-2.5;D;717.7;7;7.376;2;2.02;177;153.51;-80.13719384;25.91186899;0;0;1;N;0.8366404;62;62;11;124;124;153.9908;0;9999.99;4.19;4.317;2;9;22.7;0;22.7000007629395;36.25;1530.02222;01/30/21;13:38:15;21.95;54.68;36.25;1.137;8.48;-86.6;-3.1;0.5;-5134;91.0;6.45;13.2;;
25.9119202741583;-80.1372227720647;13:59:20.13;1/30/2021;8;2.12;158.94;-7.05681789004123;1.27;166.4;156.31;0.84;0.72;23.8;.00;4.19;4.19;81;39;442.5;15.6;-2.5;D;725.5;7;6.395;2;2.03;177;153.1;-80.13719384;25.91186899;0;0;1;N;0.7713272;62;62;11;120;120;154.454;0;9999.99;4.20;4.327;2;9;22.7;0;22.7000007629395;36.25;1530.02231;01/30/21;13:38:17;21.95;54.67;36.25;1.106;8.49;-86.7;-3.2;-2.1;-4173;91.0;6.45;13.2;;
25.9119106692697;-80.1372191395272;13:59:21.13;1/30/2021;8;2.127;162.04;-7.05681789004123;1.27;166.6;156.51;0.83;3.64;23.9;.00;4.22;4.22;81;39;442.5;15.6;-2.5;D;725.5;7;5.280;2;2.03;177;151.37;-80.13719384;25.91186899;0;0;1;N;0.7964562;62;62;11;118;118;154.2752;0;9999.99;4.23;4.357;2;9;22.7;0;22.7000007629395;36.25;1530.02231;01/30/21;13:38:17;21.95;54.67;36.25;1.106;8.49;-86.7;-3.2;-2.1;-4173;91.0;6.45;13.2;;
25.9119024921603;-80.1372151383375;13:59:22.16;1/30/2021;8;2.218;161.9;-7.05681789004123;1.27;166.6;156.51;0.26;3.86;23.9;.00;4.21;4.21;81;39;442.5;15.6;-2.5;D;725.5;7;4.291;2;2.04;177;150.24;-80.13719384;25.91186899;0;0;1;N;0.7323219;59;59;11;120;120;154.7297;0;9999.99;4.21;4.337;2;9;22.7;0;22.7000007629395;36.24;1530.01123;01/30/21;13:38:18;21.95;54.66;36.24;1.135;8.49;-86.7;-3.0;-1.5;-3642;90.9;6.45;13.2;;
25.9118942524929;-80.1372114536473;13:59:23.17;1/30/2021;8;2.172;161.6;-7.05681789004123;1.27;167.8;157.68;0.41;2.96;23.9;.00;4.20;4.20;81;40;442.5;15.6;-2.5;D;712;8;14.777;2;2.04;177;152.96;-80.13714428;25.91177589;0;0;1;N;0.3688068;60;60;11;108;108;152.4152;0;9999.99;4.21;4.337;2;9;22.7;0;22.7000007629395;36.27;1530.0442;01/30/21;13:38:20;21.95;54.69;36.27;1.126;8.48;-86.5;-3.4;-4.7;-2816;91.0;6.45;13.2;;
25.9118858865595;-80.1372081445846;13:59:24.17;1/30/2021;9;2.069;162.52;-7.05681789004123;1.23;166.9;156.8;0.73;2.9;23.9;.00;4.18;4.18;81;40;442.5;15.6;-2.5;D;712;8;13.799;2;2.08;177;152.42;-80.13714428;25.91177589;0;0;1;N;0.4708366;61;61;11;104;104;151.6516;0;9999.99;4.19;4.317;2;9;22.7;0;22.7000007629395;36.27;1530.0442;01/30/21;13:38:20;21.95;54.69;36.27;1.126;8.48;-86.5;-3.4;-4.7;-2816;91.0;6.45;13.2;;
25.9118759296321;-80.137204863321;13:59:25.17;1/30/2021;9;2.136;163.92;-7.05681789004123;1.23;167.3;157.19;0.86;2.01;23.9;.00;4.22;4.22;81;40;442.5;15.6;-2.5;D;712;8;12.667;2;2.06;177;151.42;-80.13714428;25.91177589;0;0;1;N;0.6523576;61;61;11;99;99;150.49;0;9999.99;4.23;4.357;2;9;22.7;0;22.7000007629395;36.25;1530.02218;01/30/21;13:38:21;21.95;54.67;36.25;1.145;8.49;-86.7;-4.7;-5.5;-3422;91.1;6.46;13.3;;
25.9118661742064;-80.1372018451258;13:59:26.17;1/30/2021;9;2.171;165.73;-7.05681789004123;1.23;166.5;156.41;0.4;3.64;23.9;.00;4.22;4.22;81;40;442.5;15.6;-2.5;D;712;8;11.573;2;2.09;177;150.17;-80.13714428;25.91177589;0;0;1;N;0.8548222;61;61;11;98;98;148.4982;0;9999.99;4.23;4.357;2;9;22.7;0;22.7000007629395;36.28;1530.05519;01/30/21;13:38:22;21.95;54.71;36.28;1.130;8.49;-86.7;-3.3;-2.6;-2480;91.1;6.46;13.2;;
25.9118577509495;-80.1371988496575;13:59:27.17;1/30/2021;9;2.176;164.89;-7.05681789004123;1.23;165.3;155.24;0.95;2.72;23.9;.00;4.23;4.23;81;40;442.4;15.6;-2.5;D;709.7;8;10.613;2;2.07;177;149.05;-80.13714428;25.91177589;0;0;1;N;0.9905429;63;63;11;94;94;147.3567;0;9999.99;4.24;4.367;2;9;22.7;0;22.7000007629395;36.26;1530.03322;01/30/21;13:38:23;21.95;54.68;36.26;1.120;8.49;-86.8;-3.9;-4.5;-1543;91.1;6.46;13.1;;
25.9118486844844;-80.1371951795853;13:59:28.19;1/30/2021;9;2.091;163.36;-7.05681789004123;1.23;164.4;154.36;0.68;2.91;23.9;.00;4.22;4.22;81;40;442.4;15.6;-2.5;D;709.7;8;9.562;2;2.05;177;147.83;-80.13714428;25.91177589;0;0;1;N;1.096018;60;60;11;93;93;146.6135;0;9999.99;4.22;4.347;2;9;22.7;0;22.7000007629395;36.25;1530.02228;01/30/21;13:38:24;21.95;54.67;36.25;1.106;8.49;-86.7;-3.2;0.7;-2658;91.1;6.46;13.2;;
25.911839205845;-80.1371916547801;13:59:29.20;1/30/2021;9;2.179;163.34;-7.05681789004123;1.23;164.3;154.26;0.13;3.2;23.9;.00;4.21;4.22;81;40;442.4;15.6;-2.5;D;709.7;8;8.487;2;2.05;177;146.06;-80.13714428;25.91177589;0;0;1;N;1.233888;58;58;11;93;93;145.6465;0;9999.99;4.22;4.347;2;9;22.7;0;22.7000007629395;36.26;1530.03321;01/30/21;13:38:25;21.95;54.68;36.26;1.148;8.49;-86.9;-3.4;-3.1;-4548;91.1;6.46;13.2;;
25.9118295768369;-80.1371876122017;13:59:30.22;1/30/2021;9;2.195;161.77;-7.05681789004123;1.23;163.4;153.39;0.88;1.62;23.9;.00;4.23;4.23;81;40;442.4;15.6;-2.5;D;710.3;8;7.378;2;2.02;177;144.02;-80.13714428;25.91177589;0;0;1;N;1.333275;61;61;11;94;94;144.9521;0;9999.99;4.24;4.367;2;9;22.7;0;22.7000007629395;36.26;1530.03321;01/30/21;13:38:26;21.95;54.69;36.26;1.158;8.49;-86.9;-3.1;0.0;-4508;91.1;6.46;13.2;;
25.9118203101089;-80.1371835100333;13:59:31.23;1/30/2021;9;2.157;161.86;-7.05681789004123;1.23;160.4;150.48;1.22;4.87;23.9;.00;4.21;4.21;81;40;442.4;15.6;-2.5;D;710.3;8;6.308;2;2.02;177;141.54;-80.13714428;25.91177589;0;0;1;N;1.414161;64;64;11;103;103;144.39;0;9999.99;4.22;4.347;2;9;22.7;0;22.7000007629395;36.26;1530.03322;01/30/21;13:38:28;21.95;54.69;36.26;1.109;8.48;-86.6;-4.1;-3.2;-258;91.3;6.47;13.3;;
25.9118113015604;-80.1371794861735;13:59:32.25;1/30/2021;9;2.114;159.56;-7.05681789004123;1.23;159.1;149.23;0.9;4.03;23.9;.00;4.16;4.16;81;40;442.4;15.6;-2.5;D;710.3;8;5.282;2;2.05;177;138.2;-80.13714428;25.91177589;0;0;1;N;1.488876;62;62;11;106;106;143.8711;0;9999.99;4.17;4.297;2;9;22.7;0;22.7000007629395;36.26;1530.03322;01/30/21;13:38:28;21.95;54.69;36.26;1.109;8.48;-86.6;-4.1;-3.2;-258;91.3;6.47;13.3;;
25.9118025065773;-80.137175320675;13:59:33.25;1/30/2021;9;2.135;158.39;-7.05681789004123;1.23;158.9;149.03;0.57;2.98;23.9;.00;4.21;4.22;81;40;442.4;15.6;-2.5;D;710.3;9;15.250;2;2.05;177;166.78;-80.13714046;25.91166899;0;0;1;N;1.538884;60;60;11;159;159;157.0979;0;9999.99;4.22;4.347;2;9;22.7;0;22.7000007629395;36.26;1530.03329;01/30/21;13:38:29;21.95;54.69;36.26;1.131;8.49;-86.9;-3.2;0.3;-2235;91.3;6.47;13.2;;
25.9117944999832;-80.1371717306736;13:59:34.25;1/30/2021;9;2.146;157.21;-7.05681789004123;1.23;161.7;151.74;0.19;7.72;23.9;.00;4.25;4.25;81;40;442.4;15.6;-2.6;D;706.9;9;14.302;2;2.04;177;167.37;-80.13714046;25.91166899;0;0;1;N;2.732405;59;59;11;174;174;162.415;0;9999.99;4.25;4.377;2;9;22.7;0;22.7000007629395;36.28;1530.05517;01/30/21;13:38:31;21.95;54.71;36.28;1.114;8.49;-86.8;-2.9;-3.6;-2768;91.3;6.47;13.1;;
25.9117855251615;-80.1371673228313;13:59:35.25;1/30/2021;9;2.079;155.99;-7.05681789004123;1.23;165.4;155.33;0.9;0.7;23.9;.00;4.25;4.25;81;40;442.4;15.6;-2.6;D;706.9;9;13.234;2;1.99;177;168.29;-80.13714046;25.91166899;0;0;1;N;2.319051;62;62;11;160;160;163.5599;0;9999.99;4.26;4.387;2;9;22.7;0;22.7000007629395;36.28;1530.05517;01/30/21;13:38:31;21.95;54.71;36.28;1.114;8.49;-86.8;-2.9;-3.6;-2768;91.3;6.47;13.1;;
25.9117773116944;-80.1371635280968;13:59:36.25;1/30/2021;9;2.092;158.68;-7.05681789004123;1.23;167.9;157.78;1.57;2.83;23.9;.00;4.24;4.24;81;40;442.4;15.6;-2.6;D;706.9;9;12.264;2;1.98;177;169.16;-80.13714046;25.91166899;0;0;1;N;1.962739;66;66;11;156;156;165.0222;0;9999.99;4.25;4.377;2;9;22.7;0;22.7000007629395;36.26;1530.03327;01/30/21;13:38:32;21.95;54.68;36.26;1.114;8.49;-86.7;-2.7;-4.3;-328;91.3;6.47;13.2;;
25.9117691821805;-80.1371607520257;13:59:37.25;1/30/2021;9;2.019;160.59;-7.05681789004123;1.23;171.2;161.02;1.29;1.15;23.9;.00;4.26;4.26;81;39;442.3;15.6;-2.5;D;730.4;9;11.324;2;1.95;177;169.68;-80.13714046;25.91166899;0;0;1;N;1.703721;65;65;11;150;150;166.14;0;9999.99;4.27;4.397;2;9;22.7;0;22.7000007629395;36.27;1530.0445;01/30/21;13:38:34;21.95;54.70;36.27;1.102;8.49;-86.7;-4.6;-4.6;-2219;91.4;6.48;13.4;;
25.9117611326046;-80.1371581165737;13:59:38.25;1/30/2021;9;2.062;164.03;-7.05681789004123;1.23;174.3;164.08;1.28;3.71;24;.00;4.25;4.25;81;39;442.3;15.6;-2.5;D;730.4;9;10.397;2;1.96;177;170.22;-80.13714046;25.91166899;0;0;1;N;1.461792;64;64;11;141;141;167.8046;0;9999.99;4.26;4.387;2;9;22.7;0;22.7000007629395;36.27;1530.0445;01/30/21;13:38:34;21.95;54.70;36.27;1.102;8.49;-86.7;-4.6;-4.6;-2219;91.4;6.48;13.4;;
25.9117511495635;-80.1371559634753;13:59:39.27;1/30/2021;9;2.09;168.05;-7.05681789004123;1.23;176.4;166.17;1.14;1.65;23.9;.00;4.26;4.26;81;39;442.3;15.6;-2.5;D;730.4;9;9.266;2;1.99;177;170.37;-80.13714046;25.91166899;0;0;1;N;1.281434;64;64;11;139;139;169.0592;0;9999.99;4.27;4.397;2;9;22.7;0;22.7000007629395;36.26;1530.03333;01/30/21;13:38:35;21.96;54.69;36.26;1.110;8.49;-86.9;-4.3;-5.1;-2254;91.5;6.49;13.1;;
25.911742302702;-80.1371543635786;13:59:40.28;1/30/2021;9;2.094;170.57;-7.05681789004123;1.23;177.8;167.57;0.98;3.82;23.9;.00;4.26;4.26;81;39;442.3;15.6;-2.5;D;730.4;9;8.270;2;1.99;177;170.32;-80.13714046;25.91166899;0;0;1;N;1.152366;63;63;11;137;137;169.9626;0;9999.99;4.27;4.397;2;9;22.7;0;22.7000007629395;36.28;1530.0552;01/30/21;13:38:37;21.95;54.71;36.28;1.155;8.49;-86.8;-4.5;-6.2;-3805;91.4;6.48;13.2;;
25.9117324955468;-80.1371528945957;13:59:41.30;1/30/2021;9;2.131;171.71;-7.05681789004123;1.23;179.8;169.56;1.22;2.93;23.9;.00;4.19;4.19;81;39;442.3;15.6;-2.5;D;727.4;9;7.171;2;2.01;177;170.01;-80.13714046;25.91166899;0;0;1;N;1.031517;64;64;11;132;132;170.8119;0;9999.99;4.20;4.327;2;9;22.7;0;22.7000007629395;36.28;1530.0552;01/30/21;13:38:37;21.95;54.71;36.28;1.155;8.49;-86.8;-4.5;-6.2;-3805;91.4;6.48;13.2;;
25.9117228961399;-80.1371515197415;13:59:42.31;1/30/2021;9;2.096;172.82;-7.05681789004123;1.23;180.7;170.47;0.62;3.87;23.9;.00;4.18;4.19;81;39;442.3;15.6;-2.5;D;727.4;9;6.095;2;2.01;177;169.54;-80.13714046;25.91166899;0;0;1;N;0.9298969;61;61;11;131;131;171.5287;0;9999.99;4.19;4.317;2;9;22.7;0;22.7000007629395;36.27;1530.04421;01/30/21;13:38:38;21.95;54.70;36.27;1.116;8.49;-86.9;-4.2;-3.5;-1186;91.4;6.48;13.3;;
25.9117138762839;-80.1371500656861;13:59:43.31;1/30/2021;8;2.07;173.28;-7.05681789004123;1.23;181.2;170.97;0.56;3.96;23.9;.00;4.21;4.21;81;39;442.3;15.6;-2.5;D;727.4;9;5.083;2;2.02;177;169.1;-80.13714046;25.91166899;0;0;1;N;0.8150909;60;60;11;132;132;172.3415;0;9999.99;4.21;4.337;2;9;22.7;0;22.7000007629395;36.29;1530.06617;01/30/21;13:38:40;21.95;54.72;36.29;1.096;8.49;-86.6;-3.2;-2.9;-3723;91.6;6.49;13.2;;
25.9117053091654;-80.137149082885;13:59:44.33;1/30/2021;9;2.092;174.62;-7.05681789004123;1.23;183.1;172.88;0.68;4.27;23.9;.00;4.23;4.23;81;39;442.3;15.6;-2.5;D;726;10;25.779;2;1.99;177;188.28;-80.13718622;25.91147589;0;0;1;N;1.722128;61;61;11;173;173;184.2821;0;9999.99;4.24;4.367;2;9;22.7;0;22.7000007629395;36.29;1530.06617;01/30/21;13:38:40;21.95;54.72;36.29;1.096;8.49;-86.6;-3.2;-2.9;-3723;91.6;6.49;13.2;;
