Latitude;Longitude;Time;Date;Number of Sats;GPS Speed (Kn);GPS True Heading;GPS Magnetic Variation;HDOP;C Magnetic Heading;C True Heading;Pitch Angle;Roll Angle;C Inside Temp (c);DFS Depth (m);DTB Height (m);Total Water Column (m);Batt Percent;Power Watts;Watt-Hours;Batt Volts;Batt Ampers;Batt State;Time to Empty;Current Step;Dist To Next (m);Next Speed (kn);Vehicle Speed (kn);Motor Speed CMD;Next Heading;Next Long;Next Lat;Next Depth (m);Depth Goal (m);Vehicle State;Error State;Distance to Track (m);Fin Pitch R;Fin Pitch L;Pitch Goal;Fin Yaw T;Fin Yaw B;Yaw Goal;Fin Roll;DVL-Depth (m);DVL -Altitude (m);DVL -Water Column (m);DVL-FixType;DVL-FixQuality;DVL-Temperature;Conductivity (mmhos/cm);Temperature (c);Salinity (ppt);Sound Speed (m/s);Date m/d/y   ;Time hh:mm:ss;Temp C;SpCond mS/cm;Sal ppt;Depth feet;pH;pH mV;Turbid+ NTU;Chl ug/L;BGA-PC cells/mL;ODOsat %;ODO mg/L;Battery volts;ROSEM Command Type;
25.9127616666667;-80.1379051666667;14:35:53.78;1/30/2021;7;0.156;337.62;-7.05677591499146;1.3;162.2;152.22;0.78;-3.52;23.5;.00;1.65;1.65;79;21;427.3;15.6;-1.3;D;1289.2;0;7.538;2;0.09;128;98.4;-80.13783061;25.91275176;0;0;1;N;4.507924;60;60;11;250;250;320.0552;0;9999.99;1.65;1.777;0;0;22.4;0;22.3999996185303;35.93;1528.90186;01/30/21;14:14:49;21.83;54.24;35.93;1.116;8.43;-83.5;-4.8;-3.0;-4408;88.1;6.27;13.3;;
25.9127608395442;-80.1379058671638;14:35:54.78;1/30/2021;7;0.271;337.62;-7.05677591499146;1.3;162.5;152.51;0.55;-1.47;23.5;.00;1.63;1.64;79;21;427.3;15.6;-1.3;D;1278.9;1;42.098;2;0.02;174;127.37;-80.13757133;25.91253107;0;0;1;N;3.873576;60;60;11;5;5;117.7225;0;9999.99;1.64;1.767;2;9;22.4;0;22.3999996185303;35.92;1528.89089;01/30/21;14:14:51;21.83;54.23;35.92;1.151;8.43;-83.7;-3.8;-6.7;-3017;88.1;6.27;13.1;;
25.9127603424304;-80.137906364572;14:35:55.81;1/30/2021;7;0.082;337.62;-7.05677591499146;1.3;160;150.09;2.98;3.19;23.5;.00;1.64;1.65;79;21;427.3;15.6;-1.3;D;1278.9;1;42.104;2;0.01;174;127.26;-80.13757133;25.91253107;0;0;1;N;4.51422;75;75;11;5;5;118.2804;0;9999.99;1.65;1.777;2;9;22.4;0;22.3999996185303;35.92;1528.89089;01/30/21;14:14:51;21.83;54.23;35.92;1.151;8.43;-83.7;-3.8;-6.7;-3017;88.1;6.27;13.1;;
25.9127580142287;-80.1379062660095;14:35:56.81;1/30/2021;7;0.646;337.62;-7.05677591499146;1.3;162.4;152.42;-0.59;-3.68;23.5;.01;1.80;1.81;79;26;427.3;15.6;-1.7;D;1045.8;1;41.940;2;0.16;174;126.99;-80.13757133;25.91253107;0;0;1;N;4.693774;53;53;11;5;5;117.4994;0;9999.99;1.81;1.937;2;9;22.4;0;22.3999996185303;35.89;1528.85813;01/30/21;14:14:52;21.83;54.18;35.89;1.103;8.43;-83.5;-3.9;-3.5;-3584;88.1;6.27;13.3;;
25.9127556102271;-80.1379073370899;14:35:57.81;1/30/2021;7;0.217;337.62;-7.05677591499146;1.3;164.4;154.36;1.59;3.14;23.5;.00;1.59;1.59;79;26;427.3;15.6;-1.7;D;1045.8;1;41.866;2;0.25;174;126.61;-80.13757133;25.91253107;0;0;1;N;4.959149;61;61;11;5;5;116.5198;0;9999.99;1.58;1.707;2;9;22.4;0;22.3999996185303;35.88;1528.84699;01/30/21;14:14:54;21.83;54.18;35.88;1.155;8.43;-83.7;-4.6;-3.3;-3239;88.0;6.27;13.3;;
25.912751980924;-80.137906315397;14:35:58.83;1/30/2021;7;0.739;337.62;-7.05677591499146;1.3;164.4;154.36;1.5;-2.93;23.6;.01;1.70;1.71;79;26;427.3;15.6;-1.7;D;1045.8;1;41.544;2;0.39;174;126.25;-80.13757133;25.91253107;0;0;1;N;5.175798;66;66;11;5;5;115.3592;0;9999.99;1.72;1.847;2;9;22.4;0;22.3999996185303;35.88;1528.84699;01/30/21;14:14:54;21.83;54.18;35.88;1.155;8.43;-83.7;-4.6;-3.3;-3239;88.0;6.27;13.3;;
25.9127473203521;-80.1379046768383;14:35:59.83;1/30/2021;6;0.924;337.62;-7.05677591499146;1.35;164.2;154.16;0.24;0.08;23.6;.01;1.62;1.62;79;39;427.3;15.5;-2.5;D;697.8;1;41.107;2;0.69;174;125.8;-80.13757133;25.91253107;0;0;1;N;5.433321;58;58;11;5;5;113.828;0;9999.99;1.62;1.747;2;9;22.4;0;22.3999996185303;35.85;1528.81425;01/30/21;14:14:55;21.82;54.13;35.85;1.128;8.43;-83.4;-4.4;-3.0;-3909;88.1;6.27;13.1;;
25.9127414169419;-80.1379012876814;14:36:00.84;1/30/2021;7;1.303;337.62;-7.05677591499146;1.3;157.8;147.97;1.37;3.01;23.5;.00;1.80;1.81;79;39;427.3;15.5;-2.5;D;697.8;1;40.449;2;0.96;174;125.33;-80.13757133;25.91253107;0;0;1;N;5.680988;65;65;11;5;5;111.8121;0;9999.99;1.81;1.937;2;9;22.4;0;22.3999996185303;35.89;1528.85774;01/30/21;14:14:57;21.81;54.19;35.89;1.118;8.43;-83.3;-3.1;-3.4;-2099;88.1;6.27;13.3;;
25.9127345729214;-80.1378960336933;14:36:01.84;1/30/2021;7;1.664;337.62;-7.05677591499146;1.35;150;140.52;1.9;4.44;23.5;.01;2.10;2.11;79;39;427.3;15.5;-2.5;D;697.8;1;39.582;2;1.18;174;124.87;-80.13757133;25.91253107;0;0;1;N;5.877317;68;68;11;5;5;109.2906;0;9999.99;2.12;2.247;2;9;22.4;0;22.3999996185303;35.89;1528.85774;01/30/21;14:14:57;21.81;54.19;35.89;1.118;8.43;-83.3;-3.1;-3.4;-2099;88.1;6.27;13.3;;
25.9127288820802;-80.1378878391134;14:36:02.88;1/30/2021;6;1.743;337.62;-7.05677591499146;1.51;143.4;134.28;2.03;4.01;23.5;.01;2.01;2.02;79;39;427.3;15.5;-2.5;D;697.8;1;38.548;2;1.34;174;124.79;-80.13757133;25.91253107;0;0;1;N;5.785121;69;69;11;18;18;107.1149;0;9999.99;2.03;2.157;2;9;22.4;0;22.3999996185303;35.94;1528.91322;01/30/21;14:14:58;21.82;54.26;35.94;1.100;8.43;-83.5;-4.3;-3.2;-2718;88.1;6.27;13.3;;
25.9127223743443;-80.1378825461896;14:36:03.88;1/30/2021;7;1.625;337.62;-7.05677591499146;1.51;133.7;125.21;2.34;4.31;23.5;.01;1.77;1.78;79;39;427.2;15.5;-2.5;D;702.2;1;37.701;2;1.44;174;124.35;-80.13757133;25.91253107;0;0;1;N;5.960427;71;71;11;41;41;103.643;0;9999.99;1.79;1.917;2;9;22.4;0;22.3999996185303;36;1528.97923;01/30/21;14:15:00;21.85;54.33;36.00;1.144;8.43;-83.3;-4.1;-0.7;-3536;88.1;6.26;13.3;;
25.9127166646652;-80.1378740807457;14:36:04.89;1/30/2021;7;1.877;337.62;-7.05677591499146;1.51;126.3;118.34;2.34;4.75;23.6;.01;1.64;1.65;79;39;427.2;15.5;-2.5;D;702.2;1;36.644;2;1.54;174;124.28;-80.13757133;25.91253107;0;0;1;N;5.849118;71;71;11;54;54;99.96836;0;9999.99;1.66;1.787;2;9;22.4;0;22.3999996185303;36;1528.97923;01/30/21;14:15:00;21.85;54.33;36.00;1.144;8.43;-83.3;-4.1;-0.7;-3536;88.1;6.26;13.3;;
25.9127115968838;-80.1378655553173;14:36:05.92;1/30/2021;7;1.778;337.62;-7.05677591499146;1.06;120.7;113.15;1.06;5.37;23.5;.00;1.74;1.74;79;39;427.2;15.5;-2.5;D;702.2;1;35.622;2;1.6;174;124.3;-80.13757133;25.91253107;0;0;1;N;5.6852;63;63;11;66;66;98.01421;0;9999.99;1.76;1.887;2;9;22.4;0;22.3999996185303;36;1528.97955;01/30/21;14:15:01;21.85;54.33;36.00;1.124;8.43;-83.5;-4.9;-8.3;1404;88.0;6.26;13.4;;
25.9127083852392;-80.1378556716268;14:36:06.92;1/30/2021;7;1.972;337.62;-7.05677591499146;1.06;115.5;108.34;1.05;2.79;23.6;.00;1.99;1.99;79;39;427.2;15.5;-2.5;D;708.5;1;34.605;2;1.66;175;124.73;-80.13757133;25.91253107;0;0;1;N;5.271426;63;63;11;94;94;100.0376;0;9999.99;2.00;2.127;2;9;22.4;0;22.3999996185303;36.08;1529.06702;01/30/21;14:15:03;21.86;54.44;36.08;1.128;8.44;-83.7;-4.3;-6.6;-1280;88.0;6.26;13.3;;
25.9127040929832;-80.1378462636735;14:36:07.92;1/30/2021;8;1.972;337.62;-7.05677591499146;1.06;113.7;106.68;0.49;4.23;23.6;.00;2.20;2.20;79;39;427.2;15.5;-2.5;D;708.5;1;33.560;2;1.7;175;124.98;-80.13757133;25.91253107;0;0;1;N;4.968079;60;60;11;107;107;101.5762;0;9999.99;2.21;2.337;2;9;22.4;0;22.3999996185303;36.13;1529.12195;01/30/21;14:15:04;21.87;54.51;36.13;1.101;8.44;-84.2;-5.7;-7.5;-2811;88.1;6.26;13.3;;
25.9127012249666;-80.1378377297628;14:36:08.94;1/30/2021;8;1.684;337.62;-7.05677591499146;1.06;111.8;104.92;1.13;2.26;23.6;.00;2.35;2.35;79;39;427.2;15.5;-2.5;D;708.5;1;32.679;2;1.81;175;125.38;-80.13757133;25.91253107;0;0;1;N;4.62149;64;64;11;121;121;103.4019;0;9999.99;2.36;2.487;2;9;22.4;0;22.3999996185303;36.13;1529.12195;01/30/21;14:15:04;21.87;54.51;36.13;1.101;8.44;-84.2;-5.7;-7.5;-2811;88.1;6.26;13.3;;
25.9126953333333;-80.1378245;14:36:10.31;1/30/2021;8;1.95;56.43;-7.05677591499146;1.06;112.7;105.75;0.96;0.93;23.6;.00;2.69;2.69;79;38;427.2;15.5;-2.4;D;722.9;1;31.259;2;1.83;175;126.22;-80.13757133;25.91253107;0;0;1;N;4.149367;63;63;11;128;128;106.0037;0;9999.99;2.70;2.827;2;9;22.4;0;22.3999996185303;36.16;1529.15499;01/30/21;14:15:06;21.90;54.55;36.16;1.095;8.44;-84.0;-4.5;-4.0;-2522;88.2;6.26;13.3;;
25.9126935;-80.1378105;14:36:11.34;1/30/2021;9;2.129;56.43;-7.05677591499146;1.06;113.5;106.49;0.6;2.73;23.6;.00;2.69;2.69;79;38;427.2;15.5;-2.4;D;722.9;1;30.309;2;1.85;175;126.41;-80.13757133;25.91253107;0;0;1;N;3.76641;62;62;11;134;134;108.2073;0;9999.99;2.70;2.827;2;9;22.4;0;22.3999996185303;36.19;1529.18806;01/30/21;14:15:07;21.92;54.60;36.19;1.112;8.45;-84.5;-4.3;-6.2;-1746;88.0;6.25;13.1;;
25.9126905;-80.1377993333333;14:36:12.36;1/30/2021;10;1.962;85.67;-7.05677591499146;0.9;115;107.88;0.86;3.61;23.6;.00;2.69;2.69;79;38;427.2;15.5;-2.4;D;722.9;1;29.073;2;1.84;176;127.68;-80.13757133;25.91253107;0;0;1;N;2.955023;62;62;11;148;148;113.1465;0;9999.99;2.70;2.827;2;9;22.4;0;22.3999996185303;36.17;1529.166;01/30/21;14:15:08;21.95;54.56;36.17;1.136;8.45;-84.8;-4.6;-5.8;-2939;88.1;6.25;13.3;;
25.9126871666667;-80.1377906666667;14:36:13.36;1/30/2021;10;1.925;100.62;-7.05677591499146;0.9;116.1;108.9;1.06;1.34;23.6;.00;2.69;2.69;79;38;427.2;15.5;-2.4;D;722.9;1;27.930;2;1.9;176;128.51;-80.13757133;25.91253107;0;0;1;N;2.439605;63;63;11;157;157;116.4605;0;9999.99;2.70;2.827;2;9;22.4;0;22.3999996185303;36.16;1529.15509;01/30/21;14:15:09;21.96;54.55;36.16;1.114;8.45;-84.6;-4.4;-3.9;-4353;88.1;6.25;13.3;;
25.9126838333333;-80.1377815;14:36:14.36;1/30/2021;10;1.888;104.88;-7.05677591499146;0.9;119.6;112.14;0.97;4.53;23.6;.00;3.10;3.10;79;39;427.2;15.5;-2.5;D;703.6;1;27.042;2;1.9;176;128.97;-80.13757133;25.91253107;0;0;1;N;2.139995;63;63;11;154;154;118.4438;0;9999.99;3.11;3.237;2;9;22.4;0;22.3999996185303;36.18;1529.17724;01/30/21;14:15:11;21.98;54.58;36.18;1.106;8.46;-85.0;-4.3;-6.3;-1884;88.1;6.25;13.1;;
25.9126806666667;-80.1377746666667;14:36:15.36;1/30/2021;10;1.612;109.78;-7.05677591499146;0.9;121.2;113.62;1.5;1.2;23.6;.00;3.15;3.15;79;39;427.2;15.5;-2.5;D;703.6;1;26.140;2;1.88;176;129.48;-80.13757133;25.91253107;0;0;1;N;1.830378;64;64;11;155;155;120.5323;0;9999.99;3.16;3.287;2;9;22.4;0;22.3999996185303;36.18;1529.17724;01/30/21;14:15:11;21.98;54.58;36.18;1.106;8.46;-85.0;-4.3;-6.3;-1884;88.1;6.25;13.1;;
25.9126778333333;-80.1377666666667;14:36:16.36;1/30/2021;10;1.975;108.67;-7.05677591499146;0.9;123.9;116.11;1.39;3.91;23.6;.00;3.15;3.15;79;39;427.2;15.5;-2.5;D;703.6;1;25.338;2;1.9;176;129.8;-80.13757133;25.91253107;0;0;1;N;1.632285;65;65;11;150;150;121.8873;0;9999.99;3.16;3.287;2;9;22.4;0;22.3999996185303;36.18;1529.17731;01/30/21;14:15:12;21.99;54.58;36.18;1.106;8.45;-84.9;-3.8;2.3;-3087;88.2;6.25;13.4;;
25.9126732787679;-80.1377575772413;14:36:17.38;1/30/2021;10;1.865;115.45;-7.05677591499146;0.9;126.5;118.52;1.39;1.99;23.5;.00;3.25;3.25;79;39;427.2;15.5;-2.5;D;703.6;1;24.435;2;1.95;176;130.33;-80.13757133;25.91253107;0;0;1;N;1.32167;65;65;11;149;149;123.8554;0;9999.99;3.26;3.387;2;9;22.4;0;22.3999996185303;36.19;1529.18812;01/30/21;14:15:14;22.01;54.60;36.19;1.158;8.45;-84.8;-3.3;-0.1;212;88.3;6.25;13.3;;
25.9126691660427;-80.1377496218064;14:36:18.41;1/30/2021;10;1.975;116.73;-7.05677591499146;0.9;128.9;120.75;1.12;3.02;23.5;.00;3.29;3.29;79;39;427.1;15.5;-2.5;D;705.3;1;23.533;2;1.96;176;130.73;-80.13757133;25.91253107;0;0;1;N;1.123247;64;64;11;145;145;125.3614;0;9999.99;3.30;3.427;2;9;22.4;0;22.3999996185303;36.19;1529.18812;01/30/21;14:15:14;22.01;54.60;36.19;1.158;8.45;-84.8;-3.3;-0.1;212;88.3;6.25;13.3;;
25.9126649498547;-80.1377420959676;14:36:19.42;1/30/2021;10;1.836;119.29;-7.05677591499146;0.9;131.8;123.44;0.87;-0.73;23.5;.00;3.31;3.31;79;39;427.1;15.5;-2.5;D;705.3;1;22.656;2;1.95;176;131.08;-80.13757133;25.91253107;0;0;1;N;0.9357399;62;62;11;140;140;126.689;0;9999.99;3.32;3.447;2;9;22.4;0;22.3999996185303;36.19;1529.18819;01/30/21;14:15:15;22.01;54.59;36.19;1.100;8.46;-85.3;-5.3;-4.5;-4207;88.3;6.26;13.1;;
25.9126602894001;-80.1377338442881;14:36:20.44;1/30/2021;10;1.889;119.58;-7.05677591499146;0.9;132.9;124.46;1.63;1.66;23.5;.00;3.33;3.33;79;39;427.1;15.5;-2.5;D;705.3;1;21.694;2;1.94;176;131.48;-80.13757133;25.91253107;0;0;1;N;0.783262;67;67;11;141;141;128.0098;0;9999.99;3.34;3.467;2;9;22.4;0;22.3999996185303;36.2;1529.19904;01/30/21;14:15:17;22.02;54.61;36.20;1.131;8.46;-85.2;-3.8;-6.2;-578;88.5;6.27;13.3;;
25.9126551143446;-80.1377256115437;14:36:21.44;1/30/2021;10;1.89;122.35;-7.05677591499146;0.86;134.7;126.14;1.2;2.71;23.5;.00;3.37;3.37;79;38;427.1;15.5;-2.4;D;712;1;20.697;2;1.92;176;131.79;-80.13757133;25.91253107;0;0;1;N;0.6245999;66;66;11;140;140;129.0488;0;9999.99;3.38;3.507;2;9;22.4;0;22.3999996185303;36.2;1529.19904;01/30/21;14:15:17;22.02;54.61;36.20;1.131;8.46;-85.2;-3.8;-6.2;-578;88.5;6.27;13.3;;
25.9126494763355;-80.1377172621045;14:36:22.44;1/30/2021;10;1.954;125.7;-7.05677591499146;0.86;135.9;127.26;1.02;1.85;23.5;.00;3.37;3.37;79;38;427.1;15.5;-2.4;D;712;1;19.657;2;1.97;176;132.05;-80.13757133;25.91253107;0;0;1;N;0.4798774;63;63;11;138;138;129.9868;0;9999.99;3.38;3.507;2;9;22.4;0;22.3999996185303;36.2;1529.1991;01/30/21;14:15:18;22.02;54.60;36.20;1.142;8.46;-85.2;-3.5;-5.2;-6514;88.5;6.27;13.3;;
25.9126437023741;-80.1377109597945;14:36:23.44;1/30/2021;10;1.949;126.81;-7.05677591499146;0.9;138.4;129.59;1.04;0.41;23.5;.00;3.40;3.40;79;38;427.1;15.5;-2.4;D;712;1;18.759;2;1.98;176;131.89;-80.13757133;25.91253107;0;0;1;N;0.3981828;64;64;11;128;128;129.7637;0;9999.99;3.41;3.537;2;9;22.4;0;22.3999996185303;36.21;1529.21009;01/30/21;14:15:20;22.03;54.62;36.21;1.122;8.46;-85.4;-2.4;-1.4;-5684;88.6;6.28;13.4;;
25.9126366104962;-80.1377038632073;14:36:24.44;1/30/2021;10;1.855;131.16;-7.05677591499146;0.9;139.6;130.71;0.6;1.77;23.5;.00;3.40;3.41;79;38;427.1;15.5;-2.4;D;712;1;17.704;2;1.96;176;131.52;-80.13757133;25.91253107;0;0;1;N;0.441387;61;61;11;121;121;129.1633;0;9999.99;3.41;3.537;2;9;22.4;0;22.3999996185303;36.21;1529.21029;01/30/21;14:15:21;22.03;54.62;36.21;1.201;8.47;-85.6;-4.6;-6.3;-4332;88.7;6.28;13.4;;
25.9126307547924;-80.1376975577947;14:36:25.44;1/30/2021;10;1.784;129.23;-7.05677591499146;0.9;141;132.03;0.92;2.65;23.5;.00;3.42;3.42;79;39;427.1;15.5;-2.5;D;698.8;1;16.800;2;1.95;176;131.28;-80.13757133;25.91253107;0;0;1;N;0.5392451;63;63;11;115;115;128.9089;0;9999.99;3.43;3.557;2;9;22.4;0;22.3999996185303;36.21;1529.21029;01/30/21;14:15:21;22.03;54.62;36.21;1.201;8.47;-85.6;-4.6;-6.3;-4332;88.7;6.28;13.4;;
25.912623895652;-80.1376910756679;14:36:26.44;1/30/2021;10;1.932;131.23;-7.05677591499146;0.9;141.6;132.59;0.85;2.05;23.5;.00;3.44;3.44;79;39;427.1;15.5;-2.5;D;698.8;1;15.810;2;1.97;176;130.76;-80.13757133;25.91253107;0;0;1;N;0.7369661;62;62;11;109;109;128.1564;0;9999.99;3.45;3.577;2;9;22.4;0;22.3999996185303;36.21;1529.2102;01/30/21;14:15:22;22.03;54.63;36.21;1.089;8.46;-85.0;-4.0;0.7;-2766;88.8;6.29;13.5;;
25.912617585468;-80.1376858814822;14:36:27.44;1/30/2021;10;1.909;135.04;-7.05677591499146;0.9;140.8;131.84;0.52;2.66;23.5;.00;3.46;3.46;79;39;427.1;15.5;-2.5;D;698.8;1;14.960;2;1.96;176;130.02;-80.13757133;25.91253107;0;0;1;N;0.7197917;59;59;11;106;106;127.0499;0;9999.99;3.46;3.587;2;9;22.5;0;22.5;36.21;1529.46684;01/30/21;14:15:24;22.03;54.62;36.21;1.187;8.47;-85.5;-3.3;-3.3;-1007;88.9;6.29;13.3;;
25.9126100812475;-80.1376795522236;14:36:28.44;1/30/2021;10;1.932;134.83;-7.05677591499146;0.86;141;132.03;1.2;2.87;23.5;.00;3.48;3.48;79;39;427.1;15.5;-2.5;D;704.8;1;13.941;2;1.96;176;129.07;-80.13757133;25.91253107;0;0;1;N;0.852519;64;64;11;100;100;125.8429;0;9999.99;3.49;3.617;2;9;22.5;0;22.5;36.21;1529.46684;01/30/21;14:15:24;22.03;54.62;36.21;1.187;8.47;-85.5;-3.3;-3.3;-1007;88.9;6.29;13.3;;
25.9126028323518;-80.1376714916603;14:36:29.44;1/30/2021;10;1.926;133.78;-7.05677591499146;0.86;140.7;131.75;0.66;3.02;23.5;.00;3.49;3.50;79;39;427.1;15.5;-2.5;D;704.8;1;12.808;2;2;176;128.54;-80.13757133;25.91253107;0;0;1;N;1.093386;61;61;11;103;103;125.637;0;9999.99;3.50;3.627;2;9;22.4;0;22.3999996185303;36.22;1529.22126;01/30/21;14:15:26;22.03;54.63;36.22;1.178;8.46;-85.3;-4.9;-5.2;-4017;89.0;6.31;13.3;;
25.9125961586502;-80.1376654647992;14:36:30.47;1/30/2021;10;2.075;134.8;-7.05677591499146;0.86;140.7;131.75;0.66;1.8;23.5;.00;3.50;3.50;79;39;427.1;15.5;-2.5;D;704.8;1;11.875;2;2.03;176;127.55;-80.13757133;25.91253107;0;0;1;N;1.065442;62;62;11;101;101;124.747;0;9999.99;3.50;3.627;2;9;22.4;0;22.3999996185303;36.22;1529.22126;01/30/21;14:15:26;22.03;54.63;36.22;1.178;8.46;-85.3;-4.9;-5.2;-4017;89.0;6.31;13.3;;
25.9125898936959;-80.1376576770249;14:36:31.48;1/30/2021;10;1.962;133.8;-7.05677591499146;0.86;140.3;131.37;0.53;3.37;23.5;.00;3.52;3.52;79;39;427.1;15.5;-2.5;D;704.8;1;10.834;2;2.04;176;127.14;-80.13757133;25.91253107;0;0;1;N;1.181519;60;60;11;101;101;124.9545;0;9999.99;3.52;3.647;2;9;22.5;0;22.3999996185303;36.23;1529.2322;01/30/21;14:15:27;22.03;54.64;36.23;1.130;8.47;-85.6;-3.4;-4.2;-2225;89.1;6.31;13.1;;
25.912589743375;-80.1376478291055;14:36:32.48;1/30/2021;10;1.827;119.53;-7.05677591499146;0.86;139.8;130.9;0.54;3.96;23.5;.00;3.51;3.51;79;39;427.0;15.5;-2.5;D;699;1;10.055;2;2.04;176;130.45;-80.13757133;25.91253107;0;0;1;N;1.13717;62;62;11;125;125;129.651;0;9999.99;3.52;3.647;2;9;22.5;0;22.5;36.22;1529.478;01/30/21;14:15:29;22.03;54.64;36.22;1.130;8.46;-85.3;-4.8;-2.8;-1160;89.2;6.31;13.3;;
25.9125829870227;-80.1376404710703;14:36:33.48;1/30/2021;10;1.864;124.51;-7.05677591499146;0.86;139.5;130.62;0.79;3.18;23.5;.00;3.53;3.53;79;39;427.0;15.5;-2.5;D;699;1;9.008;2;2.03;176;129.86;-80.13757133;25.91253107;0;0;1;N;0.4787487;61;61;11;119;119;129.3834;0;9999.99;3.53;3.657;2;9;22.5;0;22.5;36.22;1529.478;01/30/21;14:15:29;22.03;54.64;36.22;1.130;8.46;-85.3;-4.8;-2.8;-1160;89.2;6.31;13.3;;
25.9125759056419;-80.1376336719281;14:36:34.50;1/30/2021;10;1.862;128.36;-7.05677591499146;0.86;139.2;130.34;0.59;2.8;23.5;.00;3.53;3.53;79;39;427.0;15.5;-2.5;D;699;1;7.984;2;2.03;176;128.65;-80.13757133;25.91253107;0;0;1;N;0.5141144;61;61;11;118;118;128.6196;0;9999.99;3.54;3.667;2;9;22.5;0;22.5;36.22;1529.47785;01/30/21;14:15:30;22.03;54.64;36.22;1.191;8.47;-85.5;-3.2;-2.0;-3941;89.2;6.32;13.3;;
25.9125672426548;-80.1376275116599;14:36:35.52;1/30/2021;10;2.026;131.37;-7.05677591499146;0.86;140.2;131.28;0.39;4.08;23.5;.00;3.55;3.55;79;38;427.6;15.5;-2.4;D;713.2;1;6.910;2;2.02;176;125.6;-80.13757133;25.91253107;0;0;1;N;0.609839;59;59;11;109;109;126.6541;0;9999.99;3.55;3.677;2;9;22.5;0;22.5;36.23;1529.48898;01/30/21;14:15:32;22.03;54.64;36.23;1.164;8.47;-85.5;-3.8;-3.4;1528;89.3;6.32;13.3;;
25.9125603359031;-80.1376206403879;14:36:36.52;1/30/2021;10;1.958;131.59;-7.05677591499146;0.86;140.3;131.37;1.4;1.36;23.5;.00;3.54;3.55;79;38;427.6;15.5;-2.4;D;713.2;1;5.909;2;2;176;123.42;-80.13757133;25.91253107;0;0;1;N;0.9051373;63;63;11;107;107;126.0653;0;9999.99;3.55;3.677;2;9;22.5;0;22.5;36.23;1529.48898;01/30/21;14:15:32;22.03;54.64;36.23;1.164;8.47;-85.5;-3.8;-3.4;1528;89.3;6.32;13.3;;
25.9125516444166;-80.1376135214788;14:36:37.52;1/30/2021;10;1.983;135.11;-7.05677591499146;0.86;141.3;132.31;0.5;3.82;23.5;.00;3.55;3.55;79;38;427.6;15.5;-2.4;D;713.2;1;4.801;2;1.98;176;118.46;-80.13757133;25.91253107;0;0;1;N;1.240627;60;60;11;96;96;124.605;0;9999.99;3.56;3.687;2;9;22.5;0;22.5;36.23;1529.48894;01/30/21;14:15:33;22.03;54.65;36.23;1.140;8.47;-85.6;-3.4;-1.1;-1112;89.4;6.33;13.1;;
25.9125439566852;-80.1376076314899;14:36:38.53;1/30/2021;10;1.803;133.7;-7.05677591499146;0.86;141.2;132.21;0.22;3.93;23.5;.00;3.55;3.56;79;38;427.6;15.5;-2.4;D;713.2;2;20.110;2;1.97;176;148.54;-80.13750269;25.91238969;0;0;1;N;2.804758;58;58;11;167;167;142.139;0;9999.99;3.56;3.687;2;9;22.5;0;22.5;36.23;1529.48895;01/30/21;14:15:35;22.03;54.65;36.23;1.137;8.47;-85.6;-3.5;-3.2;-3189;89.6;6.35;13.2;;
25.9125382173105;-80.1376015277354;14:36:39.53;1/30/2021;10;1.767;128.75;-7.05677591499146;0.86;143.6;134.47;1.11;3.44;23.5;.00;3.57;3.57;79;39;427.5;15.5;-2.5;D;703.8;2;19.248;2;1.98;176;149.1;-80.13750269;25.91238969;0;0;1;N;2.496855;64;64;11;160;160;142.6111;0;9999.99;3.58;3.707;2;9;22.5;0;22.5;36.23;1529.48895;01/30/21;14:15:35;22.03;54.65;36.23;1.137;8.47;-85.6;-3.5;-3.2;-3189;89.6;6.35;13.2;;
25.9125318886804;-80.1375983422995;14:36:40.53;1/30/2021;10;1.558;130.44;-7.05677591499146;0.86;146.9;137.58;0.83;0.7;23.5;.00;3.59;3.59;79;39;427.5;15.5;-2.5;D;703.8;2;18.481;2;1.94;176;148.82;-80.13750269;25.91238969;0;0;1;N;2.475479;62;62;11;143;143;141.5701;0;9999.99;3.60;3.727;2;9;22.5;0;22.5;36.23;1529.48895;01/30/21;14:15:36;22.04;54.65;36.23;1.130;8.47;-85.7;-3.2;-5.1;-2066;89.6;6.34;13.2;;
25.912525118423;-80.1375926204198;14:36:41.55;1/30/2021;10;1.707;135.65;-7.05677591499146;0.86;150.5;140.99;1.39;2.07;23.5;.00;3.59;3.59;79;39;427.5;15.5;-2.5;D;703.8;2;17.541;2;1.91;176;149.15;-80.13750269;25.91238969;0;0;1;N;2.248617;65;65;11;129;129;141.4053;0;9999.99;3.60;3.727;2;9;22.5;0;22.5;36.23;1529.48898;01/30/21;14:15:38;22.04;54.65;36.23;1.118;8.47;-85.7;-4.0;-2.2;-327;89.7;6.35;13.5;;
25.9125175803794;-80.1375873264298;14:36:42.55;1/30/2021;10;1.791;139.17;-7.05677591499146;0.86;151.9;142.33;1.75;1.9;23.4;.00;3.61;3.61;79;38;427.5;15.5;-2.4;D;713.4;2;16.549;2;1.91;176;149.24;-80.13750269;25.91238969;0;0;1;N;2.09622;67;67;11;125;125;141.7299;0;9999.99;3.62;3.747;2;9;22.5;0;22.5;36.23;1529.48898;01/30/21;14:15:38;22.04;54.65;36.23;1.118;8.47;-85.7;-4.0;-2.2;-327;89.7;6.35;13.5;;
25.9125097889257;-80.1375823591816;14:36:43.56;1/30/2021;10;1.891;141.99;-7.05677591499146;0.86;152.9;143.28;1.08;2.57;23.5;.00;3.63;3.63;79;38;427.5;15.5;-2.4;D;713.4;2;15.551;2;1.91;176;149.18;-80.13750269;25.91238969;0;0;1;N;1.983325;65;65;11;126;126;142.4846;0;9999.99;3.64;3.767;2;9;22.5;0;22.5;36.23;1529.48924;01/30/21;14:15:39;22.04;54.64;36.23;1.101;8.47;-85.8;-2.3;-6.1;-2805;89.7;6.35;13.2;;
25.9125012548569;-80.1375772164609;14:36:44.56;1/30/2021;10;2.071;145.74;-7.05677591499146;0.86;154.2;144.52;0.88;2.46;23.5;.00;3.62;3.62;79;38;427.5;15.5;-2.4;D;713.4;2;14.473;2;1.93;176;149;-80.13750269;25.91238969;0;0;1;N;1.889336;62;62;11;121;121;143.1213;0;9999.99;3.63;3.757;2;9;22.5;0;22.5;36.23;1529.48896;01/30/21;14:15:41;22.04;54.64;36.23;1.105;8.47;-85.6;-5.5;-0.7;-2318;89.8;6.36;13.3;;
25.912492679324;-80.137571522955;14:36:45.56;1/30/2021;10;1.889;146.38;-7.05677591499146;0.86;154.5;144.81;1.37;3.25;23.5;.00;3.63;3.63;79;38;427.5;15.5;-2.4;D;713.4;2;13.362;2;1.96;176;148.99;-80.13750269;25.91238969;0;0;1;N;1.754073;65;65;11;124;124;144.0429;0;9999.99;3.64;3.767;2;9;22.5;0;22.5;36.23;1529.48896;01/30/21;14:15:41;22.04;54.64;36.23;1.105;8.47;-85.6;-5.5;-0.7;-2318;89.8;6.36;13.3;;
25.9124841624577;-80.1375661738811;14:36:46.56;1/30/2021;10;1.967;147.81;-7.05677591499146;0.86;154.4;144.71;1.11;4.31;23.6;.00;3.66;3.66;79;38;427.4;15.5;-2.4;D;714.4;2;12.275;2;1.96;176;148.85;-80.13750269;25.91238969;0;0;1;N;1.641883;64;64;11;127;127;144.8116;0;9999.99;3.67;3.797;2;9;22.5;0;22.5;36.23;1529.48892;01/30/21;14:15:42;22.04;54.64;36.23;1.140;8.47;-85.8;-2.7;-3.1;-5060;89.8;6.36;13.4;;
25.9124753433321;-80.1375613840407;14:36:47.56;1/30/2021;10;2.018;147.08;-7.05677591499146;0.86;156;146.24;0.6;2.79;23.5;.00;3.68;3.68;79;38;427.4;15.5;-2.4;D;714.4;2;11.188;2;1.99;176;148.35;-80.13750269;25.91238969;0;0;1;N;1.590214;61;61;11;125;125;145.1669;0;9999.99;3.68;3.807;2;9;22.5;0;22.5;36.23;1529.48892;01/30/21;14:15:43;22.04;54.64;36.23;1.100;8.47;-85.8;-3.1;-2.9;-1923;89.8;6.36;13.1;;
25.9124668721798;-80.1375565921357;14:36:48.56;1/30/2021;10;1.913;147.76;-7.05677591499146;0.86;157.5;147.68;0.62;1.45;23.5;.00;3.67;3.67;79;38;427.4;15.5;-2.4;D;714.4;2;10.135;2;1.94;176;147.86;-80.13750269;25.91238969;0;0;1;N;1.523996;61;61;11;120;120;145.6238;0;9999.99;3.68;3.807;2;9;22.5;0;22.5;36.23;1529.48886;01/30/21;14:15:45;22.03;54.64;36.23;1.134;8.46;-85.4;-2.2;-4.3;-3697;89.9;6.36;13.3;;
25.9124584376718;-80.1375528563895;14:36:49.56;1/30/2021;10;1.827;149.53;-7.05677591499146;0.86;157.9;148.07;0.41;2.38;23.5;.00;3.67;3.67;79;39;427.4;15.5;-2.5;D;709;2;9.144;2;1.93;176;146.72;-80.13750269;25.91238969;0;0;1;N;1.556098;59;59;11;116;116;145.402;0;9999.99;3.68;3.807;2;9;22.5;0;22.5;36.23;1529.48884;01/30/21;14:15:46;22.03;54.64;36.23;1.121;8.47;-86.1;-4.3;-2.5;40;89.9;6.36;13.4;;
25.9124500571468;-80.1375483643534;14:36:50.56;1/30/2021;10;1.883;149.86;-7.05677591499146;0.86;158.7;148.84;0.97;2.52;23.5;.00;3.69;3.69;79;39;427.4;15.5;-2.5;D;709;2;8.120;2;1.96;176;145.76;-80.13750269;25.91238969;0;0;1;N;1.514786;63;63;11;114;114;145.6877;0;9999.99;3.70;3.827;2;9;22.5;0;22.5;36.23;1529.48885;01/30/21;14:15:47;22.03;54.64;36.23;1.164;8.47;-86.1;-2.7;-3.7;-2371;90.0;6.37;13.1;;
25.9124412922744;-80.1375450277;14:36:51.56;1/30/2021;10;1.793;151.44;-7.05677591499146;0.86;158.2;148.36;0.62;2.37;23.5;.00;3.69;3.69;79;39;427.4;15.5;-2.5;D;709;2;7.131;2;1.96;176;143.57;-80.13750269;25.91238969;0;0;1;N;1.599265;63;63;11;112;112;145.104;0;9999.99;3.70;3.827;2;9;22.5;0;22.5;36.23;1529.48885;01/30/21;14:15:47;22.03;54.64;36.23;1.164;8.47;-86.1;-2.7;-3.7;-2371;90.0;6.37;13.1;;
25.9124326983376;-80.1375407525566;14:36:52.56;1/30/2021;10;1.725;151.02;-7.05677591499146;0.86;159.7;149.8;1.03;5.07;23.5;.00;3.70;3.71;79;39;427.4;15.5;-2.5;D;709;2;6.113;2;1.95;176;141.48;-80.13750269;25.91238969;0;0;1;N;1.587911;63;63;11;109;109;145.1827;0;9999.99;3.71;3.837;2;9;22.5;0;22.5;36.23;1529.48897;01/30/21;14:15:48;22.03;54.65;36.23;1.110;8.47;-85.6;-3.7;-4.5;-3294;90.0;6.37;13.3;;
25.9124245447278;-80.1375365972855;14:36:53.56;1/30/2021;10;2.001;152.42;-7.05677591499146;0.86;159.4;149.51;0.64;2.21;23.5;.00;3.69;3.70;79;38;427.3;15.5;-2.4;D;713.4;2;5.149;2;1.94;176;138.81;-80.13750269;25.91238969;0;0;1;N;1.569874;61;61;11;110;110;145.3063;0;9999.99;3.70;3.827;2;9;22.5;0;22.5;36.23;1529.48891;01/30/21;14:15:50;22.03;54.65;36.23;1.133;8.48;-86.2;-3.7;-4.7;-2143;90.1;6.38;13.3;;
25.9124169635344;-80.1375323747581;14:36:54.56;1/30/2021;10;1.881;152.72;-7.05677591499146;0.86;159.4;149.51;1.11;3.86;23.5;.00;3.73;3.73;79;38;427.3;15.5;-2.4;D;713.4;3;18.578;2;1.95;176;136.09;-80.13740356;25.91229659;0;0;1;N;2.214781E-02;64;64;11;73;73;136.1317;0;9999.99;3.74;3.867;2;9;22.5;0;22.5;36.23;1529.48891;01/30/21;14:15:50;22.03;54.65;36.23;1.133;8.48;-86.2;-3.7;-4.7;-2143;90.1;6.38;13.3;;
25.9124089913581;-80.1375275879476;14:36:55.58;1/30/2021;10;1.926;152.18;-7.05677591499146;0.86;156.7;146.92;1.19;2.49;23.5;.00;3.72;3.72;79;38;427.3;15.5;-2.4;D;713.4;3;17.610;2;1.99;176;135.22;-80.13740356;25.91229659;0;0;1;N;0.2951568;63;63;11;77;77;134.7161;0;9999.99;3.73;3.857;2;9;22.5;0;22.5;36.23;1529.48892;01/30/21;14:15:51;22.03;54.65;36.23;1.099;8.47;-85.7;-2.8;-1.8;-2988;90.1;6.38;13.2;;
25.9124018255646;-80.1375231445679;14:36:56.59;1/30/2021;10;1.706;150.8;-7.05677591499146;0.86;153.9;144.23;0.55;4.54;23.5;.00;3.74;3.74;79;38;427.3;15.5;-2.4;D;713.4;3;16.733;2;1.98;176;134.37;-80.13740356;25.91229659;0;0;1;N;0.5282996;64;64;11;84;84;133.3006;0;9999.99;3.75;3.877;2;9;22.5;0;22.5;36.24;1529.50001;01/30/21;14:15:53;22.03;54.66;36.24;1.132;8.47;-86.1;-3.2;-5.7;-495;90.2;6.39;13.3;;
25.912394569948;-80.1375181510398;14:36:57.59;1/30/2021;10;1.862;149.19;-7.05677591499146;0.86;151.5;141.95;0.7;3.92;23.5;.00;3.72;3.72;79;38;427.3;15.5;-2.5;D;709.7;3;15.813;2;1.99;176;133.55;-80.13740356;25.91229659;0;0;1;N;0.7279889;61;61;11;87;87;131.8331;0;9999.99;3.72;3.847;2;9;22.5;0;22.5;36.24;1529.50001;01/30/21;14:15:53;22.03;54.66;36.24;1.132;8.47;-86.1;-3.2;-5.7;-495;90.2;6.39;13.3;;
25.9123863161999;-80.1375121476702;14:36:58.61;1/30/2021;10;1.918;147.28;-7.05677591499146;0.86;149;139.57;0.98;3.81;23.5;.00;3.74;3.74;79;39;427.2;15.5;-2.5;D;699.1;3;14.748;2;2.02;176;132.57;-80.13740356;25.91229659;0;0;1;N;0.9357796;63;63;11;88;88;129.9108;0;9999.99;3.75;3.877;2;9;22.5;0;22.5;36.24;1529.50005;01/30/21;14:15:54;22.03;54.66;36.24;1.188;8.47;-85.8;-2.3;-2.9;-1635;90.3;6.39;13.2;;
25.9123793373301;-80.1375062120189;14:36:59.61;1/30/2021;10;1.847;144.32;-7.05677591499146;0.86;146;136.73;1.67;2.72;23.5;.00;3.74;3.74;79;39;427.2;15.5;-2.5;D;699.1;3;13.787;2;2;176;131.87;-80.13740356;25.91229659;0;0;1;N;1.05172;67;67;11;95;95;128.7473;0;9999.99;3.75;3.877;2;9;22.5;0;22.5;36.24;1529.49994;01/30/21;14:15:56;22.03;54.66;36.24;1.133;8.48;-86.2;-1.9;-6.4;-3675;90.3;6.39;13.3;;
25.9123720604156;-80.1374998217181;14:37:00.61;1/30/2021;10;1.814;141.82;-7.05677591499146;0.86;144.1;134.94;0.54;2.96;23.5;.00;3.76;3.76;79;39;427.2;15.5;-2.5;D;699.1;3;12.772;2;2;176;131.08;-80.13740356;25.91229659;0;0;1;N;1.153705;60;60;11;99;99;128.0315;0;9999.99;3.76;3.887;2;9;22.5;0;22.5;36.24;1529.49994;01/30/21;14:15:56;22.03;54.66;36.24;1.133;8.48;-86.2;-1.9;-6.4;-3675;90.3;6.39;13.3;;
25.9123644956839;-80.1374936489618;14:37:01.61;1/30/2021;10;1.526;139.73;-7.05677591499146;0.86;143;133.91;0.7;3.65;23.5;.00;3.76;3.76;79;39;427.2;15.5;-2.5;D;699.1;3;11.756;2;1.99;176;129.96;-80.13740356;25.91229659;0;0;1;N;1.293676;61;61;11;100;100;127.0521;0;9999.99;3.76;3.887;2;9;22.5;0;22.5;36.24;1529.50004;01/30/21;14:15:57;22.02;54.66;36.24;1.136;8.47;-85.7;-2.5;-6.8;-1427;90.3;6.40;13.4;;
25.9123575396971;-80.1374876683407;14:37:02.61;1/30/2021;10;1.85;138.45;-7.05677591499146;0.86;141.5;132.5;0.73;2.63;23.6;.00;3.75;3.75;79;38;427.2;15.5;-2.4;D;710.7;3;10.803;2;1.96;176;128.86;-80.13740356;25.91229659;0;0;1;N;1.398167;61;61;11;102;102;126.3238;0;9999.99;3.76;3.887;2;9;22.5;0;22.5;36.24;1529.49991;01/30/21;14:15:59;22.02;54.66;36.24;1.146;8.48;-86.2;-1.7;-5.5;-2772;90.5;6.41;13.3;;
25.9123507459686;-80.1374822240836;14:37:03.61;1/30/2021;10;1.892;136.05;-7.05677591499146;0.87;140.1;131.18;0.08;2.05;23.6;.00;3.79;3.79;79;38;427.2;15.5;-2.4;D;710.7;3;9.908;2;1.95;176;127.43;-80.13740356;25.91229659;0;0;1;N;1.53309;57;57;11;104;104;125.3887;0;9999.99;3.79;3.917;2;9;22.5;0;22.5;36.24;1529.49991;01/30/21;14:15:59;22.02;54.66;36.24;1.146;8.48;-86.2;-1.7;-5.5;-2772;90.5;6.41;13.3;;
25.9123416581519;-80.1374745756036;14:37:04.61;1/30/2021;10;2.143;137.11;-7.05677591499146;0.87;139.7;130.81;1.18;2.22;23.6;.00;3.79;3.79;79;38;427.2;15.5;-2.4;D;710.7;3;8.693;2;1.96;176;125.21;-80.13740356;25.91229659;0;0;1;N;1.682638;64;64;11;101;101;124.3593;0;9999.99;3.80;3.927;2;9;22.5;0;22.5;36.24;1529.4999;01/30/21;14:16:00;22.02;54.66;36.24;1.143;8.47;-85.6;-2.7;1.5;-3316;90.5;6.41;13.3;;
25.9123344336753;-80.137466749691;14:37:05.61;1/30/2021;10;1.855;135.63;-7.05677591499146;0.87;139.2;130.34;1.17;1.93;23.6;.00;3.78;3.78;79;39;427.1;15.5;-2.5;D;707;3;7.593;2;1.98;176;123.66;-80.13740356;25.91229659;0;0;1;N;1.667369;64;64;11;102;102;124.4643;0;9999.99;3.79;3.917;2;9;22.5;0;22.5;36.23;1529.48898;01/30/21;14:16:02;22.02;54.65;36.23;1.140;8.48;-86.2;-2.9;-1.4;-1435;90.5;6.41;13.3;;
25.9123277565783;-80.1374594835393;14:37:06.63;1/30/2021;10;1.91;135.03;-7.05677591499146;0.87;138.1;129.31;0.55;0.41;23.6;.00;3.79;3.79;79;39;427.1;15.5;-2.5;D;707;3;6.580;2;1.97;176;121.78;-80.13740356;25.91229659;0;0;1;N;1.662654;60;60;11;108;108;124.4969;0;9999.99;3.79;3.917;2;9;22.5;0;22.5;36.23;1529.48898;01/30/21;14:16:02;22.02;54.65;36.23;1.140;8.48;-86.2;-2.9;-1.4;-1435;90.5;6.41;13.3;;
25.912321589027;-80.1374529330743;14:37:07.63;1/30/2021;10;1.816;133.39;-7.05677591499146;0.87;137.5;128.75;0.42;3.67;23.6;.00;3.79;3.80;79;39;427.1;15.5;-2.5;D;707;3;5.667;2;1.99;176;119.38;-80.13740356;25.91229659;0;0;1;N;1.664447;60;60;11;110;110;124.4849;0;9999.99;3.80;3.927;2;9;22.5;0;22.5;36.23;1529.48908;01/30/21;14:16:03;22.02;54.65;36.23;1.110;8.47;-85.7;-2.9;-0.5;-2156;90.6;6.41;13.1;;
25.9123160996622;-80.1374466527178;14:37:08.64;1/30/2021;10;1.785;132.18;-7.05677591499146;0.87;137.2;128.47;0.47;3.41;23.6;.00;3.83;3.83;79;39;427.1;15.5;-2.5;D;707;4;13.504;2;1.96;176;169.75;-80.13742262;25.91219659;0;0;1;N;4.713137;61;61;11;250;250;162.0192;0;9999.99;3.83;3.957;2;9;22.5;0;22.5;36.24;1529.49989;01/30/21;14:16:05;22.02;54.66;36.24;1.130;8.47;-86.0;-1.8;-0.6;-1215;90.6;6.42;13.3;;
25.912309969522;-80.1374391509459;14:37:09.66;1/30/2021;9;1.783;130.48;-7.05677591499146;1.07;145.8;136.54;0.12;5.36;23.5;.00;3.75;3.75;79;39;427.1;15.5;-2.5;D;695;4;12.715;2;1.92;176;172.53;-80.13742262;25.91219659;0;0;1;N;3.847831;55;55;11;250;250;166.7463;0;9999.99;3.75;3.874325;2;9;22.5;0;22.5;36.24;1529.49989;01/30/21;14:16:05;22.02;54.66;36.24;1.130;8.47;-86.0;-1.8;-0.6;-1215;90.6;6.42;13.3;;
25.9123042519004;-80.1374317491957;14:37:10.67;1/30/2021;10;1.657;128.12;-7.05677591499146;1.07;151.1;141.56;2.05;-3.47;23.5;.00;3.79;3.79;79;39;427.1;15.5;-2.5;D;695;4;12.006;2;1.81;176;175.64;-80.13742262;25.91219659;0;0;1;N;3.01059;69;69;11;242;242;170.2597;0;9999.99;3.81;3.937;2;9;22.5;0;22.5;36.23;1529.48884;01/30/21;14:16:06;22.02;54.65;36.23;1.129;8.47;-85.8;-2.2;-1.9;-1914;90.6;6.42;13.3;;
25.912298247725;-80.1374262416869;14:37:11.69;1/30/2021;10;1.485;134.57;-7.05677591499146;1.07;161.5;151.54;2.83;0.84;23.6;.01;3.80;3.82;79;39;427.1;15.5;-2.5;D;695;4;11.309;2;1.68;176;178.16;-80.13742262;25.91219659;0;0;1;N;2.345068;74;74;11;214;214;173.4126;0;9999.99;3.83;3.957;2;9;22.5;0;22.5;36.23;1529.4895;01/30/21;14:16:08;22.01;54.64;36.23;1.105;8.47;-85.9;-3.3;-5.4;-2983;90.6;6.42;13.3;;
25.912293113933;-80.1374242528073;14:37:12.69;1/30/2021;10;0.913;134.57;-7.05677591499146;1.07;169.6;159.45;2.66;-0.61;23.6;.01;3.81;3.83;79;40;427.0;15.5;-2.5;D;685.1;4;10.734;2;1.61;177;179.13;-80.13742262;25.91219659;0;0;1;N;2.020898;73;73;11;191;191;175.5556;0;9999.99;3.84;3.967;2;9;22.5;0;22.5;36.23;1529.4895;01/30/21;14:16:08;22.01;54.64;36.23;1.105;8.47;-85.9;-3.3;-5.4;-2983;90.6;6.42;13.3;;
25.9122882173799;-80.137423638154;14:37:13.69;1/30/2021;10;1.564;152.53;-7.05677591499146;0.87;176;165.77;2.72;1.51;23.6;.01;3.82;3.82;79;40;427.0;15.5;-2.5;D;685.1;4;10.189;2;1.59;177;179.43;-80.13742262;25.91219659;0;0;1;N;1.8647;73;73;11;172;172;176.6103;0;9999.99;3.84;3.967;2;9;22.5;0;22.5;36.22;1529.47858;01/30/21;14:16:10;22.01;54.64;36.22;1.091;8.47;-85.9;-2.6;-4.4;-1696;90.7;6.43;13.3;;
25.9122792266119;-80.1374207779644;14:37:14.69;1/30/2021;10;1.639;159.86;-7.05677591499146;0.87;181.1;170.87;1.5;0.06;23.6;.00;3.83;3.83;79;40;427.0;15.5;-2.5;D;685.1;4;9.191;2;1.62;178;181.15;-80.13742262;25.91219659;0;0;1;N;1.405351;66;66;11;164;164;179.7659;0;9999.99;3.84;3.967;2;9;22.5;0;22.5;36.22;1529.47858;01/30/21;14:16:10;22.01;54.64;36.22;1.091;8.47;-85.9;-2.6;-4.4;-1696;90.7;6.43;13.3;;
25.912271286266;-80.1374187663066;14:37:15.69;1/30/2021;10;1.526;166.69;-7.05677591499146;0.87;185.7;175.5;1.04;4.82;23.6;.00;3.85;3.85;79;40;427.0;15.5;-2.5;D;685.1;4;8.314;2;1.67;178;182.66;-80.13742262;25.91219659;0;0;1;N;1.047221;63;63;11;154;154;182.2707;0;9999.99;3.86;3.987;2;9;22.5;0;22.5;36.22;1529.47801;01/30/21;14:16:11;22.01;54.63;36.22;1.151;8.47;-86.0;-3.5;-4.1;-720;90.7;6.43;13.1;;
25.9122635490035;-80.1374174591887;14:37:16.69;1/30/2021;10;1.633;169.88;-7.05677591499146;0.87;188.3;178.14;0.8;2.18;23.6;.00;3.86;3.86;79;40;427.0;15.5;-2.5;D;683.4;4;7.463;2;1.71;178;183.97;-80.13742262;25.91219659;0;0;1;N;0.7689304;62;62;11;151;151;184.2379;0;9999.99;3.87;3.997;2;9;22.5;0;22.5;36.23;1529.48886;01/30/21;14:16:12;22.00;54.64;36.23;1.121;8.47;-85.7;-2.4;-2.5;-4650;90.8;6.43;13.3;;
25.9122552876924;-80.1374186908878;14:37:17.69;1/30/2021;10;1.775;176.73;-7.05677591499146;0.87;190.4;180.28;0.65;4.22;23.6;.00;3.88;3.88;79;40;427.0;15.5;-2.5;D;683.4;4;6.539;2;1.75;178;183.45;-80.13742262;25.91219659;0;0;1;N;0.7329825;61;61;11;144;144;184.4934;0;9999.99;3.89;4.017;2;9;22.5;0;22.5;36.23;1529.48884;01/30/21;14:16:14;22.00;54.65;36.23;1.116;8.47;-86.0;-2.2;-4.1;-3651;90.7;6.43;13.3;;
25.9122473940016;-80.1374213615694;14:37:18.69;1/30/2021;10;1.488;181.56;-7.05677591499146;0.87;194.3;184.26;0.92;3.99;23.6;.00;3.85;3.85;79;40;426.9;15.5;-2.6;D;677.9;4;5.650;2;1.79;178;181.28;-80.13742262;25.91219659;0;0;1;N;0.8423362;61;61;11;129;129;183.7172;0;9999.99;3.85;3.977;2;9;22.5;0;22.5;36.23;1529.48907;01/30/21;14:16:15;22.00;54.64;36.23;1.232;8.47;-85.7;-3.1;-2.4;-2242;90.7;6.43;13.2;;
25.9122389726177;-80.1374220067247;14:37:19.69;1/30/2021;10;1.78;188.96;-7.05677591499146;0.87;193.7;183.65;0.6;-2.8;23.5;.00;3.87;3.88;79;40;426.9;15.5;-2.6;D;677.9;5;14.465;2;1.84;179;151.95;-80.13735399;25.91212417;0;0;1;N;3.17624;61;61;11;18;18;156.3564;0;9999.99;3.88;4.007;2;9;22.5;0;22.5;36.23;1529.48907;01/30/21;14:16:15;22.00;54.64;36.23;1.232;8.47;-85.7;-3.1;-2.4;-2242;90.7;6.43;13.2;;
25.9122312759607;-80.1374242994438;14:37:20.69;1/30/2021;10;1.82;193.03;-7.05677591499146;0.87;187.1;176.92;1.1;7.55;23.5;.00;3.84;3.84;79;40;426.9;15.5;-2.6;D;677.9;5;13.831;2;1.85;179;149.44;-80.13735399;25.91212417;0;0;1;N;2.446525;64;64;11;32;32;153.1327;0;9999.99;3.84;3.967;2;9;22.5;0;22.5;36.23;1529.4889;01/30/21;14:16:16;22.00;54.64;36.23;1.126;8.47;-85.6;-3.1;-3.1;-4243;90.7;6.43;13.3;;
25.9122216086117;-80.1374245370539;14:37:21.69;1/30/2021;10;1.969;186.12;-7.05677591499146;0.87;179.2;168.96;1.48;4.66;23.6;.00;3.87;3.87;79;44;426.9;15.5;-2.8;D;614.9;5;12.930;2;1.88;179;146.93;-80.13735399;25.91212417;0;0;1;N;1.71821;66;66;11;50;50;149.7927;0;9999.99;3.88;4.007;2;9;22.5;0;22.5;36.22;1529.47787;01/30/21;14:16:18;22.00;54.63;36.22;1.088;8.47;-85.6;-3.7;-5.0;-5444;90.7;6.42;13.3;;
25.9122113676985;-80.1374238965561;14:37:22.69;1/30/2021;10;2.159;183.59;-7.05677591499146;0.87;172.8;162.6;2;8.6;23.5;.00;3.86;3.87;79;44;426.9;15.5;-2.8;D;614.9;5;11.954;2;1.92;179;144.2;-80.13735399;25.91212417;0;0;1;N;1.011524;69;69;11;56;56;145.5679;0;9999.99;3.88;4.007;2;9;22.5;0;22.5;36.22;1529.47787;01/30/21;14:16:18;22.00;54.63;36.22;1.088;8.47;-85.6;-3.7;-5.0;-5444;90.7;6.42;13.3;;
25.9122011370585;-80.137422405314;14:37:23.69;1/30/2021;10;2.039;176.61;-7.05677591499146;0.87;166.5;156.41;1.81;5.59;23.5;.00;3.86;3.86;79;44;426.9;15.5;-2.8;D;614.9;5;10.958;2;1.92;179;141.36;-80.13735399;25.91212417;0;0;1;N;0.3771615;68;68;11;67;67;142.0851;0;9999.99;3.87;3.997;2;9;22.5;0;22.5;36.22;1529.47811;01/30/21;14:16:19;21.99;54.63;36.22;1.090;8.47;-85.6;-1.7;0.1;-3652;90.7;6.43;13.2;;
25.9121912003291;-80.1374177445766;14:37:24.69;1/30/2021;10;1.953;170.17;-7.05677591499146;0.87;162.1;152.13;1.54;6.07;23.5;.00;3.84;3.84;79;44;426.9;15.5;-2.8;D;614.9;5;9.809;2;1.93;179;139.45;-80.13735399;25.91212417;0;0;1;N;9.111621E-03;65;65;11;76;76;139.6212;0;9999.99;3.85;3.977;2;9;22.5;0;22.5;36.22;1529.47796;01/30/21;14:16:21;21.99;54.63;36.22;1.118;8.47;-85.7;-1.9;-3.8;-991;90.7;6.43;13.3;;
25.9121829187033;-80.1374120139781;14:37:25.69;1/30/2021;10;2.001;161.07;-7.05677591499146;0.87;159;149.13;1.56;2.63;23.6;.00;3.85;3.85;79;43;426.8;15.5;-2.7;D;638.8;5;8.739;2;1.98;179;138.38;-80.13735399;25.91212417;0;0;1;N;0.1613023;66;66;11;84;84;138.401;0;9999.99;3.86;3.987;2;9;22.5;0;22.5;36.21;1529.46685;01/30/21;14:16:22;21.99;54.62;36.21;1.157;8.47;-85.5;-3.3;-7.6;-2086;90.7;6.43;13.3;;
25.9121755762888;-80.1374065444068;14:37:26.69;1/30/2021;10;1.681;155.81;-7.05677591499146;0.87;156.6;146.82;0.55;4.88;23.6;.00;3.84;3.84;79;43;426.8;15.5;-2.7;D;638.8;5;7.766;2;1.97;179;137.4;-80.13735399;25.91212417;0;0;1;N;0.2833985;61;61;11;89;89;137.5268;0;9999.99;3.85;3.977;2;9;22.5;0;22.5;36.21;1529.46685;01/30/21;14:16:22;21.99;54.62;36.21;1.157;8.47;-85.5;-3.3;-7.6;-2086;90.7;6.43;13.3;;
25.9121677863287;-80.137400764175;14:37:27.69;1/30/2021;10;1.783;148.97;-7.05677591499146;0.87;154.4;144.71;0.87;4.65;23.5;.00;3.84;3.84;79;43;426.8;15.5;-2.7;D;638.8;5;6.738;2;2;179;136.03;-80.13735399;25.91212417;0;0;1;N;0.4099055;62;62;11;95;95;136.623;0;9999.99;3.85;3.977;2;9;22.5;0;22.5;36.21;1529.46686;01/30/21;14:16:23;21.98;54.63;36.21;1.108;8.47;-85.7;-2.7;-0.3;1058;90.7;6.43;13.3;;
25.9121600849616;-80.1373955736235;14:37:28.69;1/30/2021;10;1.809;146.46;-7.05677591499146;0.87;153.3;143.66;-0.29;1.99;23.5;.00;3.87;3.87;79;43;426.8;15.5;-2.7;D;638.8;5;5.766;2;2.02;179;133.84;-80.13735399;25.91212417;0;0;1;N;0.5709087;55;55;11;94;94;135.4742;0;9999.99;3.87;3.997;2;9;22.5;0;22.5;36.22;1529.47784;01/30/21;14:16:25;21.98;54.63;36.22;1.138;8.47;-85.6;-2.6;-3.5;-2314;90.6;6.42;13.3;;
25.9121529242892;-80.1373896248584;14:37:29.69;1/30/2021;10;1.976;145.77;-7.05677591499146;0.87;151.3;141.75;0.56;3.48;23.5;.00;3.85;3.85;79;42;426.8;15.5;-2.7;D;649;6;25.288;2;2.01;179;142.52;-80.13723579;25.91197244;0;0;1;N;1.094019;60;60;11;121;121;140.35;0;9999.99;3.86;3.987;2;9;22.5;0;22.5;36.22;1529.47784;01/30/21;14:16:25;21.98;54.63;36.22;1.138;8.47;-85.6;-2.6;-3.5;-2314;90.6;6.42;13.3;;
25.9121459636857;-80.1373838397364;14:37:30.69;1/30/2021;10;1.913;144.78;-7.05677591499146;0.87;152.1;142.52;0.69;3.89;23.5;.00;3.85;3.85;79;42;426.8;15.5;-2.7;D;649;6;24.322;2;2.02;179;142.5;-80.13723579;25.91197244;0;0;1;N;1.063415;63;63;11;120;120;140.0921;0;9999.99;3.86;3.987;2;9;22.5;0;22.5;36.21;1529.46688;01/30/21;14:16:26;21.98;54.62;36.21;1.129;8.47;-85.7;-3.7;-3.1;-1606;90.6;6.42;13.1;;
25.9121392588022;-80.1373777012472;14:37:31.70;1/30/2021;10;1.819;145.09;-7.05677591499146;0.87;153.2;143.57;0.4;2.11;23.4;.00;3.89;3.89;79;42;426.8;15.5;-2.7;D;649;6;23.357;2;2.03;179;142.58;-80.13723579;25.91197244;0;0;1;N;0.9868133;59;59;11;113;113;140.0195;0;9999.99;3.89;4.017;2;9;22.5;0;22.5;36.21;1529.467;01/30/21;14:16:27;21.97;54.62;36.21;1.144;8.47;-85.6;-4.1;-7.0;-3360;90.6;6.42;13.2;;
25.9121313962516;-80.1373735470099;14:37:32.70;1/30/2021;10;1.825;145.34;-7.05677591499146;0.87;152.4;142.8;0.54;3.22;23.5;.00;3.87;3.87;79;42;426.7;15.5;-2.7;D;653;6;22.411;2;2.04;179;142.06;-80.13723579;25.91197244;0;0;1;N;1.147636;60;60;11;110;110;138.6064;0;9999.99;3.88;4.007;2;9;22.5;0;22.5;36.22;1529.47788;01/30/21;14:16:29;21.97;54.63;36.22;1.168;8.47;-85.8;-3.6;-2.2;-3638;90.6;6.42;13.3;;
25.9121241529128;-80.1373685533394;14:37:33.70;1/30/2021;10;1.913;145.46;-7.05677591499146;0.87;153;143.37;0.63;1.04;23.5;.00;3.88;3.88;79;42;426.7;15.5;-2.7;D;653;6;21.469;2;1.99;179;141.79;-80.13723579;25.91197244;0;0;1;N;1.203081;63;63;11;106;106;137.4821;0;9999.99;3.89;4.017;2;9;22.5;0;22.5;36.22;1529.47788;01/30/21;14:16:29;21.97;54.63;36.22;1.168;8.47;-85.8;-3.6;-2.2;-3638;90.6;6.42;13.3;;
25.9121159434778;-80.1373631334283;14:37:34.70;1/30/2021;10;1.944;147.08;-7.05677591499146;0.87;154;144.33;0.7;3.12;23.5;.00;3.87;3.88;79;42;426.7;15.5;-2.7;D;653;6;20.417;2;2.03;179;141.4;-80.13723579;25.91197244;0;0;1;N;1.279508;61;61;11;92;92;135.9292;0;9999.99;3.88;4.007;2;9;22.5;0;22.5;36.22;1529.47792;01/30/21;14:16:30;21.97;54.63;36.22;1.223;8.47;-85.5;-3.3;-7.7;-2233;90.6;6.42;13.3;;
25.9121068186813;-80.137356659992;14:37:35.72;1/30/2021;10;1.978;144.23;-7.05677591499146;0.87;153.2;143.57;0.83;1.14;23.5;.00;3.90;3.90;79;42;426.7;15.5;-2.7;D;653;6;19.220;2;2.09;179;141.03;-80.13723579;25.91197244;0;0;1;N;1.333269;62;62;11;94;94;135.5202;0;9999.99;3.91;4.037;2;9;22.5;0;22.5;36.23;1529.48887;01/30/21;14:16:32;21.97;54.64;36.23;1.141;8.47;-85.5;-3.2;-3.8;-5189;90.5;6.42;13.4;;
25.9120985503409;-80.1373507720517;14:37:36.73;1/30/2021;10;2.024;145.79;-7.05677591499146;0.87;153;143.37;0.48;3.8;23.5;.00;3.88;3.88;78;42;426.7;15.5;-2.7;D;647.2;6;18.135;2;2.07;179;140.64;-80.13723579;25.91197244;0;0;1;N;1.376754;60;60;11;94;94;135.2178;0;9999.99;3.89;4.017;2;9;22.5;0;22.5;36.23;1529.48887;01/30/21;14:16:32;21.97;54.64;36.23;1.141;8.47;-85.5;-3.2;-3.8;-5189;90.5;6.42;13.4;;
25.9120904470144;-80.1373442045826;14:37:37.73;1/30/2021;10;2.01;145.21;-7.05677591499146;0.87;151.3;141.75;0.86;3.28;23.4;.00;3.89;3.89;78;42;426.7;15.5;-2.7;D;647.2;6;17.022;2;2.06;179;140.43;-80.13723579;25.91197244;0;0;1;N;1.359584;62;62;11;101;101;135.3363;0;9999.99;3.89;4.017;2;9;22.5;0;22.5;36.22;1529.4781;01/30/21;14:16:33;21.97;54.64;36.22;1.124;8.47;-85.8;-2.6;-3.1;-2204;90.6;6.42;13.2;;
25.9120824428744;-80.1373381024973;14:37:38.73;1/30/2021;10;2.11;145.51;-7.05677591499146;0.87;150.5;140.99;0.61;3.65;23.5;.00;3.91;3.91;78;42;426.7;15.5;-2.7;D;647.2;6;15.948;2;2.05;179;140.08;-80.13723579;25.91197244;0;0;1;N;1.373523;61;61;11;104;104;135.2395;0;9999.99;3.92;4.047;2;9;22.5;0;22.5;36.23;1529.4889;01/30/21;14:16:35;21.98;54.64;36.23;1.115;8.47;-85.7;-3.8;-0.2;-4621;90.6;6.42;13.1;;
25.9120741850612;-80.1373325291809;14:37:39.73;1/30/2021;10;1.943;143.43;-7.05677591499146;0.87;148.8;139.38;0.5;3.99;23.4;.00;3.93;3.93;78;42;426.7;15.5;-2.7;D;650.5;6;14.887;2;2.05;179;139.46;-80.13723579;25.91197244;0;0;1;N;1.447111;60;60;11;108;108;134.7276;0;9999.99;3.94;4.067;2;9;22.5;0;22.5;36.23;1529.4889;01/30/21;14:16:35;21.98;54.64;36.23;1.115;8.47;-85.7;-3.8;-0.2;-4621;90.6;6.42;13.1;;
25.9120659370663;-80.1373268435479;14:37:40.73;1/30/2021;10;2.007;143;-7.05677591499146;0.87;148.7;139.29;0.83;3.45;23.5;.00;3.96;3.96;78;42;426.7;15.5;-2.7;D;650.5;6;13.821;2;2.09;179;138.78;-80.13723579;25.91197244;0;0;1;N;1.505456;61;61;11;105;105;134.3239;0;9999.99;3.96;4.087;2;9;22.5;0;22.5;36.23;1529.48884;01/30/21;14:16:37;21.98;54.65;36.23;1.173;8.46;-85.4;-3.1;1.6;-1228;90.5;6.41;13.3;;
25.9120573590716;-80.1373201152153;14:37:41.75;1/30/2021;10;2.062;143.3;-7.05677591499146;0.87;149;139.57;0.7;3.94;23.5;.00;3.96;3.96;78;42;426.7;15.5;-2.7;D;650.5;6;12.661;2;2.09;179;138.23;-80.13723579;25.91197244;0;0;1;N;1.503347;61;61;11;106;106;134.3378;0;9999.99;3.97;4.097;2;9;22.5;0;22.5;36.23;1529.48884;01/30/21;14:16:37;21.98;54.65;36.23;1.173;8.46;-85.4;-3.1;1.6;-1228;90.5;6.41;13.3;;
25.9120495496326;-80.137313382934;14:37:42.78;1/30/2021;10;2.038;141.59;-7.05677591499146;0.87;149.6;140.14;0.01;1.96;23.6;.00;3.97;3.97;78;42;426.7;15.5;-2.7;D;650.5;6;11.565;2;2.1;179;137.85;-80.13723579;25.91197244;0;0;1;N;1.449457;57;57;11;105;105;134.7117;0;9999.99;3.98;4.107;2;9;22.5;0;22.5;36.24;1529.49991;01/30/21;14:16:38;21.98;54.66;36.24;1.174;8.47;-85.6;-2.8;-3.0;-5939;90.5;6.41;13.4;;
25.9120417906182;-80.1373072961124;14:37:43.78;1/30/2021;10;2.006;142.49;-7.05677591499146;0.87;147.6;138.24;0.71;4.22;23.5;.00;3.95;3.95;78;42;426.6;15.5;-2.7;D;651.8;6;10.518;2;2.1;179;137.16;-80.13723579;25.91197244;0;0;1;N;1.448904;61;61;11;113;113;134.715;0;9999.99;3.96;4.087;2;9;22.4;0;22.5;36.24;1529.49993;01/30/21;14:16:39;21.99;54.67;36.24;1.125;8.47;-85.8;-3.1;-0.6;-3682;90.5;6.41;13.1;;
25.9120347465286;-80.1373015916684;14:37:44.78;1/30/2021;10;2.073;140.59;-7.05677591499146;0.87;147.7;138.34;0.66;2.92;23.5;.00;3.95;3.95;78;42;426.6;15.5;-2.7;D;651.8;6;9.556;2;2.1;179;136.47;-80.13723579;25.91197244;0;0;1;N;1.431156;61;61;11;113;113;134.8388;0;9999.99;3.95;4.077;2;9;22.5;0;22.3999996185303;36.23;1529.23214;01/30/21;14:16:40;21.99;54.64;36.23;1.140;8.46;-85.4;-4.0;-3.3;-1842;90.5;6.41;13.3;;
25.9120271263371;-80.1372943904162;14:37:45.80;1/30/2021;10;2.043;140.37;-7.05677591499146;0.87;148.4;139;0.38;2.24;23.5;.00;3.97;3.98;78;42;426.6;15.5;-2.7;D;651.8;6;8.446;2;2.13;179;136.05;-80.13723579;25.91197244;0;0;1;N;1.325839;59;59;11;113;113;135.5712;0;9999.99;3.98;4.107;2;9;22.5;0;22.5;36.22;1529.47792;01/30/21;14:16:42;21.97;54.64;36.22;1.132;8.46;-85.2;-3.8;-1.3;-978;90.5;6.42;13.3;;
25.9120196847304;-80.1372881120795;14:37:46.80;1/30/2021;10;1.908;139.31;-7.05677591499146;0.87;148.9;139.48;0.87;2.99;23.5;.00;3.99;4.00;78;41;426.6;15.5;-2.6;D;657.8;6;7.415;2;2.09;179;135.11;-80.13723579;25.91197244;0;0;1;N;1.285307;61;61;11;114;114;135.8537;0;9999.99;4.00;4.127;2;9;22.5;0;22.5;36.22;1529.47792;01/30/21;14:16:42;21.97;54.64;36.22;1.132;8.46;-85.2;-3.8;-1.3;-978;90.5;6.42;13.3;;
25.9120122338102;-80.1372820137687;14:37:47.81;1/30/2021;10;2.171;142.58;-7.05677591499146;0.87;149.5;140.04;0.47;3.37;23.5;.00;4.02;4.02;78;41;426.6;15.5;-2.6;D;657.8;6;6.400;2;2.09;179;133.74;-80.13723579;25.91197244;0;0;1;N;1.255229;59;59;11;108;108;136.0643;0;9999.99;4.03;4.157;2;9;22.5;0;22.5;36.23;1529.48901;01/30/21;14:16:43;21.95;54.65;36.23;1.159;8.47;-85.5;-3.5;-3.6;-3165;90.4;6.41;13.2;;
25.9120039827441;-80.1372751192714;14:37:48.81;1/30/2021;10;2.029;141.44;-7.05677591499146;0.87;148.9;139.48;1.11;3.22;23.5;.00;4.05;4.05;78;41;426.6;15.5;-2.6;D;657.8;6;5.270;2;2.07;179;131.72;-80.13723579;25.91197244;0;0;1;N;1.220733;64;64;11;114;114;136.3046;0;9999.99;4.06;4.187;2;9;22.5;0;22.5;36.24;1529.4999;01/30/21;14:16:45;21.94;54.66;36.24;1.149;8.46;-85.1;-4.7;-2.5;-2323;90.3;6.41;13.3;;
25.9119957818372;-80.1372682823289;14:37:49.81;1/30/2021;10;2.006;141.82;-7.05677591499146;0.87;152.5;142.9;0.29;7.12;23.5;.00;4.07;4.07;78;41;426.6;15.5;-2.6;D;657.8;7;15.944;2;2.07;179;152.16;-80.13719384;25.91186899;0;0;1;N;2.202044;59;59;11;150;150;148.6155;0;9999.99;4.07;4.197;2;9;22.5;0;22.5;36.24;1529.4999;01/30/21;14:16:45;21.94;54.66;36.24;1.149;8.46;-85.1;-4.7;-2.5;-2323;90.3;6.41;13.3;;
25.9119881148855;-80.1372618283548;14:37:50.81;1/30/2021;10;1.895;140.27;-7.05677591499146;0.87;153.7;144.04;0.82;0.84;23.5;.00;4.04;4.04;78;42;426.5;15.5;-2.7;D;649.8;7;14.890;2;2.08;179;152.83;-80.13719384;25.91186899;0;0;1;N;1.885455;63;63;11;148;148;149.3769;0;9999.99;4.05;4.177;2;9;22.5;0;22.5;36.24;1529.49993;01/30/21;14:16:46;21.94;54.66;36.24;1.158;8.46;-85.3;-3.7;-5.1;-1475;90.3;6.41;13.2;;
25.9119822247369;-80.1372567329453;14:37:51.81;1/30/2021;10;1.72;141.43;-7.05677591499146;0.87;155.7;145.96;0.98;4.18;23.5;.00;4.02;4.03;78;42;426.5;15.5;-2.7;D;649.8;7;14.075;2;2.05;179;153.45;-80.13719384;25.91186899;0;0;1;N;1.622559;62;62;11;143;143;150.1839;0;9999.99;4.03;4.157;2;9;22.5;0;22.5;36.25;1529.511;01/30/21;14:16:48;21.94;54.67;36.25;1.193;8.46;-85.0;-3.4;-4.8;-3626;90.3;6.41;13.2;;
25.9119734451446;-80.1372507765982;14:37:52.81;1/30/2021;10;1.999;144.44;-7.05677591499146;0.87;159.7;149.8;1.07;2.07;23.5;.00;4.02;4.02;78;42;426.5;15.5;-2.7;D;649.8;7;12.936;2;2.04;179;153.88;-80.13719384;25.91186899;0;0;1;N;1.392704;63;63;11;131;131;150.702;0;9999.99;4.03;4.157;2;9;22.5;0;22.5;36.25;1529.511;01/30/21;14:16:48;21.94;54.67;36.25;1.193;8.46;-85.0;-3.4;-4.8;-3626;90.3;6.41;13.2;;
25.911964779521;-80.1372449316411;14:37:53.81;1/30/2021;10;2.077;145.95;-7.05677591499146;0.87;161.2;151.25;0.8;3.42;23.5;.00;4.03;4.03;78;41;426.5;15.5;-2.6;D;659.4;7;11.814;2;2.01;179;154.37;-80.13719384;25.91186899;0;0;1;N;1.171422;62;62;11;128;128;151.6261;0;9999.99;4.04;4.167;2;9;22.5;0;22.5;36.26;1529.52196;01/30/21;14:16:49;21.94;54.68;36.26;1.127;8.46;-85.3;-3.2;-3.1;-2556;90.4;6.41;13.3;;
25.911956699977;-80.1372402131529;14:37:54.81;1/30/2021;10;2.088;149.27;-7.05677591499146;0.87;162.7;152.71;1.18;4.61;23.5;.00;4.06;4.06;78;41;426.5;15.5;-2.6;D;659.4;7;10.799;2;2.02;179;154.57;-80.13719384;25.91186899;0;0;1;N;1.029508;63;63;11;126;126;152.6283;0;9999.99;4.07;4.197;2;9;22.5;0;22.5;36.26;1529.52188;01/30/21;14:16:51;21.95;54.69;36.26;1.128;8.46;-85.0;-4.2;-2.4;-3424;90.2;6.40;13.2;;
25.9119467554867;-80.1372354159236;14:37:55.83;1/30/2021;10;1.993;153.59;-7.05677591499146;0.87;163.6;153.58;1.06;4.44;23.5;.00;4.05;4.05;78;41;426.5;15.5;-2.6;D;659.4;7;9.595;2;2.02;179;154.32;-80.13719384;25.91186899;0;0;1;N;0.9574468;63;63;11;125;125;153.1364;0;9999.99;4.06;4.187;2;9;22.5;0;22.5;36.26;1529.52188;01/30/21;14:16:51;21.95;54.69;36.26;1.128;8.46;-85.0;-4.2;-2.4;-3424;90.2;6.40;13.2;;
25.911937961621;-80.1372322194118;14:37:56.83;1/30/2021;10;2.019;157.11;-7.05677591499146;0.87;165.3;155.24;0.32;4.48;23.5;.00;4.06;4.06;78;41;426.5;15.5;-2.6;D;659.4;7;8.577;2;2.02;179;153.41;-80.13719384;25.91186899;0;0;1;N;0.9904509;59;59;11;118;118;152.9033;0;9999.99;4.07;4.197;2;9;22.5;0;22.5;36.27;1529.53296;01/30/21;14:16:52;21.95;54.69;36.27;1.135;8.46;-85.5;-4.7;-2.0;-3562;90.1;6.39;13.3;;
25.9119281140378;-80.1372277460523;14:37:57.84;1/30/2021;10;2.077;156.81;-7.05677591499146;0.87;165.4;155.33;0.69;3.85;23.5;.00;4.06;4.06;78;41;426.4;15.5;-2.6;D;658.6;7;7.398;2;2.05;179;152.71;-80.13719384;25.91186899;0;0;1;N;0.9479957;61;61;11;118;118;153.2029;0;9999.99;4.07;4.197;2;9;22.4;0;22.3999996185303;36.27;1529.27616;01/30/21;14:16:54;21.96;54.70;36.27;1.177;8.46;-85.1;-3.7;-6.3;-2481;90.1;6.39;13.2;;
25.9119185004735;-80.137223478711;14:37:58.86;1/30/2021;10;1.973;156.71;-7.05677591499146;0.87;167.4;157.29;0.6;2.22;23.6;.00;4.08;4.08;78;41;426.4;15.5;-2.6;D;658.6;7;6.253;2;2.02;179;151.7;-80.13719384;25.91186899;0;0;1;N;0.9045183;61;61;11;112;112;153.5107;0;9999.99;4.08;4.207;2;9;22.4;0;22.3999996185303;36.27;1529.27616;01/30/21;14:16:54;21.96;54.70;36.27;1.177;8.46;-85.1;-3.7;-6.3;-2481;90.1;6.39;13.2;;
25.9119098673393;-80.1372200750389;14:37:59.86;1/30/2021;10;1.972;159.89;-7.05677591499146;0.87;167.2;157.09;0.54;3.61;23.5;.00;4.08;4.08;78;41;426.4;15.5;-2.6;D;658.6;8;16.715;2;2.05;179;153.03;-80.13714428;25.91177589;0;0;1;N;0.4013709;60;60;11;109;109;152.5411;0;9999.99;4.09;4.217;2;9;22.4;0;22.3999996185303;36.27;1529.27614;01/30/21;14:16:55;21.96;54.70;36.27;1.169;8.46;-85.4;-3.6;-4.2;139;90.1;6.39;13.2;;
25.9119010756349;-80.1372168275324;14:38:00.86;1/30/2021;10;1.703;159.76;-7.05677591499146;0.87;167.1;156.99;0.97;3.13;23.5;.00;4.08;4.08;78;41;426.4;15.5;-2.6;D;663;8;15.698;2;2.09;179;152.47;-80.13714428;25.91177589;0;0;1;N;0.5299814;63;63;11;108;108;151.7457;0;9999.99;4.08;4.207;2;9;22.5;0;22.5;36.26;1529.52192;01/30/21;14:16:57;21.97;54.69;36.26;1.199;8.46;-85.4;-3.1;-1.3;-5904;90.1;6.38;13.3;;
25.9118912183837;-80.1372138672561;14:38:01.86;1/30/2021;10;1.928;163.38;-7.05677591499146;0.87;167.1;156.99;0.15;3.09;23.5;.00;4.07;4.07;78;41;426.4;15.5;-2.6;D;663;8;14.591;2;2.08;179;151.51;-80.13714428;25.91177589;0;0;1;N;0.7347088;58;58;11;101;101;150.3735;0;9999.99;4.08;4.207;2;9;22.5;0;22.5;36.26;1529.52192;01/30/21;14:16:57;21.97;54.69;36.26;1.199;8.46;-85.4;-3.1;-1.3;-5904;90.1;6.38;13.3;;
25.9118820527039;-80.1372104758386;14:38:02.86;1/30/2021;10;1.927;162.06;-7.05677591499146;0.87;166.7;156.6;0.72;3.18;23.5;.00;4.08;4.08;78;41;426.4;15.5;-2.6;D;663;8;13.535;2;2.06;179;150.71;-80.13714428;25.91177589;0;0;1;N;0.8701636;61;61;11;97;97;149.1964;0;9999.99;4.09;4.217;2;9;22.5;0;22.5;36.26;1529.52207;01/30/21;14:16:58;21.97;54.69;36.26;1.121;8.47;-85.5;-4.7;-3.3;-3414;90.1;6.38;13.3;;
25.9118737161306;-80.137207846738;14:38:03.88;1/30/2021;10;2.017;162.03;-7.05677591499146;0.87;166.3;156.21;0.27;2.7;23.5;.00;4.12;4.12;78;41;426.4;15.5;-2.6;D;663;8;12.600;2;2;179;149.7;-80.13714428;25.91177589;0;0;1;N;1.030986;58;58;11;95;95;148.1538;0;9999.99;4.13;4.257;2;9;22.5;0;22.5;36.25;1529.51091;01/30/21;14:17:00;21.96;54.67;36.25;1.169;8.46;-85.3;-3.9;-4.5;17188;90.1;6.38;13.3;;
25.9118639503838;-80.1372042979607;14:38:04.89;1/30/2021;10;2.101;162.08;-7.05677591499146;0.87;165.2;155.14;0.98;2.83;23.5;.00;4.09;4.09;78;42;426.3;15.5;-2.7;D;652.2;8;11.486;2;2.05;179;148.49;-80.13714428;25.91177589;0;0;1;N;1.179347;63;63;11;88;88;146.1225;0;9999.99;4.10;4.227;2;9;22.4;0;22.5;36.25;1529.51091;01/30/21;14:17:00;21.96;54.67;36.25;1.169;8.46;-85.3;-3.9;-4.5;17188;90.1;6.38;13.3;;
25.9118548035847;-80.1372006371619;14:38:05.91;1/30/2021;10;2.02;161.56;-7.05677591499146;0.87;163.9;153.87;0.38;3.65;23.5;.00;4.15;4.15;78;42;426.3;15.5;-2.7;D;652.2;8;10.430;2;2.03;179;147.28;-80.13714428;25.91177589;0;0;1;N;1.294611;59;59;11;92;92;145.2212;0;9999.99;4.15;4.277;2;9;22.4;0;22.3999996185303;36.26;1529.26515;01/30/21;14:17:01;21.96;54.68;36.26;1.166;8.47;-85.5;-4.0;-2.2;-2058;90.0;6.38;13.2;;
25.9118457265207;-80.1371971711867;14:38:06.92;1/30/2021;10;1.769;161.06;-7.05677591499146;0.87;163.3;153.29;0.71;4.62;23.5;.00;4.07;4.08;78;42;426.3;15.5;-2.7;D;652.2;8;9.397;2;2;179;145.74;-80.13714428;25.91177589;0;0;1;N;1.418972;61;61;11;92;92;144.3555;0;9999.99;4.08;4.207;2;9;22.4;0;22.3999996185303;36.25;1529.25423;01/30/21;14:17:03;21.96;54.67;36.25;1.121;8.46;-85.1;-3.7;-2.8;-660;90.1;6.38;13.1;;
25.9118375941551;-80.1371927598127;14:38:07.94;1/30/2021;10;1.903;157.72;-7.05677591499146;0.87;162.1;152.13;0;1.94;23.4;.00;4.10;4.10;78;42;426.3;15.5;-2.7;D;644.1;8;8.402;2;1.92;179;144.75;-80.13714428;25.91177589;0;0;1;N;1.422437;59;59;11;95;95;144.3312;0;9999.99;4.11;4.237;2;9;22.4;0;22.3999996185303;36.25;1529.25423;01/30/21;14:17:03;21.96;54.67;36.25;1.121;8.46;-85.1;-3.7;-2.8;-660;90.1;6.38;13.1;;
25.911828458423;-80.13718857836;14:38:08.94;1/30/2021;10;1.908;157.64;-7.05677591499146;0.87;159.9;150;1.06;3.7;23.5;.00;4.08;4.08;78;42;426.3;15.5;-2.7;D;644.1;8;7.335;2;1.95;179;142.84;-80.13714428;25.91177589;0;0;1;N;1.484906;63;63;11;103;103;143.9;0;9999.99;4.09;4.217;2;9;22.4;0;22.3999996185303;36.26;1529.26516;01/30/21;14:17:04;21.97;54.69;36.26;1.177;8.47;-85.6;-4.7;-5.6;-3647;90.2;6.39;13.4;;
25.9118199770266;-80.1371841255988;14:38:09.94;1/30/2021;10;1.934;155.2;-7.05677591499146;0.87;160.1;150.19;0.73;3.07;23.5;.00;3.99;3.99;78;42;426.3;15.5;-2.7;D;644.1;8;6.318;2;2;179;140.89;-80.13714428;25.91177589;0;0;1;N;1.487628;61;61;11;102;102;143.8806;0;9999.99;4.00;4.127;2;9;22.5;0;22.5;36.26;1529.52194;01/30/21;14:17:06;21.98;54.69;36.26;1.136;8.46;-85.4;-4.2;-3.1;749;90.4;6.40;13.4;;
25.9118116800859;-80.1371792897813;14:38:10.94;1/30/2021;10;2.009;153.84;-7.05677591499146;0.87;158.4;148.55;0.56;3.25;23.5;.00;4.08;4.08;78;42;426.3;15.5;-2.7;D;644.1;8;5.300;2;2.04;179;138.66;-80.13714428;25.91177589;0;0;1;N;1.455483;62;62;11;107;107;144.1035;0;9999.99;4.08;4.207;2;9;22.4;0;22.5;36.26;1529.52194;01/30/21;14:17:06;21.98;54.69;36.26;1.136;8.46;-85.4;-4.2;-3.1;749;90.4;6.40;13.4;;
25.9118030562874;-80.1371746286823;14:38:11.94;1/30/2021;10;1.994;154.33;-7.05677591499146;0.87;159.5;149.61;0.24;2.8;23.5;.00;4.11;4.11;78;42;426.2;15.5;-2.7;D;646.9;8;4.284;2;2.03;179;134.86;-80.13714428;25.91177589;0;0;1;N;1.448068;58;58;11;105;105;144.1552;0;9999.99;4.11;4.237;2;9;22.5;0;22.3999996185303;36.27;1529.27617;01/30/21;14:17:07;21.97;54.69;36.27;1.164;8.46;-85.4;-3.5;-4.4;-761;90.4;6.40;13.1;;
25.9117942317698;-80.1371703152784;14:38:12.94;1/30/2021;10;1.866;154.79;-7.05677591499146;0.87;160.1;150.19;0.03;7.6;23.5;.00;4.10;4.10;78;42;426.2;15.5;-2.7;D;646.9;9;14.243;2;2.05;179;167.9;-80.13714046;25.91166899;0;0;1;N;2.594126;57;57;11;179;179;163.1338;0;9999.99;4.11;4.237;2;9;22.5;0;22.5;36.24;1529.4999;01/30/21;14:17:09;21.96;54.66;36.24;1.147;8.46;-85.2;-3.5;-0.3;-2490;90.4;6.41;13.3;;
25.9117852760629;-80.1371656893871;14:38:13.95;1/30/2021;10;1.933;152.35;-7.05677591499146;0.87;165.2;155.14;1.32;2.08;23.5;.00;4.15;4.15;78;42;426.2;15.5;-2.7;D;646.9;9;13.175;2;2.02;179;168.96;-80.13714046;25.91166899;0;0;1;N;2.159304;65;65;11;164;164;164.4898;0;9999.99;4.15;4.277;2;9;22.5;0;22.5;36.24;1529.4999;01/30/21;14:17:09;21.96;54.66;36.24;1.147;8.46;-85.2;-3.5;-0.3;-2490;90.4;6.41;13.3;;
25.91177849908;-80.1371624051276;14:38:14.95;1/30/2021;10;1.42;153.02;-7.05677591499146;0.87;169.2;159.05;0.72;5.98;23.5;.00;4.14;4.14;78;42;426.2;15.5;-2.7;D;646.9;9;12.373;2;2.01;179;169.78;-80.13714046;25.91166899;0;0;1;N;1.847933;61;61;11;155;155;165.978;0;9999.99;4.15;4.277;2;9;22.5;0;22.5;36.24;1529.49999;01/30/21;14:17:10;21.95;54.66;36.24;1.192;8.47;-85.5;-3.5;-1.2;-2599;90.3;6.40;13.3;;
25.9117720129293;-80.1371598730901;14:38:15.97;1/30/2021;10;1.448;153.27;-7.05677591499146;0.87;172.5;162.3;1.08;1.07;23.5;.00;4.14;4.14;78;41;426.2;15.5;-2.6;D;669;9;11.619;2;1.98;179;170.38;-80.13714046;25.91166899;0;0;1;N;1.603827;63;63;11;145;145;166.8398;0;9999.99;4.15;4.277;2;9;22.5;0;22.5;36.25;1529.51108;01/30/21;14:17:12;21.95;54.67;36.25;1.157;8.46;-85.2;-3.6;-1.8;-3682;90.3;6.40;13.2;;
25.9117638955911;-80.1371577917435;14:38:16.98;1/30/2021;10;1.641;164.25;-7.05677591499146;0.87;175;164.78;1.09;5.6;23.5;.00;4.11;4.11;78;41;426.2;15.5;-2.6;D;669;9;10.695;2;1.97;179;170.67;-80.13714046;25.91166899;0;0;1;N;1.418937;65;65;11;141;141;168.1032;0;9999.99;4.12;4.247;2;9;22.5;0;22.5;36.25;1529.51108;01/30/21;14:17:12;21.95;54.67;36.25;1.157;8.46;-85.2;-3.6;-1.8;-3682;90.3;6.40;13.2;;
25.9117536099841;-80.1371555837091;14:38:18.00;1/30/2021;10;1.952;166.35;-7.05677591499146;0.87;178.2;167.97;1.18;2.37;23.5;.00;4.16;4.16;78;41;426.2;15.5;-2.6;D;669;9;9.530;2;1.98;179;170.87;-80.13714046;25.91166899;0;0;1;N;1.23185;64;64;11;133;133;169.4062;0;9999.99;4.16;4.287;2;9;22.5;0;22.5;36.24;1529.49997;01/30/21;14:17:13;21.94;54.66;36.24;1.143;8.46;-85.5;-4.1;-1.5;-2736;90.2;6.40;13.3;;
25.9117443992641;-80.1371539173708;14:38:19.00;1/30/2021;10;1.925;169.39;-7.05677591499146;0.87;179.4;169.16;1.06;4.27;23.6;.00;4.13;4.13;78;41;426.2;15.5;-2.6;D;665.7;9;8.492;2;1.99;179;170.88;-80.13714046;25.91166899;0;0;1;N;1.096008;63;63;11;132;132;170.3579;0;9999.99;4.14;4.267;2;9;22.5;0;22.5;36.23;1529.48899;01/30/21;14:17:14;21.94;54.65;36.23;1.119;8.47;-85.6;-4.4;-3.2;-3946;90.1;6.39;13.3;;
25.9117343939609;-80.1371529363486;14:38:20.02;1/30/2021;10;2.053;171.43;-7.05677591499146;0.87;180.7;170.47;0.9;4.01;23.5;.00;4.14;4.14;78;41;426.2;15.5;-2.6;D;665.7;9;7.379;2;2.02;179;170.26;-80.13714046;25.91166899;0;0;1;N;1.027724;62;62;11;128;128;170.839;0;9999.99;4.15;4.277;2;9;22.4;0;22.5;36.24;1529.50008;01/30/21;14:17:15;21.94;54.66;36.24;1.166;8.46;-85.0;-4.3;-3.9;-3348;90.1;6.39;13.1;;
