Latitude;Longitude;Time;Date;Number of Sats;GPS Speed (Kn);GPS True Heading;GPS Magnetic Variation;HDOP;C Magnetic Heading;C True Heading;Pitch Angle;Roll Angle;C Inside Temp (c);DFS Depth (m);DTB Height (m);Total Water Column (m);Batt Percent;Power Watts;Watt-Hours;Batt Volts;Batt Ampers;Batt State;Time to Empty;Current Step;Dist To Next (m);Next Speed (kn);Vehicle Speed (kn);Motor Speed CMD;Next Heading;Next Long;Next Lat;Next Depth (m);Depth Goal (m);Vehicle State;Error State;Distance to Track (m);Fin Pitch R;Fin Pitch L;Pitch Goal;Fin Yaw T;Fin Yaw B;Yaw Goal;Fin Roll;DVL-Depth (m);DVL -Altitude (m);DVL -Water Column (m);DVL-FixType;DVL-FixQuality;DVL-Temperature;Conductivity (mmhos/cm);Temperature (c);Salinity (ppt);Sound Speed (m/s);Date m/d/y   ;Time hh:mm:ss;Temp C;SpCond mS/cm;Sal ppt;Depth feet;pH;pH mV;Turbid+ NTU;Chl ug/L;BGA-PC cells/mL;ODOsat %;ODO mg/L;Battery volts;ROSEM Command Type;
25.9127206666667;-80.137853;13:03:44.02;1/30/2021;7;0.078;12.63;-7.05680275972635;1.25;117.8;110.47;1.31;-3.57;22.6;.00;2.82;2.82;86;18;469.3;14.3;-1.3;D;1495.9;0;4.119;2;0.06;128;32.93;-80.13783061;25.91275176;0;0;1;N;4.025453;65;65;11;5;5;344.3602;0;9999.99;2.83;2.957;0;0;22.1;0;22.1000003814697;36.17;1528.39137;01/30/21;12:42:39;21.79;54.56;36.17;1.124;8.47;-85.6;-3.9;-1.3;-3414;90.9;6.47;13.1;;
25.9127211666667;-80.1378528333333;13:03:45.02;1/30/2021;7;0.139;12.63;-7.05680275972635;1.25;117.3;110.01;0.94;-3.23;22.6;.00;2.82;2.82;86;18;469.3;14.3;-1.3;D;1495.9;0;4.063;2;0.06;128;33.16;-80.13783061;25.91275176;0;0;1;N;3.975019;63;63;11;5;5;344.0117;0;9999.99;2.83;2.957;2;9;22.1;0;22.1000003814697;36.18;1528.40225;01/30/21;12:42:41;21.79;54.58;36.18;1.121;8.51;-88.0;-4.4;-0.5;-3786;90.8;6.46;13.0;;
25.9127210301207;-80.1378530517049;13:03:46.02;1/30/2021;7;0.021;12.63;-7.05680275972635;1.25;115.6;108.44;1.98;2.55;22.6;.01;2.82;2.83;86;21;469.3;15.9;-1.3;D;1448.2;1;35.215;2;0.05;174;126.86;-80.13757133;25.91253107;0;0;1;N;4.024119;69;69;11;121;121;106.7103;0;9999.99;2.83;2.957;2;9;22.1;0;22.1000003814697;36.18;1528.40225;01/30/21;12:42:41;21.79;54.58;36.18;1.121;8.51;-88.0;-4.4;-0.5;-3786;90.8;6.46;13.0;;
25.9127204975936;-80.1378513974584;13:03:47.02;1/30/2021;7;0.407;12.63;-7.05680275972635;1.24;115.8;108.62;0.77;3.5;22.6;.01;2.93;2.94;86;21;469.3;15.9;-1.3;D;1448.2;1;35.047;2;0.08;174;126.94;-80.13757133;25.91253107;0;0;1;N;3.957381;62;62;11;121;121;107.0922;0;9999.99;2.94;3.067;2;9;22.1;0;22.1000003814697;36.19;1528.41389;01/30/21;12:42:42;21.79;54.59;36.19;1.127;8.46;-85.3;-3.8;-0.4;-3332;90.8;6.46;13.1;;
25.9127187584383;-80.1378484810177;13:03:48.03;1/30/2021;7;0.709;12.63;-7.05680275972635;1.24;114.9;107.79;2.06;5.92;22.6;.01;2.93;2.94;86;52;469.3;15.8;-3.3;D;590.3;1;34.698;2;0.28;174;126.98;-80.13757133;25.91253107;0;0;1;N;3.9015;69;69;11;126;126;107.419;0;9999.99;2.94;3.067;2;9;22.1;0;22.1000003814697;36.17;1528.39169;01/30/21;12:42:44;21.79;54.56;36.17;1.161;8.51;-88.2;-3.9;-3.4;-1656;90.7;6.45;13.1;;
25.91271742497;-80.1378433364758;13:03:49.03;1/30/2021;7;1.009;12.63;-7.05680275972635;1.35;116.7;109.45;0.93;4.85;22.7;.01;2.68;2.69;86;52;469.3;15.8;-3.3;D;590.3;1;34.198;2;0.54;174;127.3;-80.13757133;25.91253107;0;0;1;N;3.662721;63;63;11;124;124;108.8175;0;9999.99;2.69;2.817;2;9;22.1;0;22.1000003814697;36.17;1528.39169;01/30/21;12:42:44;21.79;54.56;36.17;1.161;8.51;-88.2;-3.9;-3.4;-1656;90.7;6.45;13.1;;
25.9127150501958;-80.1378371467879;13:03:50.03;1/30/2021;7;1.23;75.99;-7.05680275972635;1.35;117;109.73;1.09;9.4;22.6;.00;3.03;3.03;86;52;469.3;15.8;-3.3;D;590.3;1;33.546;2;0.74;174;127.58;-80.13757133;25.91253107;0;0;1;N;3.429236;64;64;11;129;129;110.2185;0;9999.99;3.04;3.167;2;9;22.1;0;22.1000003814697;36.16;1528.38037;01/30/21;12:42:45;21.79;54.55;36.16;1.155;8.46;-85.3;-2.6;-3.1;-2174;90.7;6.46;13.0;;
25.9127127981646;-80.1378304768568;13:03:51.05;1/30/2021;7;1.349;94.62;-7.05680275972635;1.24;118.3;110.93;0.61;5.18;22.6;.00;3.07;3.08;86;67;469.3;15.8;-4.2;D;458.3;1;32.865;2;0.95;174;127.94;-80.13757133;25.91253107;0;0;1;N;3.156388;61;61;11;131;131;111.8866;0;9999.99;3.08;3.207;2;9;22.1;0;22.1000003814697;36.17;1528.39125;01/30/21;12:42:47;21.78;54.56;36.17;1.161;8.45;-84.7;-3.1;-1.0;-1792;90.7;6.46;13.1;;
25.9127102265657;-80.1378229216782;13:03:52.06;1/30/2021;8;1.503;104.48;-7.05680275972635;1.24;119.7;112.23;0.35;6.53;22.6;.00;3.14;3.14;86;67;469.3;15.8;-4.2;D;458.3;1;32.094;2;1.15;174;128.37;-80.13757133;25.91253107;0;0;1;N;2.848075;61;61;11;134;134;113.8213;0;9999.99;3.15;3.277;2;9;22.1;0;22.1000003814697;36.17;1528.39125;01/30/21;12:42:47;21.78;54.56;36.17;1.161;8.45;-84.7;-3.1;-1.0;-1792;90.7;6.46;13.1;;
25.9127073068464;-80.1378149226219;13:03:53.06;1/30/2021;8;1.501;110.48;-7.05680275972635;1.24;120;112.51;0.31;8.2;22.5;.00;3.14;3.14;86;67;469.3;15.8;-4.2;D;458.3;1;31.266;2;1.32;174;128.81;-80.13757133;25.91253107;0;0;1;N;2.541327;59;59;11;140;140;115.7962;0;9999.99;3.15;3.277;2;9;22.1;0;22.1000003814697;36.18;1528.40219;01/30/21;12:42:48;21.78;54.57;36.18;1.163;8.47;-85.6;-2.0;-5.2;-1970;90.8;6.46;13.1;;
25.9127047407062;-80.1378072144642;13:03:54.06;1/30/2021;8;1.467;111.84;-7.05680275972635;1.24;120.1;112.6;0.97;7.09;22.6;.00;3.33;3.33;86;67;469.3;15.8;-4.2;D;458.3;1;30.488;2;1.41;174;129.3;-80.13757133;25.91253107;0;0;1;N;2.221391;63;63;11;148;148;117.9004;0;9999.99;3.34;3.467;2;9;22.1;0;22.1000003814697;36.16;1528.38007;01/30/21;12:42:49;21.78;54.55;36.16;1.170;8.43;-83.5;-2.2;-5.1;-2104;90.8;6.46;12.9;;
25.9127022192979;-80.1378006682722;13:03:55.06;1/30/2021;8;1.546;112.41;-7.05680275972635;0.97;122.1;114.45;0.99;6.67;22.5;.00;3.40;3.40;86;66;469.3;15.8;-4.2;D;463.7;1;29.805;2;1.48;174;129.68;-80.13757133;25.91253107;0;0;1;N;1.968606;63;63;11;148;148;119.5949;0;9999.99;3.41;3.537;2;9;22.1;0;22.1000003814697;36.18;1528.4022;01/30/21;12:42:51;21.78;54.57;36.18;1.176;8.49;-86.9;-3.4;-6.3;-3341;90.7;6.45;13.1;;
25.9126988364862;-80.1377924711395;13:03:56.08;1/30/2021;8;1.602;115.49;-7.05680275972635;0.97;124.4;116.58;0.98;7.27;22.6;.00;3.46;3.46;86;66;469.3;15.8;-4.2;D;463.7;1;28.934;2;1.53;174;130.15;-80.13757133;25.91253107;0;0;1;N;1.679596;63;63;11;147;147;121.5624;0;9999.99;3.47;3.597;2;9;22.1;0;22.1000003814697;36.18;1528.4022;01/30/21;12:42:51;21.78;54.57;36.18;1.176;8.49;-86.9;-3.4;-6.3;-3341;90.7;6.45;13.1;;
25.9126952467316;-80.1377846886856;13:03:57.08;1/30/2021;8;1.683;116.99;-7.05680275972635;0.97;125.8;117.87;0.82;7.64;22.6;.00;3.49;3.49;86;66;469.3;15.8;-4.2;D;463.7;1;28.083;2;1.56;175;130.55;-80.13757133;25.91253107;0;0;1;N;1.434315;62;62;11;149;149;123.2549;0;9999.99;3.50;3.627;2;9;22.1;0;22.1000003814697;36.19;1528.4133;01/30/21;12:42:52;21.79;54.59;36.19;1.152;8.44;-83.9;-3.8;-9.1;-3773;90.7;6.45;13.1;;
25.9126913900508;-80.1377771112532;13:03:58.09;1/30/2021;8;1.625;117.87;-7.05680275972635;0.97;127.2;119.17;0.72;7.65;22.6;.00;3.54;3.54;86;67;469.3;15.8;-4.2;D;458.8;1;27.229;2;1.6;175;130.9;-80.13757133;25.91253107;0;0;1;N;1.220501;61;61;11;149;149;124.7451;0;9999.99;3.55;3.677;2;9;22.1;0;22.1000003814697;36.18;1528.40217;01/30/21;12:42:54;21.79;54.57;36.18;1.157;8.53;-89.2;-2.2;-2.7;-4571;90.8;6.46;13.2;;
25.9126874157067;-80.1377699921719;13:03:59.11;1/30/2021;8;1.638;119.59;-7.05680275972635;0.97;128.6;120.47;0.62;8.6;22.6;.00;3.57;3.57;86;67;469.3;15.8;-4.2;D;458.8;1;26.401;2;1.61;176;131.18;-80.13757133;25.91253107;0;0;1;N;1.049216;61;61;11;149;149;125.9478;0;9999.99;3.58;3.707;2;9;22.1;0;22.1000003814697;36.18;1528.40217;01/30/21;12:42:54;21.79;54.57;36.18;1.157;8.53;-89.2;-2.2;-2.7;-4571;90.8;6.46;13.2;;
25.9126826558737;-80.1377620758374;13:04:00.13;1/30/2021;8;1.685;120.9;-7.05680275972635;0.97;130.7;122.42;0.88;8.1;22.6;.00;3.59;3.59;86;67;469.3;15.8;-4.2;D;458.8;1;25.457;2;1.67;176;131.46;-80.13757133;25.91253107;0;0;1;N;0.8925467;62;62;11;146;146;127.0535;0;9999.99;3.60;3.727;2;9;22.1;0;22.1000003814697;36.18;1528.40215;01/30/21;12:42:55;21.79;54.57;36.18;1.163;8.44;-84.2;-3.7;-4.2;-871;90.8;6.46;13.2;;
25.9126779048598;-80.1377549399746;13:04:01.13;1/30/2021;8;1.667;122.71;-7.05680275972635;0.97;131.8;123.44;1.01;7.96;22.6;.00;3.61;3.61;86;67;469.3;15.8;-4.2;D;458.8;1;24.573;2;1.69;177;131.64;-80.13757133;25.91253107;0;0;1;N;0.7829745;63;63;11;145;145;127.8297;0;9999.99;3.62;3.747;2;9;22.1;0;22.1000003814697;36.17;1528.39112;01/30/21;12:42:56;21.79;54.57;36.17;1.161;8.46;-85.2;-2.6;-6.3;-674;90.8;6.46;13.1;;
25.9126732955104;-80.1377475190907;13:04:02.13;1/30/2021;8;1.807;125.11;-7.05680275972635;0.97;135.5;126.88;0.37;8.2;22.6;.00;3.64;3.64;86;69;469.3;15.8;-4.4;D;443.7;1;23.678;2;1.71;177;131.91;-80.13757133;25.91253107;0;0;1;N;0.6369613;59;59;11;137;137;128.8673;0;9999.99;3.65;3.777;2;9;22.1;0;22.1000003814697;36.19;1528.41324;01/30/21;12:42:58;21.79;54.59;36.19;1.163;8.44;-84.2;-3.6;-1.5;-5540;90.8;6.46;13.1;;
25.912668203385;-80.1377402671088;13:04:03.13;1/30/2021;8;1.705;125.99;-7.05680275972635;0.97;135.6;126.98;0.75;8.6;22.6;.00;3.64;3.64;86;69;469.3;15.8;-4.4;D;443.7;1;22.760;2;1.7;177;132.07;-80.13757133;25.91253107;0;0;1;N;0.5494643;62;62;11;137;137;129.4905;0;9999.99;3.65;3.777;2;9;22.1;0;22.1000003814697;36.19;1528.41324;01/30/21;12:42:58;21.79;54.59;36.19;1.163;8.44;-84.2;-3.6;-1.5;-5540;90.8;6.46;13.1;;
25.9126632908804;-80.1377329108182;13:04:04.13;1/30/2021;8;1.797;127.44;-7.05680275972635;0.97;137.3;128.56;1.22;8.3;22.6;.00;3.67;3.67;86;69;469.3;15.8;-4.4;D;443.7;1;21.848;2;1.73;178;132.29;-80.13757133;25.91253107;0;0;1;N;0.4382759;63;63;11;134;134;130.2838;0;9999.99;3.68;3.807;2;9;22.1;0;22.1000003814697;36.2;1528.42428;01/30/21;12:42:59;21.79;54.61;36.20;1.156;8.46;-85.4;-3.0;-5.4;-1435;90.8;6.45;13.1;;
25.9126569678645;-80.1377274797403;13:04:05.13;1/30/2021;9;1.741;128.48;-7.05680275972635;0.97;139;130.15;1.14;8.7;22.6;.00;3.64;3.64;86;74;469.2;15.8;-4.7;D;412;1;20.974;2;1.75;178;131.87;-80.13757133;25.91253107;0;0;1;N;0.5795227;64;64;11;123;123;129.2763;0;9999.99;3.64;3.771938;2;9;22.1;0;22.1000003814697;36.19;1528.41327;01/30/21;12:43:01;21.79;54.59;36.19;1.162;8.45;-84.3;-5.0;-4.5;-2178;90.8;6.46;13.1;;
25.9126510971044;-80.1377221003426;13:04:06.13;1/30/2021;9;1.765;129.94;-7.05680275972635;0.97;140.7;131.75;0.6;8.9;22.6;.00;3.69;3.69;86;74;469.2;15.8;-4.7;D;412;1;20.138;2;1.75;178;131.51;-80.13757133;25.91253107;0;0;1;N;0.6747617;61;61;11;117;117;128.5983;0;9999.99;3.70;3.827;2;9;22.1;0;22.1000003814697;36.19;1528.41327;01/30/21;12:43:01;21.79;54.59;36.19;1.162;8.45;-84.3;-5.0;-4.5;-2178;90.8;6.46;13.1;;
25.912644835596;-80.1377159325271;13:04:07.13;1/30/2021;9;1.739;131.45;-7.05680275972635;0.97;139.7;130.81;1.03;9;22.6;.00;3.65;3.65;86;74;469.2;15.8;-4.7;D;412;1;19.215;2;1.76;178;131.18;-80.13757133;25.91253107;0;0;1;N;0.7579062;63;63;11;116;116;128.0076;0;9999.99;3.66;3.787;2;9;22.1;0;22.1000003814697;36.19;1528.41328;01/30/21;12:43:02;21.78;54.59;36.19;1.172;8.46;-85.2;-2.9;-6.6;-4245;90.8;6.46;13.0;;
25.9126385083573;-80.1377100844412;13:04:08.13;1/30/2021;9;1.796;133.67;-7.05680275972635;0.97;139.8;130.9;1.3;10;22.6;.00;3.73;3.73;86;74;469.2;15.8;-4.7;D;412;1;18.311;2;1.76;179;130.72;-80.13757133;25.91253107;0;0;1;N;0.8673699;65;65;11;112;112;127.2317;0;9999.99;3.74;3.867;2;9;22.1;0;22.1000003814697;36.2;1528.42438;01/30/21;12:43:04;21.78;54.60;36.20;1.155;8.45;-84.5;-4.0;-2.7;-4957;90.7;6.45;13.1;;
25.9126320615739;-80.1377042612082;13:04:09.13;1/30/2021;9;1.924;135.38;-7.05680275972635;0.97;141;132.03;1.23;9.2;22.6;.00;3.67;3.67;86;78;469.2;15.7;-4.9;D;394.6;1;17.403;2;1.77;179;130.19;-80.13757133;25.91253107;0;0;1;N;0.985284;64;64;11;104;104;126.3983;0;9999.99;3.68;3.807427;2;9;22.1;0;22.1000003814697;36.2;1528.42438;01/30/21;12:43:04;21.78;54.60;36.20;1.155;8.45;-84.5;-4.0;-2.7;-4957;90.7;6.45;13.1;;
25.912624620524;-80.1376981070052;13:04:10.13;1/30/2021;9;1.88;136.78;-7.05680275972635;0.97;141;132.03;1.45;10;22.6;.00;3.75;3.75;86;78;469.2;15.7;-4.9;D;394.6;1;16.401;2;1.81;179;129.37;-80.13757133;25.91253107;0;0;1;N;1.163962;66;66;11;99;99;125.1413;0;9999.99;3.76;3.887;2;9;22.1;0;22.1000003814697;36.18;1528.40227;01/30/21;12:43:05;21.78;54.58;36.18;1.175;8.46;-85.3;-3.0;-4.7;-4301;90.7;6.46;13.1;;
25.9126179283603;-80.1376922797134;13:04:11.13;1/30/2021;9;1.856;135.53;-7.05680275972635;0.97;140.6;131.65;1;9.5;22.6;.00;3.78;3.78;86;78;469.2;15.7;-4.9;D;394.6;1;15.480;2;1.85;179;128.6;-80.13757133;25.91253107;0;0;1;N;1.306577;63;63;11;97;97;124.1438;0;9999.99;3.79;3.917;2;9;22.1;0;22.1000003814697;36.18;1528.40241;01/30/21;12:43:06;21.78;54.58;36.18;1.154;8.52;-88.7;-4.4;-5.1;-2335;90.8;6.46;13.1;;
25.9126117149911;-80.137685771495;13:04:12.14;1/30/2021;9;1.879;135.59;-7.05680275972635;0.97;139.6;130.71;1.2;8.9;22.6;.00;3.78;3.78;86;80;469.2;15.7;-5.1;D;381.1;1;14.540;2;1.91;179;128.08;-80.13757133;25.91253107;0;0;1;N;1.358851;64;64;11;99;99;123.7795;0;9999.99;3.79;3.917;2;9;22.1;0;22.1000003814697;36.18;1528.40225;01/30/21;12:43:07;21.78;54.58;36.18;1.165;8.45;-84.8;-2.8;-1.3;-2707;90.8;6.46;13.1;;
25.912605503928;-80.1376788911952;13:04:13.16;1/30/2021;9;1.872;133.79;-7.05680275972635;0.97;138.2;129.4;1.28;10.5;22.6;.00;3.74;3.74;86;80;469.2;15.7;-5.1;D;381.1;1;13.573;2;1.91;179;127.57;-80.13757133;25.91253107;0;0;1;N;1.389065;64;64;11;103;103;123.5693;0;9999.99;3.75;3.876323;2;9;22.1;0;22.1000003814697;36.19;1528.41326;01/30/21;12:43:09;21.78;54.59;36.19;1.166;8.52;-88.4;-3.5;-6.1;-4052;90.8;6.46;13.0;;
25.9125988253844;-80.1376723451051;13:04:14.17;1/30/2021;9;1.842;133.7;-7.05680275972635;0.97;137.4;128.66;1.27;9.6;22.5;.00;3.81;3.81;86;80;469.2;15.7;-5.1;D;381.1;1;12.603;2;1.93;179;126.71;-80.13757133;25.91253107;0;0;1;N;1.480996;65;65;11;104;104;122.9316;0;9999.99;3.82;3.947;2;9;22.1;0;22.1000003814697;36.19;1528.41326;01/30/21;12:43:09;21.78;54.59;36.19;1.166;8.52;-88.4;-3.5;-6.1;-4052;90.8;6.46;13.0;;
25.9125924611501;-80.1376662052861;13:04:15.17;1/30/2021;9;1.945;133.25;-7.05680275972635;0.97;136.3;127.63;1.02;9.9;22.6;.00;3.75;3.75;86;80;469.2;15.7;-5.1;D;381.1;1;11.689;2;1.95;179;125.73;-80.13757133;25.91253107;0;0;1;N;1.589967;63;63;11;101;101;122.1784;0;9999.99;3.76;3.887;2;9;22.1;0;22.1000003814697;36.21;1528.43537;01/30/21;12:43:10;21.78;54.62;36.21;1.169;8.46;-84.9;-3.0;-1.0;-2155;90.8;6.46;13.1;;
25.9125865571076;-80.1376596048329;13:04:16.17;1/30/2021;8;1.956;134.61;-7.05680275972635;1.35;136.3;127.63;1.3;10.3;22.6;.00;3.76;3.76;86;82;469.2;15.7;-5.2;D;375.2;1;10.771;2;1.95;179;124.95;-80.13757133;25.91253107;0;0;1;N;1.600616;65;65;11;108;108;122.1054;0;9999.99;3.77;3.89227;2;9;22.1;0;22.1000003814697;36.2;1528.42426;01/30/21;12:43:12;21.78;54.60;36.20;1.142;8.52;-88.5;-4.2;-5.4;-3237;90.8;6.46;13.0;;
25.9125797395014;-80.1376520444774;13:04:17.17;1/30/2021;9;1.951;134.33;-7.05680275972635;0.97;135.2;126.6;1.12;9.1;22.6;.00;3.85;3.85;86;82;469.2;15.7;-5.2;D;375.2;1;9.719;2;1.9;179;123.84;-80.13757133;25.91253107;0;0;1;N;1.632341;64;64;11;108;108;121.8869;0;9999.99;3.86;3.987;2;9;22.1;0;22.1000003814697;36.2;1528.42426;01/30/21;12:43:12;21.78;54.60;36.20;1.142;8.52;-88.5;-4.2;-5.4;-3237;90.8;6.46;13.0;;
25.912573263807;-80.1376442119048;13:04:18.17;1/30/2021;9;1.988;132.43;-7.05680275972635;0.97;135.2;126.6;0.78;10;22.6;.00;3.79;3.79;86;82;469.2;15.7;-5.2;D;375.2;1;8.669;2;1.9;179;122.77;-80.13757133;25.91253107;0;0;1;N;1.618682;62;62;11;109;109;121.9808;0;9999.99;3.80;3.925643;2;9;22.1;0;22.1000003814697;36.19;1528.41323;01/30/21;12:43:13;21.78;54.59;36.19;1.180;8.45;-84.6;-2.1;-5.0;-3688;90.7;6.45;12.9;;
25.9125679698635;-80.1376378116223;13:04:19.17;1/30/2021;9;1.934;130.02;-7.05680275972635;0.97;134.4;125.86;0.7;10.5;22.6;.00;3.79;3.80;86;82;469.2;15.7;-5.2;D;375.2;1;7.814;2;1.9;179;121.68;-80.13757133;25.91253107;0;0;1;N;1.608365;61;61;11;112;112;122.0526;0;9999.99;3.80;3.931508;2;9;22.1;0;22.1000003814697;36.19;1528.41324;01/30/21;12:43:15;21.79;54.59;36.19;1.152;8.52;-88.5;-2.5;-6.4;-1948;90.7;6.45;13.0;;
25.912562653111;-80.1376292908031;13:04:20.17;1/30/2021;9;1.867;129.11;-7.05680275972635;0.97;133.7;125.21;1;10.3;22.6;.00;3.77;3.77;86;80;469.1;15.7;-5.1;D;380.4;1;6.778;2;1.91;179;121.21;-80.13757133;25.91253107;0;0;1;N;1.451212;63;63;11;119;119;123.1385;0;9999.99;3.78;3.910725;2;9;22.1;0;22.1000003814697;36.19;1528.41324;01/30/21;12:43:15;21.79;54.59;36.19;1.152;8.52;-88.5;-2.5;-6.4;-1948;90.7;6.45;13.0;;
25.9125565360283;-80.1376218785928;13:04:21.19;1/30/2021;9;1.939;128.29;-7.05680275972635;0.97;133.7;125.21;0.97;10.9;22.6;.00;3.80;3.80;86;80;469.1;15.7;-5.1;D;380.4;1;5.795;2;1.89;179;119.25;-80.13757133;25.91253107;0;0;1;N;1.437488;63;63;11;119;119;123.2333;0;9999.99;3.81;3.932707;2;9;22.1;0;22.1000003814697;36.2;1528.42424;01/30/21;12:43:16;21.79;54.60;36.20;1.186;8.45;-84.7;-2.1;-5.9;-2636;90.7;6.45;13.1;;
25.9125508014655;-80.1376137739095;13:04:22.19;1/30/2021;9;1.908;128.59;-7.05680275972635;0.97;133.6;125.11;0.84;9.8;22.6;.00;3.87;3.87;86;80;469.1;15.7;-5.1;D;380.4;1;4.779;2;1.93;179;117.33;-80.13757133;25.91253107;0;0;1;N;1.343987;62;62;11;122;122;123.8831;0;9999.99;3.88;4.007;2;9;22.1;0;22.1000003814697;36.19;1528.4132;01/30/21;12:43:18;21.79;54.59;36.19;1.167;8.52;-88.7;-3.8;-1.9;-3000;90.8;6.46;13.1;;
25.9125452069696;-80.1376060724778;13:04:23.20;1/30/2021;9;1.906;128.1;-7.05680275972635;0.97;134.1;125.58;1.39;10;22.7;.00;3.88;3.88;86;80;469.1;15.7;-5;D;384.1;2;20.148;2;1.92;179;149.12;-80.13750269;25.91238969;0;0;1;N;2.611381;65;65;11;197;197;143.1357;0;9999.99;3.89;4.017;2;9;22.1;0;22.1000003814697;36.19;1528.4132;01/30/21;12:43:18;21.79;54.59;36.19;1.167;8.52;-88.7;-3.8;-1.9;-3000;90.8;6.46;13.1;;
25.912539581083;-80.1375996309;13:04:24.22;1/30/2021;9;1.812;127.79;-7.05680275972635;0.97;139.6;130.71;0.37;13.3;22.7;.00;3.78;3.78;86;80;469.1;15.7;-5;D;384.1;2;19.282;2;1.91;179;149.81;-80.13750269;25.91238969;0;0;1;N;2.262854;59;59;11;180;180;143.9148;0;9999.99;3.79;3.915532;2;9;22.1;0;22.1000003814697;36.19;1528.41325;01/30/21;12:43:19;21.79;54.59;36.19;1.179;8.46;-85.0;-2.3;0.8;-2409;90.8;6.46;13.2;;
25.9125343814835;-80.1375928026216;13:04:25.22;1/30/2021;9;1.749;125.59;-7.05680275972635;0.97;142.5;133.44;1.6;7.26;22.7;.00;3.88;3.88;86;80;469.1;15.7;-5;D;384.1;2;18.441;2;1.86;179;150.74;-80.13750269;25.91238969;0;0;1;N;1.938833;63;63;11;177;177;144.9226;0;9999.99;3.89;4.017;2;9;22.1;0;22.1000003814697;36.19;1528.41323;01/30/21;12:43:21;21.78;54.59;36.19;1.178;8.51;-88.3;-3.3;-5.6;-2533;90.8;6.46;13.0;;
25.912527130719;-80.1375863593856;13:04:26.22;1/30/2021;9;1.823;130.07;-7.05680275972635;0.97;148.5;139.1;2.27;8.7;22.7;.00;3.87;3.88;86;80;469.1;15.7;-5;D;384.1;2;17.424;2;1.82;179;151.3;-80.13750269;25.91238969;0;0;1;N;1.590753;71;71;11;156;156;145.5948;0;9999.99;3.89;4.017;2;9;22.1;0;22.1000003814697;36.19;1528.41323;01/30/21;12:43:21;21.78;54.59;36.19;1.178;8.51;-88.3;-3.3;-5.6;-2533;90.8;6.46;13.0;;
25.9125208898342;-80.1375807182896;13:04:27.23;1/30/2021;9;1.753;133.71;-7.05680275972635;0.97;151.7;142.14;2.69;8.6;22.6;.01;3.88;3.89;86;78;469.1;15.7;-4.9;D;391.8;2;16.545;2;1.78;180;151.86;-80.13750269;25.91238969;0;0;1;N;1.34422;73;73;11;146;146;146.8706;0;9999.99;3.90;4.027;2;9;22.1;0;22.1000003814697;36.19;1528.4136;01/30/21;12:43:22;21.78;54.59;36.19;1.159;8.46;-85.0;-2.6;-6.4;-390;90.7;6.46;13.1;;
25.912514807395;-80.1375753601316;13:04:28.25;1/30/2021;9;1.723;134.84;-7.05680275972635;0.97;155.2;145.48;0.93;9.2;22.6;.01;3.90;3.90;86;78;469.1;15.7;-4.9;D;391.8;2;15.697;2;1.74;180;152.42;-80.13750269;25.91238969;0;0;1;N;1.113316;63;63;11;139;139;148.4868;0;9999.99;3.92;4.047;2;9;22.1;0;22.1000003814697;36.18;1528.40279;01/30/21;12:43:24;21.76;54.57;36.18;1.123;8.52;-88.7;-3.4;-5.1;-3051;90.8;6.46;13.3;;
25.912508332459;-80.1375710572164;13:04:29.25;1/30/2021;9;1.743;141.65;-7.05680275972635;0.97;156.8;147.01;1.18;8.6;22.6;.00;3.93;3.93;86;78;469.1;15.7;-4.9;D;391.8;2;14.859;2;1.76;180;152.6;-80.13750269;25.91238969;0;0;1;N;1.007759;66;66;11;136;136;149.23;0;9999.99;3.94;4.067;2;9;22.1;0;22.1000003814697;36.18;1528.40279;01/30/21;12:43:24;21.76;54.57;36.18;1.123;8.52;-88.7;-3.4;-5.1;-3051;90.8;6.46;13.3;;
25.9125012640302;-80.1375666771479;13:04:30.25;1/30/2021;9;1.71;147.32;-7.05680275972635;0.97;158.4;148.55;0.16;8.5;22.6;.00;3.92;3.92;86;82;469.0;15.7;-5.2;D;374.1;2;13.960;2;1.76;180;152.71;-80.13750269;25.91238969;0;0;1;N;0.9181105;61;61;11;137;137;149.8624;0;9999.99;3.93;4.057;2;9;22.1;0;22.1000003814697;36.19;1528.41323;01/30/21;12:43:25;21.76;54.60;36.19;1.150;8.45;-84.4;-3.2;-4.3;-3357;90.8;6.46;13.0;;
25.9124944775853;-80.1375618638205;13:04:31.25;1/30/2021;9;1.76;147.72;-7.05680275972635;0.97;161.1;151.16;1.24;7.34;22.6;.00;3.92;3.92;86;82;469.0;15.7;-5.2;D;374.1;2;13.069;2;1.75;180;153.07;-80.13750269;25.91238969;0;0;1;N;0.76941;64;64;11;126;126;150.9159;0;9999.99;3.92;4.047;2;9;22.1;0;22.1000003814697;36.18;1528.40215;01/30/21;12:43:27;21.76;54.58;36.18;1.188;8.52;-88.7;-2.9;-3.0;-2551;90.8;6.46;13.2;;
25.9124870872775;-80.1375582765429;13:04:32.25;1/30/2021;9;1.796;151.4;-7.05680275972635;0.97;161.5;151.54;1.56;9.6;22.6;.00;3.89;3.89;86;82;469.0;15.7;-5.2;D;374.1;2;12.174;2;1.77;180;152.83;-80.13750269;25.91238969;0;0;1;N;0.7693818;66;66;11;124;124;150.916;0;9999.99;3.90;4.029623;2;9;22.1;0;22.1000003814697;36.18;1528.40215;01/30/21;12:43:27;21.76;54.58;36.18;1.188;8.52;-88.7;-2.9;-3.0;-2551;90.8;6.46;13.2;;
25.912479333495;-80.1375545438379;13:04:33.25;1/30/2021;9;1.736;152.51;-7.05680275972635;0.97;162.8;152.8;1.17;9.9;22.7;.00;3.97;3.97;86;82;469.0;15.7;-5.2;D;374.1;2;11.237;2;1.78;181;152.51;-80.13750269;25.91238969;0;0;1;N;0.7713774;63;63;11;121;121;150.9021;0;9999.99;3.98;4.107;2;9;22.1;0;22.1000003814697;36.19;1528.41328;01/30/21;12:43:28;21.76;54.59;36.19;1.171;8.45;-84.6;-3.1;-6.8;-3439;90.9;6.47;13.2;;
25.9124722641004;-80.1375512972296;13:04:34.25;1/30/2021;9;1.716;154.59;-7.05680275972635;0.97;163.6;153.58;1.08;10.8;22.6;.00;3.92;3.92;86;84;469.0;15.7;-5.3;D;362.9;2;10.389;2;1.8;181;152.1;-80.13750269;25.91238969;0;0;1;N;0.7869132;62;62;11;117;117;150.7918;0;9999.99;3.93;4.057008;2;9;22.1;0;22.1000003814697;36.17;1528.39117;01/30/21;12:43:29;21.75;54.56;36.17;1.191;8.46;-85.1;-3.1;-2.8;-4850;90.8;6.47;13.0;;
25.9124632413082;-80.1375473057143;13:04:35.25;1/30/2021;9;1.87;156.58;-7.05680275972635;0.97;164.1;154.07;0.68;9.7;22.6;.00;3.97;3.97;86;84;469.0;15.7;-5.3;D;362.9;2;9.317;2;1.84;181;151.38;-80.13750269;25.91238969;0;0;1;N;0.8246841;61;61;11;113;113;150.5238;0;9999.99;3.97;4.097;2;9;22.1;0;22.1000003814697;36.18;1528.40215;01/30/21;12:43:31;21.75;54.57;36.18;1.185;8.45;-84.6;-3.1;-3.6;-2061;90.9;6.47;13.2;;
25.9124553085408;-80.1375440995623;13:04:36.25;1/30/2021;9;1.93;158.47;-7.05680275972635;0.97;164.4;154.36;1.19;11.2;22.6;.00;3.91;3.91;86;84;469.0;15.7;-5.3;D;362.9;2;8.390;2;1.85;181;150.42;-80.13750269;25.91238969;0;0;1;N;0.8797475;64;64;11;110;110;150.1339;0;9999.99;3.93;4.053892;2;9;22.1;0;22.1000003814697;36.18;1528.40215;01/30/21;12:43:31;21.75;54.57;36.18;1.185;8.45;-84.6;-3.1;-3.6;-2061;90.9;6.47;13.2;;
25.9124469763628;-80.1375409237232;13:04:37.25;1/30/2021;9;1.906;159.43;-7.05680275972635;0.97;162.6;152.61;0.73;11.4;22.7;.00;3.96;3.96;86;87;469.0;15.7;-5.5;D;352.1;2;7.429;2;1.85;181;149.02;-80.13750269;25.91238969;0;0;1;N;0.9607938;62;62;11;112;112;149.5607;0;9999.99;3.97;4.096545;2;9;22.1;0;22.1000003814697;36.2;1528.42432;01/30/21;12:43:32;21.75;54.60;36.20;1.172;8.46;-85.1;-3.6;-7.7;-1821;91.0;6.48;13.2;;
25.9124382200671;-80.1375372422918;13:04:38.25;1/30/2021;9;1.891;159.15;-7.05680275972635;0.97;164.9;154.85;1.19;9.6;22.7;.00;3.94;3.94;86;87;469.0;15.7;-5.5;D;352.1;2;6.408;2;1.87;181;147.36;-80.13750269;25.91238969;0;0;1;N;1.009367;64;64;11;104;104;149.218;0;9999.99;3.94;4.071955;2;9;22.1;0;22.1000003814697;36.2;1528.42424;01/30/21;12:43:34;21.75;54.60;36.20;1.186;8.45;-84.3;-2.6;-2.1;-3227;91.0;6.47;13.1;;
25.9124304515825;-80.1375334822904;13:04:39.25;1/30/2021;9;1.92;158.64;-7.05680275972635;0.97;164.9;154.85;0.15;9.8;22.7;.00;3.95;3.95;86;87;469.0;15.7;-5.5;D;352.1;3;19.759;2;1.91;182;138.88;-80.13740356;25.91229659;0;0;1;N;0.9552109;58;58;11;69;69;140.3852;0;9999.99;3.95;4.081604;2;9;22.1;0;22.1000003814697;36.2;1528.42424;01/30/21;12:43:34;21.75;54.60;36.20;1.186;8.45;-84.3;-2.6;-2.1;-3227;91.0;6.47;13.1;;
25.912421987771;-80.1375291236879;13:04:40.25;1/30/2021;9;1.925;158.13;-7.05680275972635;0.97;162.1;152.13;0.75;7.73;22.7;.00;4.04;4.04;86;87;469.0;15.7;-5.5;D;352.1;3;18.765;2;1.98;182;137.99;-80.13740356;25.91229659;0;0;1;N;0.6071602;61;61;11;75;75;139.081;0;9999.99;4.05;4.177;2;9;22.1;0;22.1000003814697;36.19;1528.41321;01/30/21;12:43:35;21.75;54.59;36.19;1.183;8.46;-85.2;-2.3;-6.3;-4673;91.0;6.48;13.1;;
25.9124137740259;-80.1375254410372;13:04:41.25;1/30/2021;9;1.921;158.39;-7.05680275972635;0.97;161.2;151.25;0.57;11.9;22.6;.00;3.96;3.96;86;89;468.9;15.7;-5.6;D;344.9;3;17.843;2;1.98;182;136.91;-80.13740356;25.91229659;0;0;1;N;0.2379528;62;62;11;71;71;137.4396;0;9999.99;3.97;4.0948;2;9;22.1;0;22.1000003814697;36.18;1528.40216;01/30/21;12:43:36;21.75;54.58;36.18;1.196;8.52;-88.6;-2.7;-3.1;-2235;91.0;6.48;13.1;;
25.9124052543248;-80.1375208965783;13:04:42.25;1/30/2021;9;1.887;157.17;-7.05680275972635;0.97;157.8;147.97;0.93;9.6;22.6;.00;3.97;3.97;86;89;468.9;15.7;-5.6;D;344.9;3;16.844;2;1.97;182;135.84;-80.13740356;25.91229659;0;0;1;N;9.572834E-02;63;63;11;78;78;135.7095;0;9999.99;3.98;4.107826;2;9;22.1;0;22.1000003814697;36.18;1528.40221;01/30/21;12:43:38;21.75;54.57;36.18;1.191;8.45;-84.7;-2.4;-1.8;-2499;91.1;6.48;13.1;;
25.9123978212865;-80.1375163983506;13:04:43.25;1/30/2021;9;1.993;154.81;-7.05680275972635;0.97;156;146.24;0.66;11.2;22.6;.00;4.02;4.02;86;89;468.9;15.7;-5.6;D;344.9;3;15.940;2;1.98;182;134.93;-80.13740356;25.91229659;0;0;1;N;0.3409937;62;62;11;76;76;134.1955;0;9999.99;4.03;4.157;2;9;22.1;0;22.1000003814697;36.18;1528.40221;01/30/21;12:43:38;21.75;54.57;36.18;1.191;8.45;-84.7;-2.4;-1.8;-2499;91.1;6.48;13.1;;
25.912389429473;-80.1375107986295;13:04:44.25;1/30/2021;9;2.08;153.31;-7.05680275972635;0.97;152.8;143.18;0.62;11.7;22.6;.00;3.95;3.95;86;92;468.9;15.7;-5.8;D;332.4;3;14.887;2;2;182;133.91;-80.13740356;25.91229659;0;0;1;N;0.5899037;61;61;11;84;84;132.3117;0;9999.99;3.96;4.087063;2;9;22.1;0;22.1000003814697;36.18;1528.40217;01/30/21;12:43:39;21.75;54.57;36.18;1.191;8.47;-86.0;-2.2;-3.5;-2694;91.1;6.49;13.0;;
25.9123808550148;-80.1375047208756;13:04:45.27;1/30/2021;9;1.989;150.2;-7.05680275972635;0.97;152;142.42;0.47;9.5;22.6;.00;3.96;3.96;86;92;468.9;15.7;-5.8;D;332.4;3;13.790;2;1.99;182;132.8;-80.13740356;25.91229659;0;0;1;N;0.80917;60;60;11;79;79;130.4606;0;9999.99;3.96;4.086846;2;9;22.1;0;22.1000003814697;36.2;1528.42423;01/30/21;12:43:41;21.75;54.60;36.20;1.183;8.45;-84.5;-3.3;-3.6;-1769;91.1;6.48;12.9;;
25.9123732158552;-80.1374990962686;13:04:46.30;1/30/2021;9;2.07;148.05;-7.05680275972635;0.97;149.1;139.66;0.71;11.1;22.7;.00;4.04;4.04;86;92;468.9;15.7;-5.8;D;332.4;3;12.803;2;1.99;182;131.72;-80.13740356;25.91229659;0;0;1;N;1.001909;61;61;11;85;85;129.0978;0;9999.99;4.05;4.177;2;9;22.1;0;22.1000003814697;36.2;1528.42423;01/30/21;12:43:41;21.75;54.60;36.20;1.183;8.45;-84.5;-3.3;-3.6;-1769;91.1;6.48;12.9;;
25.9123658991076;-80.1374935979279;13:04:47.30;1/30/2021;9;2.025;147.17;-7.05680275972635;0.97;147.9;138.53;0.57;11.1;22.7;.00;4.01;4.01;86;92;468.9;15.7;-5.8;D;332.4;3;11.853;2;1.99;182;130.56;-80.13740356;25.91229659;0;0;1;N;1.16968;60;60;11;85;85;127.9189;0;9999.99;4.01;4.138645;2;9;22.1;0;22.1000003814697;36.19;1528.4132;01/30/21;12:43:42;21.75;54.59;36.19;1.198;8.47;-85.7;-2.7;-4.0;-4360;91.1;6.48;13.1;;
25.9123582606779;-80.1374874234667;13:04:48.30;1/30/2021;9;2.021;145.45;-7.05680275972635;0.97;147.8;138.43;0.44;9;22.7;.00;4.03;4.03;86;88;468.8;15.7;-5.6;D;347;3;10.835;2;1.99;182;129.27;-80.13740356;25.91229659;0;0;1;N;1.311805;61;61;11;84;84;126.9252;0;9999.99;4.04;4.167;2;9;22.1;0;22.1000003814697;36.19;1528.41319;01/30/21;12:43:44;21.76;54.59;36.19;1.190;8.45;-84.4;-1.3;-4.7;-4830;91.1;6.48;13.1;;
25.912350356919;-80.1374807882143;13:04:49.30;1/30/2021;9;2.018;143.86;-7.05680275972635;0.97;145.1;135.88;0.67;10.6;22.6;.00;3.99;3.99;86;88;468.8;15.7;-5.6;D;347;3;9.768;2;1.99;182;127.74;-80.13740356;25.91229659;0;0;1;N;1.442698;62;62;11;84;84;126.0145;0;9999.99;3.99;4.118611;2;9;22.1;0;22.1000003814697;36.19;1528.41319;01/30/21;12:43:44;21.76;54.59;36.19;1.190;8.45;-84.4;-1.3;-4.7;-4830;91.1;6.48;13.1;;
25.9123426225619;-80.1374736842774;13:04:50.30;1/30/2021;9;1.986;141.98;-7.05680275972635;0.97;142.8;133.72;0.5;11.2;22.7;.00;4.07;4.08;86;88;468.8;15.7;-5.6;D;347;3;8.683;2;2.02;182;126.12;-80.13740356;25.91229659;0;0;1;N;1.532576;60;60;11;94;94;125.3927;0;9999.99;4.08;4.207;2;9;22.1;0;22.1000003814697;36.2;1528.42427;01/30/21;12:43:45;21.77;54.61;36.20;1.200;8.47;-85.6;-3.2;-2.4;-1582;91.1;6.48;13.0;;
25.9123355576905;-80.137466717289;13:04:51.30;1/30/2021;9;1.996;140.24;-7.05680275972635;0.97;142.8;133.72;0.33;10.7;22.6;.00;4.00;4.00;86;90;468.8;15.7;-5.7;D;337.3;3;7.660;2;2.02;182;124.45;-80.13740356;25.91229659;0;0;1;N;1.571732;59;59;11;93;93;125.1225;0;9999.99;4.01;4.134301;2;9;22.1;0;22.1000003814697;36.18;1528.40217;01/30/21;12:43:47;21.76;54.57;36.18;1.183;8.45;-84.3;-3.5;-4.2;-1369;91.1;6.48;13.0;;
25.9123288779284;-80.137459945289;13:04:52.30;1/30/2021;9;2.043;138.76;-7.05680275972635;0.97;141.8;132.78;0.33;9.5;22.6;.00;4.08;4.08;86;90;468.8;15.7;-5.7;D;337.3;3;6.686;2;2.03;182;122.48;-80.13740356;25.91229659;0;0;1;N;1.596509;61;61;11;93;93;124.9511;0;9999.99;4.08;4.207;2;9;22.1;0;22.1000003814697;36.18;1528.40217;01/30/21;12:43:47;21.76;54.57;36.18;1.183;8.45;-84.3;-3.5;-4.2;-1369;91.1;6.48;13.0;;
25.9123216140635;-80.1374527382773;13:04:53.31;1/30/2021;9;2.058;138.39;-7.05680275972635;0.97;141.3;132.31;0.38;9.8;22.6;.00;4.08;4.08;86;90;468.8;15.7;-5.7;D;337.3;3;5.652;2;2.02;182;119.5;-80.13740356;25.91229659;0;0;1;N;1.637078;62;62;11;98;98;124.6723;0;9999.99;4.09;4.217;2;9;22.1;0;22.1000003814697;36.19;1528.41322;01/30/21;12:43:48;21.75;54.58;36.19;1.222;8.46;-85.2;-2.6;-4.5;-1849;91.1;6.48;13.1;;
25.912314846328;-80.1374459643617;13:04:54.31;1/30/2021;8;1.989;137.13;-7.05680275972635;0.97;144;134.85;-0.95;17.4;22.7;.00;4.07;4.07;86;90;468.8;15.7;-5.7;D;337.3;4;13.355;2;2.03;182;169.93;-80.13742262;25.91219659;0;0;1;N;4.631317;51;51;11;237;237;162.2387;0;9999.99;4.07;4.201346;2;9;22.1;0;22.1000003814697;36.18;1528.40222;01/30/21;12:43:50;21.76;54.57;36.18;1.189;8.47;-85.9;-4.3;-0.5;-2338;91.1;6.49;13.2;;
25.9123080374202;-80.1374385016364;13:04:55.36;1/30/2021;9;1.798;133.82;-7.05680275972635;0.97;153;143.37;1.78;1.42;22.6;.00;4.07;4.07;86;86;468.7;15.7;-5.5;D;353.9;4;12.494;2;1.98;182;172.7;-80.13742262;25.91219659;0;0;1;N;3.847794;66;66;11;225;225;166.5016;0;9999.99;4.07;4.194572;2;9;22.1;0;22.1000003814697;36.19;1528.4132;01/30/21;12:43:51;21.76;54.59;36.19;1.198;8.46;-85.2;-4.5;-0.8;-1776;91.1;6.48;13.1;;
25.9123008662367;-80.137432807016;13:04:56.38;1/30/2021;9;1.792;139.63;-7.05680275972635;1.13;161.2;151.25;2.71;11;22.6;.01;4.09;4.10;86;86;468.7;15.7;-5.5;D;353.9;4;11.640;2;1.87;182;174.98;-80.13742262;25.91219659;0;0;1;N;3.02738;73;73;11;199;199;169.2166;0;9999.99;4.12;4.247;2;9;22.1;0;22.1000003814697;36.19;1528.4132;01/30/21;12:43:51;21.76;54.59;36.19;1.198;8.46;-85.2;-4.5;-0.8;-1776;91.1;6.48;13.1;;
25.9122942671528;-80.1374309191614;13:04:57.39;1/30/2021;9;1.648;145.75;-7.05680275972635;0.97;168.8;158.66;2.52;8.5;22.6;.01;4.14;4.15;86;89;468.7;15.7;-5.6;D;343.1;4;10.893;2;1.8;182;175.63;-80.13742262;25.91219659;0;0;1;N;2.710969;72;72;11;176;176;171.0114;0;9999.99;4.17;4.297;2;9;22.1;0;22.1000003814697;36.17;1528.39202;01/30/21;12:43:52;21.76;54.56;36.17;1.153;8.46;-85.1;-3.1;-1.8;-849;91.0;6.48;13.3;;
25.9122872825576;-80.1374259974523;13:04:58.39;1/30/2021;9;1.58;145.84;-7.05680275972635;0.97;174.4;164.18;2.73;9.6;22.6;.01;4.10;4.11;86;89;468.7;15.7;-5.6;D;343.1;4;10.090;2;1.76;182;178.08;-80.13742262;25.91219659;0;0;1;N;2.083932;73;73;11;171;171;175.1295;0;9999.99;4.12;4.247;2;9;22.1;0;22.1000003814697;36.18;1528.4032;01/30/21;12:43:54;21.76;54.58;36.18;1.165;8.45;-84.7;-4.1;-4.9;-612;91.1;6.48;13.2;;
25.9122803332865;-80.1374241112871;13:04:59.41;1/30/2021;9;1.703;152.87;-7.05680275972635;0.97;179.2;168.96;1.41;9;22.6;.01;4.01;4.02;86;89;468.7;15.7;-5.6;D;343.1;4;9.313;2;1.78;182;179.08;-80.13742262;25.91219659;0;0;1;N;1.75383;65;65;11;161;161;177.3636;0;9999.99;4.04;4.162285;2;9;22.1;0;22.1000003814697;36.18;1528.4032;01/30/21;12:43:54;21.76;54.58;36.18;1.165;8.45;-84.7;-4.1;-4.9;-612;91.1;6.48;13.2;;
25.9122713159154;-80.1374228374483;13:05:00.42;1/30/2021;9;1.693;157.77;-7.05680275972635;0.97;181.2;170.97;1.13;9.4;22.6;.00;4.15;4.15;86;87;468.6;15.7;-5.5;D;349;4;8.309;2;1.76;182;179.85;-80.13742262;25.91219659;0;0;1;N;1.453243;64;64;11;160;160;179.4333;0;9999.99;4.16;4.287;2;9;22.1;0;22.1000003814697;36.18;1528.40219;01/30/21;12:43:56;21.76;54.58;36.18;1.174;8.51;-88.2;-3.2;-1.6;-4311;91.0;6.47;13.3;;
25.9122618615136;-80.1374226116449;13:05:01.44;1/30/2021;9;1.782;169.43;-7.05680275972635;0.97;186.1;175.91;0.96;10;22.6;.00;4.17;4.17;86;87;468.6;15.7;-5.5;D;349;4;7.258;2;1.77;183;180.01;-80.13742262;25.91219659;0;0;1;N;1.248997;63;63;11;147;147;180.8541;0;9999.99;4.18;4.307;2;9;22.1;0;22.1000003814697;36.19;1528.41321;01/30/21;12:43:57;21.77;54.59;36.19;1.208;8.45;-84.5;-3.6;-4.1;-3733;91.0;6.47;13.1;;
25.9122528457701;-80.1374233796099;13:05:02.45;1/30/2021;9;1.725;174.6;-7.05680275972635;0.97;187.8;177.63;1.29;10.9;22.5;.00;4.16;4.16;86;87;468.6;15.7;-5.5;D;349;4;6.256;2;1.78;183;179.3;-80.13742262;25.91219659;0;0;1;N;1.158745;63;63;11;147;147;181.4868;0;9999.99;4.17;4.297;2;9;22.1;0;22.1000003814697;36.17;1528.3911;01/30/21;12:43:58;21.76;54.57;36.17;1.184;8.46;-85.1;-4.6;-6.4;-1225;90.9;6.47;13.2;;
25.9122428727093;-80.1374263946816;13:05:03.47;1/30/2021;9;1.879;179.43;-7.05680275972635;0.97;193.8;183.75;0.93;9.2;22.6;.00;4.09;4.09;86;87;468.6;15.7;-5.5;D;349;4;5.161;2;1.83;183;175.8;-80.13742262;25.91219659;0;0;1;N;1.25064;63;63;11;115;115;180.8434;0;9999.99;4.10;4.231187;2;9;22.1;0;22.1000003814697;36.19;1528.4132;01/30/21;12:43:59;21.76;54.59;36.19;1.195;8.53;-88.9;-2.6;-2.8;-4133;90.9;6.47;13.1;;
25.9122331601525;-80.1374277800846;13:05:04.47;1/30/2021;9;1.963;181.86;-7.05680275972635;0.97;191.2;181.09;1.04;11.2;22.6;.00;4.11;4.11;86;91;468.6;15.7;-5.8;D;333.2;5;14.190;2;1.86;183;148.66;-80.13735399;25.91212417;0;0;1;N;2.327286;61;61;11;10;10;152.1281;0;9999.99;4.12;4.247;2;9;22.1;0;22.1000003814697;36.19;1528.41319;01/30/21;12:44:00;21.75;54.58;36.19;1.195;8.44;-83.8;-3.5;-2.2;-598;90.9;6.47;13.1;;
25.9122228212034;-80.1374292725091;13:05:05.47;1/30/2021;9;2.019;184.36;-7.05680275972635;0.98;186.8;176.62;0.48;3.82;22.6;.00;4.13;4.13;86;91;468.6;15.7;-5.8;D;333.2;5;13.305;2;1.92;183;145.53;-80.13735399;25.91212417;0;0;1;N;1.556784;60;60;11;14;14;148.4759;0;9999.99;4.13;4.257;2;9;22.1;0;22.1000003814697;36.19;1528.41319;01/30/21;12:44:01;21.74;54.58;36.19;1.203;8.45;-84.8;-3.0;-2.7;-3093;91.0;6.47;13.0;;
25.9122139202639;-80.1374310752873;13:05:06.47;1/30/2021;9;1.847;191.07;-7.05680275972635;0.98;183.2;172.98;1.4;14.5;22.6;.00;4.09;4.09;86;91;468.6;15.7;-5.8;D;333.2;5;12.611;2;1.92;183;142.31;-80.13735399;25.91212417;0;0;1;N;0.6671879;65;65;11;7;7;143.2467;0;9999.99;4.10;4.227;2;9;22.1;0;22.1000003814697;36.2;1528.42423;01/30/21;12:44:02;21.74;54.60;36.20;1.205;8.47;-85.7;-2.4;-5.6;-1096;91.0;6.47;13.0;;
25.9122056685061;-80.1374314649416;13:05:07.47;1/30/2021;9;1.912;187.68;-7.05680275972635;0.98;171.7;161.51;2.49;13.5;22.6;.00;4.08;4.09;86;99;468.5;15.7;-6.3;D;306.6;5;11.923;2;1.92;183;139.47;-80.13735399;25.91212417;0;0;1;N;2.533872E-02;71;71;11;33;33;139.707;0;9999.99;4.10;4.222859;2;9;22.1;0;22.1000003814697;36.22;1528.44661;01/30/21;12:44:03;21.74;54.63;36.22;1.172;8.43;-83.3;-3.7;-2.6;-2432;90.9;6.47;13.1;;
25.912196778891;-80.1374305167138;13:05:08.47;1/30/2021;9;1.762;182.28;-7.05680275972635;0.98;166.1;156.02;3.17;14.5;22.5;.01;3.93;3.94;86;99;468.5;15.7;-6.3;D;306.6;5;11.125;2;1.88;183;136.53;-80.13735399;25.91212417;0;0;1;N;0.5525389;76;76;11;47;47;135.9322;0;9999.99;3.96;4.082627;2;9;22.1;0;22.1000003814697;36.2;1528.42492;01/30/21;12:44:04;21.74;54.60;36.20;1.145;8.44;-84.2;-3.5;-2.8;-3611;90.9;6.47;13.2;;
25.9121886339246;-80.137428073536;13:05:09.47;1/30/2021;9;2.018;171.01;-7.05680275972635;0.98;156.7;146.92;3.15;13.8;22.6;.01;4.00;4.01;86;99;468.5;15.7;-6.3;D;306.6;5;10.309;2;1.82;183;134.05;-80.13735399;25.91212417;0;0;1;N;0.9771276;76;76;11;70;70;132.5874;0;9999.99;4.03;4.153124;2;9;22.1;0;22.1000003814697;36.2;1528.42502;01/30/21;12:44:05;21.74;54.60;36.20;1.157;8.47;-85.6;-3.1;-0.8;-1929;90.9;6.47;13.0;;
25.9121807965278;-80.1374240378229;13:05:10.48;1/30/2021;9;1.836;165.53;-7.05680275972635;0.98;147.5;138.15;2.49;15.9;22.6;.01;4.00;4.01;86;99;468.5;15.7;-6.3;D;306.6;5;9.420;2;1.83;183;131.95;-80.13735399;25.91212417;0;0;1;N;1.25259;72;72;11;97;97;130.6564;0;9999.99;4.03;4.155078;2;9;22.1;0;22.1000003814697;36.22;1528.44718;01/30/21;12:44:06;21.75;54.63;36.22;1.150;8.47;-85.5;-3.5;-2.3;-4710;91.0;6.48;13.1;;
25.912173336049;-80.1374181918001;13:05:11.50;1/30/2021;10;1.885;159.17;-7.05680275972635;0.98;146.5;137.2;1.28;12.4;22.6;.00;3.99;4.00;86;95;468.5;15.7;-6;D;320.1;5;8.433;2;1.84;183;130.41;-80.13735399;25.91212417;0;0;1;N;1.348177;65;65;11;98;98;129.9902;0;9999.99;4.02;4.142158;2;9;22.1;0;22.1000003814697;36.19;1528.41343;01/30/21;12:44:07;21.75;54.59;36.19;1.159;8.44;-84.2;-3.5;-3.8;-3096;91.0;6.48;13.1;;
25.9121660617612;-80.1374128594274;13:05:12.50;1/30/2021;10;1.916;149.38;-7.05680275972635;0.98;144;134.85;0.53;8.8;22.6;.00;4.07;4.07;86;95;468.5;15.7;-6;D;320.1;5;7.508;2;1.88;184;128.35;-80.13735399;25.91212417;0;0;1;N;1.470325;60;60;11;104;104;129.1413;0;9999.99;4.07;4.200086;2;9;22.1;0;22.1000003814697;36.2;1528.42425;01/30/21;12:44:08;21.75;54.60;36.20;1.172;8.46;-85.2;-3.5;0.0;-2333;91.0;6.47;13.1;;
25.9121588388501;-80.1374063863077;13:05:13.50;1/30/2021;9;1.939;143.32;-7.05680275972635;0.98;143.2;134.09;0.98;10.5;22.6;.00;4.12;4.12;86;95;468.5;15.7;-6;D;320.1;5;6.506;2;1.92;184;126.34;-80.13735399;25.91212417;0;0;1;N;1.49813;59;59;11;103;103;128.9505;0;9999.99;4.13;4.257;2;9;22.1;0;22.1000003814697;36.21;1528.43528;01/30/21;12:44:09;21.74;54.62;36.21;1.196;8.47;-85.4;-3.6;-5.6;-4505;90.9;6.47;13.0;;
25.9121514639911;-80.1373994240656;13:05:14.50;1/30/2021;9;2.002;142.41;-7.05680275972635;0.98;143.3;134.19;0.66;11.4;22.6;.00;4.06;4.06;86;94;468.4;15.7;-6;D;324.3;5;5.465;2;1.98;184;123.74;-80.13735399;25.91212417;0;0;1;N;1.501055;61;61;11;106;106;128.9298;0;9999.99;4.07;4.198548;2;9;22.1;0;22.1000003814697;36.2;1528.42423;01/30/21;12:44:10;21.74;54.60;36.20;1.196;8.50;-87.7;-3.6;-2.3;-1915;90.9;6.47;13.1;;
25.9121445076557;-80.1373922601131;13:05:15.50;1/30/2021;9;2.125;141;-7.05680275972635;0.98;143.4;134.28;0.07;8.4;22.5;.00;4.09;4.09;86;94;468.4;15.7;-6;D;324.3;6;24.718;2;1.99;184;140.72;-80.13723579;25.91197244;0;0;1;N;1.881701;55;55;11;130;130;136.7541;0;9999.99;4.09;4.215962;2;9;22.1;0;22.1000003814697;36.21;1528.43527;01/30/21;12:44:11;21.75;54.61;36.21;1.192;8.46;-85.1;-2.6;-2.0;-2686;90.9;6.47;13.0;;
25.9121377375407;-80.1373842942971;13:05:16.50;1/30/2021;9;2.068;139.22;-7.05680275972635;0.98;146.8;137.49;0.5;9.9;22.5;.00;4.09;4.09;86;94;468.4;15.7;-6;D;324.3;6;23.631;2;2.02;184;141.06;-80.13723579;25.91197244;0;0;1;N;1.633841;60;60;11;125;125;136.9888;0;9999.99;4.09;4.218562;2;9;22.1;0;22.1000003814697;36.2;1528.42423;01/30/21;12:44:12;21.75;54.60;36.20;1.221;8.52;-88.4;-4.2;-5.0;-3573;90.9;6.47;13.1;;
25.9121309150493;-80.1373773637788;13:05:17.50;1/30/2021;9;2.059;137.54;-7.05680275972635;0.98;144.9;135.69;0.62;9.6;22.5;.00;4.13;4.13;86;94;468.4;15.7;-6;D;324.3;6;22.606;2;2.04;184;141.22;-80.13723579;25.91197244;0;0;1;N;1.503302;61;61;11;131;131;136.7978;0;9999.99;4.13;4.259627;2;9;22.1;0;22.1000003814697;36.2;1528.42423;01/30/21;12:44:13;21.75;54.60;36.20;1.221;8.45;-84.4;-2.5;-4.2;-5007;91.0;6.47;13.0;;
25.9121234786722;-80.1373716610345;13:05:18.50;1/30/2021;9;1.966;138.71;-7.05680275972635;0.98;149.4;139.95;0.41;8.9;22.6;.00;4.17;4.17;86;92;468.1;15.7;-5.9;D;327.1;6;21.604;2;2.04;184;141.02;-80.13723579;25.91197244;0;0;1;N;1.501601;59;59;11;110;110;135.7932;0;9999.99;4.18;4.307;2;9;22.1;0;22.1000003814697;36.22;1528.44632;01/30/21;12:44:14;21.75;54.63;36.22;1.204;8.46;-85.1;-2.3;-1.2;-2507;90.9;6.47;13.1;;
25.9121139305062;-80.1373638747034;13:05:19.52;1/30/2021;9;1.99;140.38;-7.05680275972635;0.98;147.7;138.34;0.38;11.2;22.5;.00;4.14;4.14;86;92;468.1;15.7;-5.9;D;327.1;6;20.289;2;2.03;184;140.85;-80.13723579;25.91197244;0;0;1;N;1.477826;59;59;11;112;112;134.5226;0;9999.99;4.14;4.266412;2;9;22.1;0;22.1000003814697;36.21;1528.43527;01/30/21;12:44:15;21.75;54.62;36.21;1.221;8.53;-88.9;-3.7;-5.2;-1352;90.9;6.47;13.1;;
25.9121069721017;-80.1373576554939;13:05:20.53;1/30/2021;9;2.105;140.82;-7.05680275972635;0.98;150.8;141.28;0.39;9.7;22.6;.00;4.20;4.20;86;92;468.1;15.7;-5.9;D;327.1;6;19.296;2;2.04;184;140.83;-80.13723579;25.91197244;0;0;1;N;1.40874;60;60;11;102;102;134.9938;0;9999.99;4.20;4.327;2;9;22.1;0;22.1000003814697;36.21;1528.43527;01/30/21;12:44:16;21.75;54.62;36.21;1.213;8.44;-83.7;-4.4;-4.0;-4992;90.9;6.47;13.1;;
25.91209919506;-80.137351249345;13:05:21.55;1/30/2021;9;2.037;141.36;-7.05680275972635;0.98;150.9;141.37;0.77;8.4;22.6;.00;4.13;4.13;86;92;468.1;15.7;-5.9;D;327.1;6;18.221;2;2.04;184;140.67;-80.13723579;25.91197244;0;0;1;N;1.377382;62;62;11;102;102;135.2128;0;9999.99;4.14;4.263525;2;9;22.1;0;22.1000003814697;36.22;1528.44637;01/30/21;12:44:17;21.75;54.62;36.22;1.196;8.46;-84.9;-3.8;-3.7;-4651;90.9;6.47;13.0;;
25.912090546134;-80.1373445584894;13:05:22.56;1/30/2021;9;2.077;143.18;-7.05680275972635;0.98;148.4;139;0.67;11.1;22.6;.00;4.21;4.21;86;90;467.9;15.7;-5.7;D;336.4;6;17.053;2;2.04;184;140.36;-80.13723579;25.91197244;0;0;1;N;1.385906;61;61;11;112;112;135.1536;0;9999.99;4.21;4.337;2;9;22.1;0;22.1000003814697;36.2;1528.42424;01/30/21;12:44:18;21.75;54.60;36.20;1.220;8.47;-85.8;-3.4;-5.0;-3553;91.0;6.47;13.1;;
25.9120818033665;-80.1373384542742;13:05:23.56;1/30/2021;9;2.1;145.96;-7.05680275972635;0.98;152.4;142.8;0.41;8.5;22.7;.00;4.13;4.13;86;90;467.9;15.7;-5.7;D;336.4;6;15.916;2;2.05;184;139.82;-80.13723579;25.91197244;0;0;1;N;1.435365;61;61;11;95;95;134.8095;0;9999.99;4.13;4.260772;2;9;22.1;0;22.1000003814697;36.23;1528.45737;01/30/21;12:44:19;21.74;54.64;36.23;1.230;8.43;-83.3;-3.8;-0.3;-2604;90.9;6.47;13.1;;
25.9120741242479;-80.1373327732886;13:05:24.56;1/30/2021;9;2.012;144.85;-7.05680275972635;0.98;150.3;140.8;0.68;10.9;22.7;.00;4.27;4.27;86;90;467.9;15.7;-5.7;D;336.4;6;14.897;2;2.04;184;139.37;-80.13723579;25.91197244;0;0;1;N;1.463578;61;61;11;102;102;134.6137;0;9999.99;4.28;4.407;2;9;22.1;0;22.1000003814697;36.21;1528.43528;01/30/21;12:44:20;21.75;54.62;36.21;1.212;8.45;-84.3;-3.5;-6.3;-3187;90.9;6.47;13.3;;
25.9120662927283;-80.1373274558923;13:05:25.58;1/30/2021;9;2.043;145.47;-7.05680275972635;0.98;150.8;141.28;0.74;9;22.6;.00;4.20;4.20;86;92;467.7;15.7;-5.9;D;326.8;6;13.891;2;2.09;184;138.7;-80.13723579;25.91197244;0;0;1;N;1.530093;61;61;11;98;98;134.1536;0;9999.99;4.20;4.33077;2;9;22.1;0;22.1000003814697;36.2;1528.42424;01/30/21;12:44:21;21.75;54.60;36.20;1.184;8.46;-85.3;-5.0;-2.1;-1958;91.0;6.47;13.0;;
25.912057526189;-80.1373205983697;13:05:26.61;1/30/2021;9;2.135;145.33;-7.05680275972635;0.98;150.4;140.9;0.77;9.8;22.7;.00;4.29;4.29;86;92;467.7;15.7;-5.9;D;326.8;6;12.707;2;2.1;184;138.12;-80.13723579;25.91197244;0;0;1;N;1.524414;62;62;11;100;100;134.1926;0;9999.99;4.30;4.427;2;9;22.1;0;22.1000003814697;36.2;1528.42426;01/30/21;12:44:22;21.75;54.60;36.20;1.194;8.46;-85.3;-3.6;-3.3;-4684;91.0;6.47;13.2;;
25.9120497010316;-80.1373145699905;13:05:27.61;1/30/2021;9;2.025;145.22;-7.05680275972635;0.98;149.9;140.42;-0.13;10.3;22.7;.00;4.29;4.29;86;92;467.7;15.7;-5.9;D;326.8;6;11.657;2;2.07;184;137.47;-80.13723579;25.91197244;0;0;1;N;1.533112;56;56;11;102;102;134.1327;0;9999.99;4.29;4.417;2;9;22.1;0;22.1000003814697;36.21;1528.43529;01/30/21;12:44:23;21.75;54.62;36.21;1.194;8.46;-84.9;-4.4;-1.1;-2606;91.0;6.47;13.2;;
25.912042523493;-80.1373086811928;13:05:28.61;1/30/2021;9;2.147;144.78;-7.05680275972635;0.98;151.9;142.33;0.33;8.7;22.6;.00;4.22;4.22;86;92;467.7;15.7;-5.9;D;326.8;6;10.671;2;2.06;184;136.91;-80.13723579;25.91197244;0;0;1;N;1.502669;59;59;11;95;95;134.3429;0;9999.99;4.22;4.346507;2;9;22.1;0;22.1000003814697;36.21;1528.43529;01/30/21;12:44:24;21.76;54.61;36.21;1.212;8.47;-85.5;-2.8;-5.7;-3274;91.0;6.47;13.3;;
25.9120348256744;-80.1373023943849;13:05:29.63;1/30/2021;9;1.976;144.56;-7.05680275972635;0.98;147;137.68;0.83;12;22.6;.00;4.27;4.27;86;94;467.5;15.6;-6;D;319.5;6;9.618;2;2.03;184;136.16;-80.13723579;25.91197244;0;0;1;N;1.492232;61;61;11;115;115;134.4152;0;9999.99;4.27;4.397;2;9;22.1;0;22.1000003814697;36.22;1528.44639;01/30/21;12:44:25;21.76;54.63;36.22;1.193;8.46;-85.4;-3.8;-4.2;-3246;91.0;6.47;13.1;;
25.9120272505057;-80.1372966288142;13:05:30.63;1/30/2021;9;2.043;145.22;-7.05680275972635;0.98;150.7;141.18;0.6;8.5;22.6;.00;4.18;4.19;86;94;467.5;15.6;-6;D;319.5;6;8.613;2;2.03;184;135.05;-80.13723579;25.91197244;0;0;1;N;1.495814;61;61;11;100;100;134.3904;0;9999.99;4.19;4.320689;2;9;22.1;0;22.1000003814697;36.21;1528.43542;01/30/21;12:44:26;21.76;54.62;36.21;1.221;8.51;-87.9;-4.0;0.5;-3050;91.0;6.48;13.2;;
25.912017947607;-80.1372888653479;13:05:31.63;1/30/2021;9;2.021;144.78;-7.05680275972635;0.98;148.9;139.48;0.9;11.6;22.6;.00;4.29;4.30;86;94;467.5;15.6;-6;D;319.5;6;7.334;2;2.03;184;133.63;-80.13723579;25.91197244;0;0;1;N;1.455285;62;62;11;108;108;134.6705;0;9999.99;4.30;4.427;2;9;22.1;0;22.1000003814697;36.21;1528.43541;01/30/21;12:44:27;21.76;54.61;36.21;1.204;8.46;-84.9;-4.7;-4.8;-2597;91.0;6.47;13.1;;
25.9120106415318;-80.1372833538893;13:05:32.63;1/30/2021;9;2.077;143.8;-7.05680275972635;0.98;149.9;140.42;0.73;9.3;22.6;.00;4.33;4.33;86;94;467.3;15.6;-6;D;319.6;6;6.378;2;2.04;184;131.76;-80.13723579;25.91197244;0;0;1;N;1.4661;61;61;11;104;104;134.5965;0;9999.99;4.34;4.467;2;9;22.1;0;22.1000003814697;36.22;1528.4464;01/30/21;12:44:28;21.76;54.63;36.22;1.181;8.46;-85.3;-3.7;-1.7;-2505;91.0;6.47;13.2;;
25.9120029613647;-80.1372774371178;13:05:33.63;1/30/2021;9;2.027;146.01;-7.05680275972635;0.98;150.8;141.28;0.28;8;22.6;.00;4.25;4.25;86;94;467.3;15.6;-6;D;319.6;6;5.373;2;2.09;184;129.17;-80.13723579;25.91197244;0;0;1;N;1.47352;59;59;11;102;102;134.5444;0;9999.99;4.26;4.384211;2;9;22.1;0;22.1000003814697;36.21;1528.43531;01/30/21;12:44:29;21.76;54.61;36.21;1.227;8.52;-88.8;-4.0;-4.1;-3117;91.0;6.47;13.0;;
25.9119951297734;-80.1372712318131;13:05:34.63;1/30/2021;9;2.086;144.28;-7.05680275972635;0.98;147.8;138.43;0.3;13.3;22.6;.00;4.39;4.39;86;93;467.2;15.6;-5.9;D;323.5;6;4.351;2;2.05;184;125.44;-80.13723579;25.91197244;0;0;1;N;1.470571;60;60;11;112;112;134.566;0;9999.99;4.40;4.527;2;9;22.1;0;22.1000003814697;36.21;1528.43531;01/30/21;12:44:30;21.76;54.61;36.21;1.212;8.44;-84.2;-3.1;-0.5;-2273;90.9;6.47;13.1;;
25.9119872045047;-80.1372650748992;13:05:35.63;1/30/2021;9;2.097;144.54;-7.05680275972635;0.98;151.6;142.04;0.7;12.4;22.6;.00;4.25;4.25;86;93;467.2;15.6;-5.9;D;323.5;7;14.952;2;2.07;184;151.54;-80.13719384;25.91186899;0;0;1;N;2.291506;61;61;11;153;153;147.3587;0;9999.99;4.25;4.376233;2;9;22.1;0;22.1000003814697;36.22;1528.44636;01/30/21;12:44:31;21.76;54.63;36.22;1.197;8.46;-85.0;-3.5;-5.9;-2027;91.0;6.47;13.0;;
25.9119791916053;-80.1372594941467;13:05:36.63;1/30/2021;9;2.043;144.72;-7.05680275972635;0.98;151.8;142.23;0.75;9.8;22.6;.00;4.31;4.31;86;93;467.2;15.6;-5.9;D;323.5;7;13.902;2;2.04;184;151.81;-80.13719384;25.91186899;0;0;1;N;2.003778;61;61;11;149;149;147.7159;0;9999.99;4.31;4.440552;2;9;22.1;0;22.1000003814697;36.2;1528.42427;01/30/21;12:44:32;21.76;54.61;36.20;1.212;8.52;-88.9;-4.0;-5.7;-3895;91.0;6.47;13.1;;
25.9119714583802;-80.1372545662887;13:05:37.63;1/30/2021;9;1.885;145.72;-7.05680275972635;0.98;157.5;147.68;1.03;8.8;22.6;.00;4.34;4.35;86;93;467.2;15.6;-5.9;D;323.5;7;12.912;2;2.01;184;151.94;-80.13719384;25.91186899;0;0;1;N;1.829198;63;63;11;130;130;147.7935;0;9999.99;4.35;4.477;2;9;22.1;0;22.1000003814697;36.21;1528.43531;01/30/21;12:44:33;21.76;54.61;36.21;1.191;8.44;-83.9;-3.4;-5.6;-2624;90.9;6.47;13.1;;
25.9119638005821;-80.1372490047052;13:05:38.63;1/30/2021;9;1.929;145.38;-7.05680275972635;0.98;160.7;150.77;0.94;10.1;22.7;.00;4.37;4.37;86;92;467.0;15.7;-5.9;D;326.7;7;11.899;2;2;184;152.37;-80.13719384;25.91186899;0;0;1;N;1.596936;61;61;11;122;122;148.6674;0;9999.99;4.38;4.507;2;9;22.1;0;22.1000003814697;36.22;1528.4465;01/30/21;12:44:34;21.76;54.63;36.22;1.189;8.46;-85.0;-4.0;0.0;-2346;90.9;6.46;13.1;;
25.9119556865683;-80.1372440120674;13:05:39.63;1/30/2021;9;2.033;148.5;-7.05680275972635;0.98;159.8;149.9;0.33;10.1;22.7;.00;4.29;4.29;86;92;467.0;15.7;-5.9;D;326.7;7;10.868;2;1.99;184;152.5;-80.13719384;25.91186899;0;0;1;N;1.431627;59;59;11;127;127;149.8144;0;9999.99;4.30;4.424629;2;9;22.1;0;22.1000003814697;36.21;1528.43536;01/30/21;12:44:35;21.77;54.61;36.21;1.201;8.47;-85.5;-4.0;-9.9;-2094;90.8;6.46;13.1;;
25.9119464491348;-80.1372389617895;13:05:40.63;1/30/2021;9;2.021;151.21;-7.05680275972635;0.98;162.2;152.22;0.47;11;22.7;.00;4.30;4.30;86;92;467.0;15.7;-5.9;D;326.7;7;9.724;2;1.99;184;152.35;-80.13719384;25.91186899;0;0;1;N;1.305899;60;60;11;121;121;150.6895;0;9999.99;4.30;4.431747;2;9;22.1;0;22.1000003814697;36.21;1528.43529;01/30/21;12:44:36;21.77;54.62;36.21;1.169;8.43;-83.6;-4.7;-4.8;-3718;90.8;6.46;13.1;;
25.9119380939296;-80.1372346646269;13:05:41.63;1/30/2021;9;1.984;154.35;-7.05680275972635;0.98;160.1;150.19;0.83;12.4;22.7;.00;4.31;4.31;86;98;466.8;15.6;-6.2;D;308.3;7;8.702;2;2.03;184;152.01;-80.13719384;25.91186899;0;0;1;N;1.224466;60;60;11;129;129;151.2582;0;9999.99;4.31;4.436295;2;9;22.1;0;22.1000003814697;36.22;1528.44632;01/30/21;12:44:37;21.77;54.62;36.22;1.210;8.45;-84.3;-3.4;-3.6;-1442;90.8;6.46;13.0;;
25.9119297014833;-80.1372311854072;13:05:42.63;1/30/2021;9;1.989;156.08;-7.05680275972635;0.98;165.3;155.24;0.58;8.2;22.7;.00;4.29;4.29;86;98;466.8;15.6;-6.2;D;308.3;7;7.715;2;2.02;184;151.04;-80.13719384;25.91186899;0;0;1;N;1.204593;61;61;11;109;109;151.3975;0;9999.99;4.29;4.420617;2;9;22.1;0;22.1000003814697;36.22;1528.44637;01/30/21;12:44:38;21.77;54.62;36.22;1.210;8.46;-85.4;-4.4;-8.4;-4004;90.8;6.46;13.2;;
25.9119208184587;-80.1372274317819;13:05:43.63;1/30/2021;9;1.941;157.2;-7.05680275972635;0.98;166.1;156.02;0.38;9.5;22.7;.00;4.36;4.36;86;98;466.8;15.6;-6.2;D;308.3;7;6.671;2;2.02;184;149.76;-80.13719384;25.91186899;0;0;1;N;1.189574;59;59;11;109;109;151.5024;0;9999.99;4.36;4.487;2;9;22.1;0;22.1000003814697;36.21;1528.43533;01/30/21;12:44:39;21.77;54.62;36.21;1.172;8.46;-85.0;-2.4;-2.2;-2925;90.8;6.46;13.0;;
25.9119117336412;-80.1372242508322;13:05:44.63;1/30/2021;9;2.028;158.98;-7.05680275972635;0.98;164.4;154.36;0.48;10.6;22.7;.00;4.38;4.38;86;98;466.8;15.6;-6.2;D;308.3;7;5.643;2;2.04;184;147.38;-80.13719384;25.91186899;0;0;1;N;1.241081;60;60;11;114;114;151.1415;0;9999.99;4.38;4.507;2;9;22.1;0;22.1000003814697;36.22;1528.44637;01/30/21;12:44:40;21.78;54.62;36.22;1.211;8.50;-87.3;-3.2;0.0;-3207;90.8;6.46;13.2;;
25.9119019990555;-80.1372208500092;13:05:45.66;1/30/2021;9;2.175;160.05;-7.05680275972635;0.98;166.3;156.21;0.77;10.7;22.6;.00;4.42;4.42;86;96;466.6;15.6;-6.1;D;312.5;7;4.557;2;2.03;184;143.65;-80.13719384;25.91186899;0;0;1;N;1.296079;63;63;11;106;106;150.7571;0;9999.99;4.42;4.547;2;9;22.1;0;22.1000003814697;36.21;1528.43532;01/30/21;12:44:41;21.78;54.61;36.21;1.214;8.47;-85.5;-4.7;2.0;-3566;90.9;6.46;13.0;;
25.9118934865398;-80.1372183181171;13:05:46.66;1/30/2021;9;2.078;161.09;-7.05680275972635;0.98;164.2;154.16;0.58;9.1;22.6;.00;4.39;4.39;86;96;466.6;15.6;-6.1;D;312.5;8;15.027;2;2.05;184;150.48;-80.13714428;25.91177589;0;0;1;N;1.030685;60;60;11;106;106;148.9392;0;9999.99;4.39;4.517;2;9;22.1;0;22.1000003814697;36.21;1528.43535;01/30/21;12:44:42;21.78;54.62;36.21;1.201;8.46;-85.0;-5.2;-3.1;-4086;90.8;6.46;13.1;;
25.9118834184146;-80.1372145886785;13:05:47.67;1/30/2021;9;2.029;160.96;-7.05680275972635;0.98;167.3;157.19;0.69;8.6;22.6;.00;4.32;4.32;86;96;466.6;15.6;-6.1;D;312.5;8;13.872;2;2;184;149.54;-80.13714428;25.91177589;0;0;1;N;1.170563;60;60;11;88;88;147.5969;0;9999.99;4.32;4.448791;2;9;22.1;0;22.1000003814697;36.21;1528.43529;01/30/21;12:44:43;21.78;54.61;36.21;1.208;8.51;-88.1;-3.9;-4.4;-577;90.7;6.45;13.1;;
25.9118752641139;-80.1372110174799;13:05:48.67;1/30/2021;9;1.995;161.61;-7.05680275972635;0.98;163.9;153.87;0.26;10.6;22.6;.00;4.41;4.41;86;91;466.4;15.6;-5.8;D;331.8;8;12.910;2;2.01;184;148.87;-80.13714428;25.91177589;0;0;1;N;1.249004;59;59;11;99;99;146.541;0;9999.99;4.42;4.547;2;9;22.1;0;22.1000003814697;36.22;1528.44639;01/30/21;12:44:44;21.77;54.62;36.22;1.191;8.45;-84.8;-3.2;-2.8;-3540;90.7;6.45;13.2;;
25.9118657213461;-80.1372068811771;13:05:49.67;1/30/2021;9;2.077;160.96;-7.05680275972635;0.98;165.8;155.72;0.29;9;22.7;.00;4.36;4.36;86;91;466.4;15.6;-5.8;D;331.8;8;11.789;2;2.04;184;147.92;-80.13714428;25.91177589;0;0;1;N;1.328912;59;59;11;86;86;145.4312;0;9999.99;4.36;4.486941;2;9;22.1;0;22.1000003814697;36.21;1528.43534;01/30/21;12:44:45;21.77;54.62;36.21;1.219;8.46;-85.1;-4.0;-4.5;-3122;90.7;6.45;13.0;;
25.9118564773247;-80.1372029185034;13:05:50.67;1/30/2021;9;2.052;159.24;-7.05680275972635;0.98;165.9;155.82;0.48;8.4;22.6;.00;4.40;4.40;86;91;466.4;15.6;-5.8;D;331.8;8;10.710;2;2.06;184;146.8;-80.13714428;25.91177589;0;0;1;N;1.416041;60;60;11;81;81;144.3756;0;9999.99;4.40;4.527;2;9;22.1;0;22.1000003814697;36.22;1528.44636;01/30/21;12:44:46;21.78;54.63;36.22;1.177;8.53;-89.2;-3.8;-0.7;-2562;90.7;6.45;13.2;;
25.9118489067294;-80.1371999050084;13:05:51.67;1/30/2021;9;2.038;161.05;-7.05680275972635;0.98;162.6;152.61;0.55;10.7;22.6;.00;4.43;4.43;86;91;466.4;15.6;-5.8;D;331.8;8;9.842;2;2.03;184;145.58;-80.13714428;25.91177589;0;0;1;N;1.516105;62;62;11;90;90;143.6837;0;9999.99;4.44;4.567;2;9;22.1;0;22.1000003814697;36.22;1528.44644;01/30/21;12:44:47;21.78;54.63;36.22;1.239;8.44;-83.9;-3.9;-6.2;-2669;90.7;6.45;13.1;;
25.9118398030272;-80.1371966717551;13:05:52.67;1/30/2021;9;2.049;160.74;-7.05680275972635;0.98;162.4;152.42;0.49;9.9;22.6;.00;4.32;4.32;86;97;466.2;15.6;-6.2;D;309.2;8;8.830;2;2.04;184;143.6;-80.13714428;25.91177589;0;0;1;N;1.659783;60;60;11;85;85;142.6934;0;9999.99;4.33;4.455776;2;9;22.1;0;22.1000003814697;36.21;1528.43539;01/30/21;12:44:48;21.77;54.62;36.21;1.188;8.45;-84.7;-3.4;0.0;-753;90.6;6.45;13.2;;
25.9118311793378;-80.1371924635098;13:05:53.67;1/30/2021;9;1.993;158.78;-7.05680275972635;0.98;160.5;150.58;0.42;11;22.7;.00;4.41;4.41;86;97;466.2;15.6;-6.2;D;309.2;8;7.811;2;2.03;184;141.91;-80.13714428;25.91177589;0;0;1;N;1.699324;60;60;11;94;94;142.4222;0;9999.99;4.42;4.547;2;9;22.1;0;22.1000003814697;36.21;1528.43535;01/30/21;12:44:49;21.77;54.61;36.21;1.208;8.47;-85.9;-5.7;-3.6;-3265;90.6;6.44;12.9;;
25.9118223164112;-80.1371883241518;13:05:54.67;1/30/2021;8;1.977;158.51;-7.05680275972635;0.98;160.3;150.38;0.97;8.6;22.7;.00;4.32;4.32;86;97;466.2;15.6;-6.2;D;309.2;8;6.787;2;2;184;139.53;-80.13714428;25.91177589;0;0;1;N;1.75435;63;63;11;94;94;142.0446;0;9999.99;4.32;4.448223;2;9;22.1;0;22.1000003814697;36.23;1528.45738;01/30/21;12:44:50;21.77;54.64;36.23;1.207;8.43;-83.4;-3.9;-3.7;-5399;90.6;6.44;13.1;;
25.9118141873974;-80.137183713146;13:05:55.72;1/30/2021;9;1.926;156.48;-7.05680275972635;0.98;160.6;150.67;0.79;8.6;22.7;.00;4.39;4.40;86;95;466.1;15.6;-6.1;D;315.9;8;5.804;2;2.01;184;137.2;-80.13714428;25.91177589;0;0;1;N;1.743059;61;61;11;94;94;142.1235;0;9999.99;4.40;4.527;2;9;22.1;0;22.1000003814697;36.2;1528.42431;01/30/21;12:44:52;21.77;54.61;36.20;1.226;8.47;-85.8;-3.8;-6.8;-2847;90.6;6.44;13.3;;
25.9118064549225;-80.1371801341826;13:05:56.72;1/30/2021;9;1.989;154.84;-7.05680275972635;0.98;158.1;148.26;0.46;11.7;22.6;.00;4.41;4.41;86;95;466.1;15.6;-6.1;D;315.9;9;15.792;2;1.99;184;165.45;-80.13714046;25.91166899;0;0;1;N;3.530227;60;60;11;174;174;160.1103;0;9999.99;4.42;4.547;2;9;22.1;0;22.1000003814697;36.22;1528.44642;01/30/21;12:44:53;21.76;54.63;36.22;1.209;8.46;-85.3;-3.5;-3.5;-3411;90.6;6.44;13.1;;
25.9117984764185;-80.1371756269934;13:05:57.72;1/30/2021;9;2.009;153.15;-7.05680275972635;0.98;162.6;152.61;0.21;11.9;22.7;.00;4.35;4.35;86;95;466.1;15.6;-6.1;D;315.9;9;14.822;2;1.99;184;166.27;-80.13714046;25.91166899;0;0;1;N;3.101653;58;58;11;161;161;161.0387;0;9999.99;4.35;4.47938;2;9;22.1;0;22.1000003814697;36.22;1528.44642;01/30/21;12:44:53;21.76;54.63;36.22;1.209;8.46;-85.3;-3.5;-3.5;-3411;90.6;6.44;13.1;;
25.9117908423778;-80.1371721094513;13:05:58.72;1/30/2021;9;1.935;152.97;-7.05680275972635;0.98;164.1;154.07;0.7;8.2;22.6;.00;4.31;4.31;86;95;466.1;15.6;-6.1;D;315.9;9;13.914;2;1.96;184;166.85;-80.13714046;25.91166899;0;0;1;N;2.780269;61;61;11;157;157;161.6434;0;9999.99;4.32;4.44213;2;9;22.1;0;22.1000003814697;36.2;1528.42425;01/30/21;12:44:54;21.77;54.61;36.20;1.212;8.48;-86.3;-3.6;-4.1;-2670;90.5;6.44;13.1;;
25.9117831101987;-80.1371688545706;13:05:59.72;1/30/2021;9;1.958;154.63;-7.05680275972635;0.98;169.6;159.45;0.87;10.7;22.6;.00;4.47;4.48;86;87;465.9;15.7;-5.5;D;346.2;9;13.003;2;1.93;184;167.39;-80.13714046;25.91166899;0;0;1;N;2.470614;64;64;11;138;138;162.312;0;9999.99;4.48;4.607;2;9;22.1;0;22.1000003814697;36.2;1528.42436;01/30/21;12:44:56;21.77;54.61;36.20;1.169;8.46;-85.2;-4.5;-4.1;-3918;90.6;6.44;13.1;;
25.911774074586;-80.1371652848062;13:06:00.72;1/30/2021;9;1.992;157.27;-7.05680275972635;0.98;170.5;160.33;0.62;11;22.7;.00;4.39;4.39;86;87;465.9;15.7;-5.5;D;346.2;9;11.946;2;1.88;184;168;-80.13714046;25.91166899;0;0;1;N;2.139763;61;61;11;139;139;163.25;0;9999.99;4.40;4.524464;2;9;22.1;0;22.1000003814697;36.2;1528.42436;01/30/21;12:44:56;21.77;54.61;36.20;1.169;8.46;-85.2;-4.5;-4.1;-3918;90.6;6.44;13.1;;
25.9117645323103;-80.1371629306751;13:06:01.72;1/30/2021;9;2.034;160.28;-7.05680275972635;0.98;172.5;162.3;0.95;10.2;22.7;.00;4.37;4.37;86;87;465.9;15.7;-5.5;D;346.2;9;10.859;2;1.91;184;168.06;-80.13714046;25.91166899;0;0;1;N;1.934394;63;63;11;136;136;164.5651;0;9999.99;4.38;4.506279;2;9;22.1;0;22.1000003814697;36.2;1528.4243;01/30/21;12:44:57;21.77;54.60;36.20;1.198;8.51;-88.1;-4.2;-4.2;-2557;90.6;6.44;13.0;;
25.9117558747224;-80.137160062416;13:06:02.72;1/30/2021;9;1.969;161.44;-7.05680275972635;0.98;177.8;167.57;0.91;11.1;22.6;.00;4.37;4.37;86;94;465.7;15.6;-6;D;319.5;9;9.858;2;1.91;184;168.53;-80.13714046;25.91166899;0;0;1;N;1.67488;63;63;11;129;129;166.334;0;9999.99;4.38;4.506856;2;9;22.1;0;22.1000003814697;36.21;1528.4355;01/30/21;12:44:59;21.76;54.61;36.21;1.189;8.46;-85.1;-3.1;-7.0;-3796;90.6;6.45;13.1;;
25.9117460318703;-80.1371586701407;13:06:03.72;1/30/2021;9;2.111;164.61;-7.05680275972635;0.98;175.8;165.57;0.91;9.4;22.6;.00;4.40;4.41;86;94;465.7;15.6;-6;D;319.5;9;8.758;2;1.92;184;168;-80.13714046;25.91166899;0;0;1;N;1.574918;62;62;11;133;133;167.0224;0;9999.99;4.41;4.541059;2;9;22.1;0;22.1000003814697;36.2;1528.42433;01/30/21;12:45:00;21.76;54.61;36.20;1.221;8.52;-88.8;-3.4;-7.6;-3268;90.6;6.44;13.1;;
25.911737062125;-80.1371575383766;13:06:04.72;1/30/2021;9;1.946;168.03;-7.05680275972635;0.98;180.2;169.97;0.73;9.9;22.6;.00;4.45;4.45;86;94;465.7;15.6;-6;D;319.5;9;7.759;2;1.92;184;167.28;-80.13714046;25.91166899;0;0;1;N;1.478594;61;61;11;118;118;167.6878;0;9999.99;4.46;4.587;2;9;22.1;0;22.1000003814697;36.2;1528.42433;01/30/21;12:45:00;21.76;54.61;36.20;1.221;8.52;-88.8;-3.4;-7.6;-3268;90.6;6.44;13.1;;
25.9117286666667;-80.1371585;13:06:05.78;1/30/2021;9;2.005;173.3;-7.05680275972635;0.98;179.2;168.96;0.82;10.9;22.7;.00;4.47;4.47;86;94;465.7;15.6;-6;D;319.5;9;6.720;2;1.99;184;165.86;-80.13714046;25.91166899;0;0;1;N;1.476712;61;61;11;121;121;167.7006;0;9999.99;4.47;4.597;2;9;22.1;0;22.1000003814697;36.2;1528.42426;01/30/21;12:45:02;21.77;54.61;36.20;1.193;8.46;-84.9;-2.9;-4.9;-4554;90.6;6.45;13.1;;
25.911719;-80.137158;13:06:06.78;1/30/2021;9;2.059;174.51;-7.05680275972635;0.98;182.2;171.97;0.44;8.9;22.7;.00;4.34;4.34;86;97;465.6;15.6;-6.2;D;309.3;9;5.867;2;1.97;184;163.56;-80.13714046;25.91166899;0;0;1;N;1.491506;60;60;11;110;110;167.5984;0;9999.99;4.35;4.476632;2;9;22.1;0;22.1000003814697;36.2;1528.42426;01/30/21;12:45:02;21.77;54.61;36.20;1.193;8.46;-84.9;-2.9;-4.9;-4554;90.6;6.45;13.1;;
